Time stamp(sec),adc1,adc2,roll_angular_rate,pitch_angular_rate,yaw_angular_rate,acc_X,acc_Y,acc_Z,mag_X,mag_Y,mag_Z,pressure,altitude
0.03442979999817908,0.374603271484375,-0.4530029296875,0.30926513671875,-0.747528076171875,0.3662109375,-0.30517578125,0.0,0.4478759765625,-0.80078125,0.399658203125,-295.0,152.0,-146.0,101700.0,-3.120000123977661,0,0
0.03448970000317786,0.374603271484375,-0.452972412109375,0.30926513671875,-0.747528076171875,-0.18310546875,0.0,-0.1220703125,0.445556640625,-0.8023681640625,0.39990234375,-295.0,152.0,-146.0,101700.0,-3.120000123977661,0,0
0.0345450000022538,0.374603271484375,-0.452972412109375,0.30926513671875,-0.747528076171875,-0.18310546875,0.0,-0.1220703125,0.445556640625,-0.8023681640625,0.39990234375,-295.0,152.0,-146.0,101700.0,-3.120000123977661,0,0
0.03459819999989122,0.374603271484375,-0.452972412109375,0.30926513671875,-0.747528076171875,-0.1220703125,-0.18310546875,0.06103515625,0.4451904296875,-0.8016357421875,0.400146484375,-295.0,152.0,-146.0,101700.0,-3.120000123977661,0,0
0.1027882999915164,0.374725341796875,-0.452972412109375,0.309173583984375,-0.74749755859375,0.0,-0.1220703125,0.244140625,0.4447021484375,-0.8006591796875,0.4017333984375,-294.0,152.0,-146.0,101700.0,-3.118000030517578,0,0
0.10284959999262355,0.374725341796875,-0.452972412109375,0.309173583984375,-0.74749755859375,-0.06103515625,-0.30517578125,-0.06103515625,0.4468994140625,-0.8018798828125,0.3990478515625,-294.0,152.0,-146.0,101700.0,-3.118000030517578,0,0
0.10290630000235979,0.374725341796875,-0.452972412109375,0.309173583984375,-0.74749755859375,-0.06103515625,-0.06103515625,0.0,0.4454345703125,-0.8016357421875,0.39892578125,-294.0,152.0,-146.0,101700.0,-3.118000030517578,0,0
0.10296039999229833,0.374725341796875,-0.452972412109375,0.309173583984375,-0.74749755859375,-0.1220703125,0.06103515625,-0.06103515625,0.4439697265625,-0.80126953125,0.3992919921875,-294.0,152.0,-146.0,101700.0,-3.118000030517578,0,0
0.10301439999602735,0.374725341796875,-0.452972412109375,0.309173583984375,-0.74749755859375,0.18310546875,-0.18310546875,0.0,0.44580078125,-0.802978515625,0.39794921875,-294.0,152.0,-146.0,101700.0,-3.118000030517578,0,0
0.10308339999755844,0.374725341796875,-0.452972412109375,0.309173583984375,-0.74749755859375,-0.06103515625,-0.18310546875,-0.1220703125,0.44580078125,-0.80126953125,0.4002685546875,-294.0,152.0,-146.0,101700.0,-3.118000030517578,0,0
0.10313779998978134,0.374725341796875,-0.452972412109375,0.309173583984375,-0.74749755859375,0.1220703125,-0.06103515625,-0.1220703125,0.4468994140625,-0.8016357421875,0.399658203125,-294.0,152.0,-146.0,101700.0,-3.118000030517578,0,0
0.10319129998970311,0.374725341796875,-0.452972412109375,0.309173583984375,-0.74749755859375,0.1220703125,-0.06103515625,-0.1220703125,0.4468994140625,-0.8016357421875,0.399658203125,-294.0,152.0,-146.0,101700.0,-3.118000030517578,0,0
0.10324589999800082,0.374725341796875,-0.45294189453125,0.309173583984375,-0.74749755859375,-0.18310546875,0.0,0.0,0.4442138671875,-0.8031005859375,0.3990478515625,-294.0,152.0,-146.0,101700.0,-3.118000030517578,0,0
0.10330049999174662,0.374725341796875,-0.45294189453125,0.309173583984375,-0.74749755859375,0.06103515625,0.06103515625,-0.18310546875,0.4459228515625,-0.8040771484375,0.4002685546875,-294.0,152.0,-146.0,101700.0,-3.118000030517578,0,0
0.10335309999936726,0.374725341796875,-0.45294189453125,0.309173583984375,-0.74749755859375,-0.244140625,-0.06103515625,0.0,0.445556640625,-0.802001953125,0.3995361328125,-294.0,152.0,-146.0,101700.0,-3.118000030517578,0,0
0.16229919999022968,0.374725341796875,-0.45294189453125,0.309173583984375,-0.74749755859375,0.18310546875,0.1220703125,-0.06103515625,0.4420166015625,-0.8006591796875,0.3992919921875,-294.0,152.0,-146.0,101700.0,-3.118000030517578,0,0
0.16236570000182837,0.374725341796875,-0.45294189453125,0.309173583984375,-0.747528076171875,-0.18310546875,-0.1220703125,-0.18310546875,0.4442138671875,-0.80126953125,0.39990234375,-294.0,152.0,-146.0,101700.0,-3.118000030517578,0,0
0.16242300000158139,0.374725341796875,-0.45294189453125,0.309173583984375,-0.74749755859375,0.1220703125,0.06103515625,-0.06103515625,0.4464111328125,-0.803466796875,0.398681640625,-294.0,152.0,-146.0,101700.0,-3.118000030517578,0,0
0.1624766000022646,0.374725341796875,-0.45294189453125,0.30914306640625,-0.747528076171875,0.18310546875,0.1220703125,-0.06103515625,0.4456787109375,-0.8009033203125,0.4012451171875,-294.0,152.0,-146.0,101700.0,-3.118000030517578,0,0
0.16253239999059588,0.374725341796875,-0.45294189453125,0.30914306640625,-0.747528076171875,-0.18310546875,-0.1220703125,0.1220703125,0.4466552734375,-0.8023681640625,0.3988037109375,-294.0,152.0,-146.0,101700.0,-3.118000030517578,0,0
0.16258879999804776,0.374725341796875,-0.45294189453125,0.30914306640625,-0.747528076171875,0.48828125,-0.18310546875,0.0,0.446044921875,-0.798583984375,0.3975830078125,-294.0,152.0,-146.0,101700.0,-3.118000030517578,0,0
0.1628385999938473,0.374725341796875,-0.45294189453125,0.30914306640625,-0.747528076171875,0.48828125,-0.18310546875,0.0,0.446044921875,-0.798583984375,0.3975830078125,-294.0,152.0,-146.0,101700.0,-3.118000030517578,0,0
0.16289349998987745,0.374725341796875,-0.45294189453125,0.30914306640625,-0.747528076171875,-0.18310546875,-0.1220703125,-0.06103515625,0.446044921875,-0.80419921875,0.3984375,-294.0,152.0,-146.0,101700.0,-3.121000051498413,0,0
0.1629547999909846,0.374847412109375,-0.452972412109375,0.30908203125,-0.747467041015625,-0.18310546875,-0.1220703125,-0.06103515625,0.446044921875,-0.80419921875,0.3984375,-294.0,152.0,-146.0,101700.0,-3.121000051498413,0,0
0.16300839999166783,0.374847412109375,-0.452972412109375,0.30908203125,-0.747467041015625,0.06103515625,-0.1220703125,0.18310546875,0.446044921875,-0.80517578125,0.399169921875,-294.0,152.0,-146.0,101700.0,-3.121000051498413,0,0
0.16305999999167398,0.374847412109375,-0.452972412109375,0.30908203125,-0.747467041015625,-0.06103515625,0.0,-0.18310546875,0.44677734375,-0.802734375,0.4010009765625,-294.0,152.0,-146.0,101700.0,-3.121000051498413,0,0
0.16322849999414757,0.374847412109375,-0.452972412109375,0.30908203125,-0.747467041015625,-0.1220703125,0.06103515625,0.18310546875,0.444580078125,-0.802734375,0.401123046875,-294.0,152.0,-146.0,101700.0,-3.121000051498413,0,0
0.16328409999550786,0.374847412109375,-0.452972412109375,0.30908203125,-0.74749755859375,-0.1220703125,-0.1220703125,0.0,0.4464111328125,-0.80224609375,0.3997802734375,-294.0,152.0,-146.0,101700.0,-3.121000051498413,0,0
0.22513049999543,0.374847412109375,-0.45294189453125,0.30908203125,-0.74749755859375,0.06103515625,-0.06103515625,0.0,0.4444580078125,-0.8031005859375,0.401123046875,-294.0,152.0,-146.0,101700.0,-3.121000051498413,0,0
0.22519409999949858,0.374847412109375,-0.452972412109375,0.309051513671875,-0.74749755859375,0.1220703125,-0.06103515625,0.1220703125,0.4483642578125,-0.800537109375,0.3995361328125,-294.0,152.0,-146.0,101700.0,-3.121000051498413,0,0
0.22525009998935275,0.374847412109375,-0.452972412109375,0.309051513671875,-0.74749755859375,0.1220703125,-0.06103515625,0.1220703125,0.4483642578125,-0.800537109375,0.3995361328125,-294.0,152.0,-146.0,101700.0,-3.121000051498413,0,0
0.22530239999468904,0.374847412109375,-0.452972412109375,0.309051513671875,-0.74749755859375,-0.244140625,0.42724609375,-0.06103515625,0.4466552734375,-0.7996826171875,0.3992919921875,-294.0,152.0,-146.0,101700.0,-3.121000051498413,0,0
0.22535739999148063,0.374847412109375,-0.452972412109375,0.309051513671875,-0.74749755859375,0.18310546875,-0.1220703125,0.06103515625,0.44677734375,-0.8016357421875,0.3995361328125,-294.0,152.0,-146.0,101700.0,-3.121000051498413,0,0
0.2282682999939425,0.374847412109375,-0.452972412109375,0.309051513671875,-0.74749755859375,0.48828125,-0.1220703125,-0.06103515625,0.4464111328125,-0.8021240234375,0.4031982421875,-294.0,152.0,-146.0,101700.0,-3.121000051498413,0,0
0.22832919999200385,0.374847412109375,-0.45294189453125,0.309051513671875,-0.74749755859375,-0.30517578125,-0.1220703125,-0.1220703125,0.4461669921875,-0.80224609375,0.4013671875,-294.0,152.0,-146.0,101700.0,-3.121000051498413,0,0
0.22842020000098273,0.374847412109375,-0.45294189453125,0.309051513671875,-0.74749755859375,-0.1220703125,-0.06103515625,0.06103515625,0.445556640625,-0.802978515625,0.4005126953125,-294.0,152.0,-146.0,101700.0,-3.121000051498413,0,0
0.22847499999625143,0.374847412109375,-0.45294189453125,0.309051513671875,-0.74749755859375,-0.1220703125,-0.06103515625,0.06103515625,0.445556640625,-0.802978515625,0.4005126953125,-294.0,152.0,-146.0,101700.0,-3.121000051498413,0,0
0.2285293000022648,0.374847412109375,-0.45294189453125,0.309051513671875,-0.74749755859375,0.06103515625,-0.06103515625,-0.244140625,0.4447021484375,-0.799560546875,0.39794921875,-294.0,152.0,-146.0,101700.0,-3.121000051498413,0,0
0.22858299998915754,0.374847412109375,-0.45294189453125,0.309051513671875,-0.74749755859375,0.06103515625,-0.06103515625,-0.244140625,0.4447021484375,-0.799560546875,0.39794921875,-294.0,152.0,-146.0,101700.0,-3.121000051498413,0,0
0.29291629999352153,0.374847412109375,-0.45294189453125,0.309051513671875,-0.74749755859375,0.244140625,-0.1220703125,0.0,0.4456787109375,-0.8023681640625,0.3995361328125,-295.0,153.0,-146.0,101700.0,-3.117000102996826,0,0
0.2929788999899756,0.37493896484375,-0.4530029296875,0.308990478515625,-0.747467041015625,-0.18310546875,0.0,0.1220703125,0.4453125,-0.8013916015625,0.40087890625,-295.0,153.0,-146.0,101700.0,-3.117000102996826,0,0
0.293034299989813,0.37493896484375,-0.452972412109375,0.308990478515625,-0.747467041015625,0.0,0.1220703125,0.06103515625,0.444091796875,-0.8021240234375,0.39892578125,-295.0,153.0,-146.0,101700.0,-3.117000102996826,0,0
0.2930879999912577,0.37493896484375,-0.452972412109375,0.3089599609375,-0.747467041015625,-0.1220703125,-0.244140625,-0.244140625,0.4464111328125,-0.7998046875,0.400634765625,-295.0,153.0,-146.0,101700.0,-3.117000102996826,0,0
0.29314480000175536,0.37493896484375,-0.452972412109375,0.3089599609375,-0.747467041015625,0.18310546875,0.1220703125,0.0,0.446044921875,-0.8011474609375,0.4019775390625,-295.0,153.0,-146.0,101700.0,-3.117000102996826,0,0
0.29340830000001006,0.37493896484375,-0.452972412109375,0.3089599609375,-0.747467041015625,0.18310546875,0.0,-0.18310546875,0.4451904296875,-0.8037109375,0.400390625,-295.0,153.0,-146.0,101700.0,-3.117000102996826,0,0
0.29346289999375585,0.37493896484375,-0.452972412109375,0.3089599609375,-0.747467041015625,0.18310546875,0.0,-0.18310546875,0.4451904296875,-0.8037109375,0.400390625,-295.0,153.0,-146.0,101700.0,-3.117000102996826,0,0
0.2935161999921547,0.37493896484375,-0.452972412109375,0.3089599609375,-0.747467041015625,0.18310546875,-0.06103515625,-0.30517578125,0.4444580078125,-0.8028564453125,0.3974609375,-295.0,153.0,-146.0,101700.0,-3.117000102996826,0,0
0.29356900000129826,0.37493896484375,-0.452972412109375,0.3089599609375,-0.747467041015625,-0.06103515625,0.06103515625,0.1220703125,0.445556640625,-0.80078125,0.400146484375,-295.0,153.0,-146.0,101700.0,-3.117000102996826,0,0
0.29362209999817424,0.37493896484375,-0.452972412109375,0.3089599609375,-0.747467041015625,0.0,0.06103515625,-0.06103515625,0.4456787109375,-0.8016357421875,0.4002685546875,-295.0,153.0,-146.0,101700.0,-3.117000102996826,0,0
0.2936747999920044,0.37493896484375,-0.452972412109375,0.3089599609375,-0.747467041015625,0.1220703125,0.1220703125,0.18310546875,0.444580078125,-0.8018798828125,0.399169921875,-295.0,153.0,-146.0,101700.0,-3.117000102996826,0,0
0.36686189999454655,0.37493896484375,-0.452972412109375,0.3089599609375,-0.747467041015625,-0.06103515625,0.0,-0.30517578125,0.4443359375,-0.8021240234375,0.398193359375,-295.0,153.0,-146.0,101700.0,-3.117000102996826,0,0
0.36693869999726303,0.37493896484375,-0.452972412109375,0.3089599609375,-0.747467041015625,-0.244140625,-0.06103515625,-0.244140625,0.4462890625,-0.8040771484375,0.3988037109375,-295.0,153.0,-146.0,101700.0,-3.117000102996826,0,0
0.3669979999976931,0.37493896484375,-0.452972412109375,0.3089599609375,-0.747467041015625,0.1220703125,-0.1220703125,0.0,0.4453125,-0.7999267578125,0.39892578125,-295.0,153.0,-146.0,101700.0,-3.117000102996826,0,0
0.36705309999524616,0.37493896484375,-0.452972412109375,0.3089599609375,-0.747467041015625,0.1220703125,-0.1220703125,0.0,0.4453125,-0.7999267578125,0.39892578125,-295.0,153.0,-146.0,101700.0,-3.117000102996826,0,0
0.3671083999943221,0.37493896484375,-0.45294189453125,0.3089599609375,-0.74749755859375,0.30517578125,0.06103515625,-0.06103515625,0.445556640625,-0.7996826171875,0.399658203125,-295.0,153.0,-146.0,101700.0,-3.117000102996826,0,0
0.36717669999052305,0.37493896484375,-0.45294189453125,0.3089599609375,-0.74749755859375,0.30517578125,-0.18310546875,0.1220703125,0.4443359375,-0.8018798828125,0.398681640625,-295.0,153.0,-146.0,101700.0,-3.117000102996826,0,0
0.3672297000011895,0.374969482421875,-0.45294189453125,0.3089599609375,-0.74749755859375,0.244140625,-0.18310546875,-0.18310546875,0.4432373046875,-0.8026123046875,0.4000244140625,-295.0,153.0,-146.0,101700.0,-3.117000102996826,0,0
0.3672818999912124,0.374969482421875,-0.45294189453125,0.3089599609375,-0.74749755859375,0.244140625,-0.18310546875,-0.18310546875,0.4432373046875,-0.8026123046875,0.4000244140625,-296.0,152.0,-146.0,101700.0,-3.117000102996826,0,0
0.36733510000340175,0.37506103515625,-0.452972412109375,0.30889892578125,-0.7474365234375,0.1220703125,-0.06103515625,0.18310546875,0.445068359375,-0.8021240234375,0.3988037109375,-296.0,152.0,-146.0,101700.0,-3.117000102996826,0,0
0.3673876999964705,0.37506103515625,-0.4530029296875,0.30889892578125,-0.7474365234375,0.0,-0.06103515625,-0.1220703125,0.4443359375,-0.80126953125,0.3992919921875,-296.0,152.0,-146.0,101700.0,-3.117000102996826,0,0
0.3674389999941923,0.37506103515625,-0.4530029296875,0.30889892578125,-0.7474365234375,-0.1220703125,0.0,0.18310546875,0.4462890625,-0.8038330078125,0.3983154296875,-296.0,152.0,-146.0,101700.0,-3.117000102996826,0,0
0.4250614999909885,0.37506103515625,-0.4530029296875,0.30889892578125,-0.7474365234375,0.18310546875,-0.06103515625,-0.18310546875,0.4462890625,-0.8001708984375,0.399658203125,-296.0,152.0,-146.0,101700.0,-3.117000102996826,0,0
0.42513340000004973,0.37506103515625,-0.452972412109375,0.308868408203125,-0.7474365234375,0.06103515625,0.0,-0.1220703125,0.44482421875,-0.801025390625,0.4007568359375,-296.0,152.0,-146.0,101700.0,-3.117000102996826,0,0
0.42519280000124127,0.37506103515625,-0.452972412109375,0.308868408203125,-0.7474365234375,0.18310546875,0.06103515625,-0.1220703125,0.4453125,-0.80126953125,0.4000244140625,-296.0,152.0,-146.0,101700.0,-3.117000102996826,0,0
0.42524919999414124,0.37506103515625,-0.452972412109375,0.308868408203125,-0.7474365234375,0.06103515625,0.06103515625,0.06103515625,0.4453125,-0.8016357421875,0.4010009765625,-296.0,152.0,-146.0,101700.0,-3.117000102996826,0,0
0.4253074000007473,0.37506103515625,-0.452972412109375,0.308868408203125,-0.7474365234375,0.18310546875,0.1220703125,-0.1220703125,0.44580078125,-0.8009033203125,0.398193359375,-296.0,152.0,-146.0,101700.0,-3.117000102996826,0,0
0.4264355999912368,0.37506103515625,-0.452972412109375,0.308868408203125,-0.7474365234375,-0.06103515625,0.06103515625,-0.1220703125,0.4466552734375,-0.8009033203125,0.3988037109375,-296.0,152.0,-146.0,101700.0,-3.117000102996826,0,0
0.4264973999961512,0.37506103515625,-0.452972412109375,0.308868408203125,-0.7474365234375,-0.06103515625,-0.244140625,-0.06103515625,0.4447021484375,-0.802001953125,0.39794921875,-296.0,152.0,-146.0,101700.0,-3.117000102996826,0,0
0.42659799999091774,0.37506103515625,-0.452972412109375,0.308868408203125,-0.7474365234375,0.1220703125,-0.18310546875,0.06103515625,0.443115234375,-0.80078125,0.400390625,-296.0,152.0,-146.0,101700.0,-3.117000102996826,0,0
0.4266522999969311,0.37506103515625,-0.452972412109375,0.308868408203125,-0.7474365234375,0.0,0.06103515625,0.0,0.4461669921875,-0.8028564453125,0.3983154296875,-296.0,152.0,-146.0,101700.0,-3.117000102996826,0,0
0.4267056999960914,0.37506103515625,-0.452972412109375,0.308868408203125,-0.7474365234375,0.0,0.06103515625,0.0,0.4461669921875,-0.8028564453125,0.3983154296875,-296.0,152.0,-146.0,101700.0,-3.117000102996826,0,0
0.42675769999914337,0.37506103515625,-0.452972412109375,0.308868408203125,-0.7474365234375,0.06103515625,0.06103515625,0.0,0.4437255859375,-0.8018798828125,0.3984375,-296.0,152.0,-146.0,101700.0,-3.117000102996826,0,0
0.49104199999419507,0.37506103515625,-0.452972412109375,0.30889892578125,-0.7474365234375,0.1220703125,0.06103515625,-0.244140625,0.446533203125,-0.8011474609375,0.3985595703125,-296.0,152.0,-146.0,101700.0,-3.117000102996826,0,0
0.4911128999956418,0.37506103515625,-0.452972412109375,0.30889892578125,-0.7474365234375,-0.244140625,0.18310546875,-0.06103515625,0.4468994140625,-0.8035888671875,0.3975830078125,-295.0,151.0,-146.0,101700.0,-3.119000196456909,0,0
0.49117009999463335,0.37506103515625,-0.452972412109375,0.30889892578125,-0.7474365234375,0.06103515625,-0.1220703125,-0.30517578125,0.4462890625,-0.7999267578125,0.397216796875,-295.0,151.0,-146.0,101700.0,-3.119000196456909,0,0
0.491227099992102,0.375274658203125,-0.45306396484375,0.30877685546875,-0.747344970703125,-0.3662109375,-0.1220703125,-0.18310546875,0.446044921875,-0.8016357421875,0.3983154296875,-295.0,151.0,-146.0,101700.0,-3.119000196456909,0,0
0.49128319999726955,0.375274658203125,-0.45306396484375,0.30877685546875,-0.747344970703125,0.06103515625,-0.1220703125,-0.3662109375,0.4453125,-0.8018798828125,0.398193359375,-295.0,151.0,-146.0,101700.0,-3.119000196456909,0,0
0.49135389999719337,0.375274658203125,-0.45306396484375,0.30877685546875,-0.747344970703125,0.06103515625,-0.1220703125,-0.3662109375,0.4453125,-0.8018798828125,0.398193359375,-295.0,151.0,-146.0,101700.0,-3.119000196456909,0,0
0.4914072999963537,0.375274658203125,-0.45306396484375,0.308746337890625,-0.747344970703125,-0.1220703125,-0.1220703125,-0.06103515625,0.4473876953125,-0.8011474609375,0.3975830078125,-295.0,151.0,-146.0,101700.0,-3.119000196456909,0,0
0.491460699995514,0.375244140625,-0.45306396484375,0.308746337890625,-0.747344970703125,0.06103515625,0.06103515625,-0.1220703125,0.44580078125,-0.7999267578125,0.3983154296875,-295.0,151.0,-146.0,101700.0,-3.119000196456909,0,0
0.4915133999893442,0.375244140625,-0.45306396484375,0.308746337890625,-0.747344970703125,0.06103515625,0.06103515625,-0.244140625,0.4449462890625,-0.801513671875,0.39794921875,-295.0,151.0,-146.0,101700.0,-3.119000196456909,0,0
0.4915668000030564,0.375274658203125,-0.45306396484375,0.308746337890625,-0.747344970703125,0.06103515625,-0.18310546875,0.06103515625,0.4461669921875,-0.802001953125,0.3984375,-295.0,151.0,-146.0,101700.0,-3.119000196456909,0,0
0.49162020000221673,0.375244140625,-0.45306396484375,0.308746337890625,-0.747344970703125,0.1220703125,0.1220703125,-0.1220703125,0.4464111328125,-0.8009033203125,0.3992919921875,-295.0,151.0,-146.0,101700.0,-3.119000196456909,0,0
0.5443813000019873,0.375244140625,-0.45306396484375,0.308746337890625,-0.747344970703125,0.06103515625,0.0,0.06103515625,0.446533203125,-0.802734375,0.3997802734375,-295.0,151.0,-146.0,101700.0,-3.119000196456909,0,0
0.5444527999934508,0.375244140625,-0.45306396484375,0.308746337890625,-0.747344970703125,-0.1220703125,-0.1220703125,0.244140625,0.4483642578125,-0.8046875,0.3992919921875,-295.0,151.0,-146.0,101700.0,-3.119000196456909,0,0
0.544509699990158,0.375244140625,-0.45306396484375,0.308746337890625,-0.747344970703125,-0.42724609375,-0.06103515625,-0.1220703125,0.4451904296875,-0.801513671875,0.401123046875,-295.0,151.0,-146.0,101700.0,-3.119000196456909,0,0
0.544566999989911,0.375244140625,-0.45306396484375,0.308746337890625,-0.747344970703125,-0.06103515625,0.06103515625,0.0,0.4444580078125,-0.8031005859375,0.4000244140625,-295.0,151.0,-146.0,101700.0,-3.119000196456909,0,0
0.5446319999900879,0.375244140625,-0.45306396484375,0.308746337890625,-0.747344970703125,-0.06103515625,0.06103515625,0.0,0.4444580078125,-0.8031005859375,0.4000244140625,-295.0,151.0,-146.0,101700.0,-3.119000196456909,0,0
0.544687999994494,0.375274658203125,-0.45306396484375,0.308746337890625,-0.747344970703125,-0.1220703125,-0.1220703125,0.0,0.4459228515625,-0.8018798828125,0.4002685546875,-295.0,151.0,-146.0,101700.0,-3.119000196456909,0,0
0.5447404000005918,0.375244140625,-0.45306396484375,0.308746337890625,-0.747344970703125,0.0,-0.06103515625,-0.1220703125,0.44677734375,-0.8017578125,0.398681640625,-295.0,151.0,-146.0,101700.0,-3.119000196456909,0,0
0.5449514999927487,0.375244140625,-0.45306396484375,0.308746337890625,-0.747344970703125,-0.06103515625,0.1220703125,-0.06103515625,0.447021484375,-0.8001708984375,0.3994140625,-295.0,151.0,-146.0,101700.0,-3.119000196456909,0,0
0.545007099994109,0.375244140625,-0.45306396484375,0.308746337890625,-0.747344970703125,-0.06103515625,-0.1220703125,-0.06103515625,0.4451904296875,-0.8023681640625,0.3983154296875,-295.0,151.0,-146.0,101700.0,-3.119000196456909,0,0
0.5450607999955537,0.375244140625,-0.45306396484375,0.308746337890625,-0.747344970703125,0.1220703125,-0.244140625,0.1220703125,0.4454345703125,-0.8037109375,0.3984375,-295.0,151.0,-146.0,101700.0,-3.119000196456909,0,0
0.5451136999909068,0.375244140625,-0.45306396484375,0.308746337890625,-0.747344970703125,0.0,-0.1220703125,-0.1220703125,0.4432373046875,-0.80126953125,0.39794921875,-295.0,151.0,-146.0,101700.0,-3.119000196456909,0,0
0.5451674999931129,0.375244140625,-0.45306396484375,0.308746337890625,-0.747344970703125,0.0,-0.1220703125,-0.1220703125,0.4432373046875,-0.80126953125,0.39794921875,-294.0,152.0,-146.0,101700.0,-3.117000102996826,0,0
0.5452203000022564,0.3753662109375,-0.453094482421875,0.308685302734375,-0.747314453125,0.18310546875,-0.1220703125,0.18310546875,0.4453125,-0.7989501953125,0.398681640625,-294.0,152.0,-146.0,101700.0,-3.117000102996826,0,0
0.6116083999950206,0.3753662109375,-0.453094482421875,0.308685302734375,-0.747314453125,0.1220703125,-0.06103515625,0.06103515625,0.4449462890625,-0.8001708984375,0.400634765625,-294.0,152.0,-146.0,101700.0,-3.117000102996826,0,0
0.6117381999938516,0.3753662109375,-0.453125,0.308685302734375,-0.747314453125,-0.1220703125,0.06103515625,0.0,0.4473876953125,-0.8031005859375,0.3984375,-294.0,152.0,-146.0,101700.0,-3.117000102996826,0,0
0.6118603999930201,0.3753662109375,-0.453125,0.308685302734375,-0.747314453125,0.0,-0.06103515625,-0.244140625,0.4476318359375,-0.800537109375,0.398193359375,-294.0,152.0,-146.0,101700.0,-3.117000102996826,0,0
0.6120165999891469,0.3753662109375,-0.453094482421875,0.308685302734375,-0.747314453125,0.0,-0.244140625,-0.1220703125,0.443359375,-0.8013916015625,0.3983154296875,-294.0,152.0,-146.0,101700.0,-3.117000102996826,0,0
0.6120897999935551,0.3753662109375,-0.453125,0.308685302734375,-0.747314453125,0.06103515625,-0.1220703125,-0.18310546875,0.4456787109375,-0.801025390625,0.3985595703125,-294.0,152.0,-146.0,101700.0,-3.117000102996826,0,0
0.6122642999980599,0.3753662109375,-0.453094482421875,0.308685302734375,-0.747314453125,0.0,0.0,-0.18310546875,0.4449462890625,-0.802490234375,0.4014892578125,-294.0,152.0,-146.0,101700.0,-3.117000102996826,0,0
0.6123303999920608,0.3753662109375,-0.453094482421875,0.30865478515625,-0.747314453125,0.0,0.0,-0.18310546875,0.4449462890625,-0.802490234375,0.4014892578125,-294.0,152.0,-146.0,101700.0,-3.117000102996826,0,0
0.6123929000023054,0.3753662109375,-0.453094482421875,0.30865478515625,-0.747314453125,0.18310546875,0.06103515625,-0.06103515625,0.447998046875,-0.8013916015625,0.402099609375,-294.0,152.0,-146.0,101700.0,-3.117000102996826,0,0
0.612454499991145,0.3753662109375,-0.453094482421875,0.30865478515625,-0.747314453125,0.18310546875,0.06103515625,-0.06103515625,0.447998046875,-0.8013916015625,0.402099609375,-294.0,152.0,-146.0,101700.0,-3.117000102996826,0,0
0.6125165999983437,0.3753662109375,-0.453094482421875,0.30865478515625,-0.747314453125,-0.18310546875,-0.244140625,0.18310546875,0.4439697265625,-0.8009033203125,0.4002685546875,-294.0,152.0,-146.0,101700.0,-3.117000102996826,0,0
0.6125757999980124,0.3753662109375,-0.453094482421875,0.30865478515625,-0.747314453125,0.1220703125,-0.244140625,-0.30517578125,0.4488525390625,-0.8023681640625,0.399658203125,-294.0,152.0,-146.0,101700.0,-3.117000102996826,0,0
0.6714544999995269,0.3753662109375,-0.453094482421875,0.30865478515625,-0.747314453125,-0.1220703125,-0.1220703125,-0.18310546875,0.446533203125,-0.8035888671875,0.39990234375,-294.0,152.0,-146.0,101700.0,-3.117000102996826,0,0
0.6715228999964893,0.3753662109375,-0.45306396484375,0.30865478515625,-0.747314453125,0.0,-0.18310546875,-0.06103515625,0.4453125,-0.8011474609375,0.4005126953125,-294.0,152.0,-146.0,101700.0,-3.117000102996826,0,0
0.6716296999948099,0.3753662109375,-0.45306396484375,0.30865478515625,-0.747314453125,0.06103515625,-0.1220703125,-0.18310546875,0.4432373046875,-0.80224609375,0.39990234375,-294.0,152.0,-146.0,101700.0,-3.117000102996826,0,0
0.6716951999987941,0.3753662109375,-0.45306396484375,0.30865478515625,-0.747314453125,0.0,0.0,0.06103515625,0.446044921875,-0.8018798828125,0.3995361328125,-295.0,152.0,-147.0,101700.0,-3.118000030517578,0,0
0.6717542999977013,0.3753662109375,-0.45306396484375,0.30865478515625,-0.747314453125,0.0,0.0,0.06103515625,0.446044921875,-0.8018798828125,0.3995361328125,-295.0,152.0,-147.0,101700.0,-3.118000030517578,0,0
0.6725216999911936,0.375579833984375,-0.453155517578125,0.30853271484375,-0.747222900390625,0.1220703125,-0.18310546875,-0.18310546875,0.445556640625,-0.801025390625,0.3984375,-295.0,152.0,-147.0,101700.0,-3.118000030517578,0,0
0.6725886999920476,0.375579833984375,-0.453155517578125,0.30853271484375,-0.747222900390625,-0.06103515625,-0.18310546875,0.0,0.4466552734375,-0.80126953125,0.3995361328125,-295.0,152.0,-147.0,101700.0,-3.118000030517578,0,0
0.6726494999893475,0.375579833984375,-0.453155517578125,0.30853271484375,-0.747222900390625,0.18310546875,-0.1220703125,0.0,0.44677734375,-0.8001708984375,0.400634765625,-295.0,152.0,-147.0,101700.0,-3.118000030517578,0,0
0.6727074999944307,0.375579833984375,-0.453155517578125,0.308502197265625,-0.747222900390625,0.06103515625,-0.06103515625,0.06103515625,0.4447021484375,-0.7996826171875,0.4013671875,-295.0,152.0,-147.0,101700.0,-3.118000030517578,0,0
0.6727638000011211,0.375579833984375,-0.453155517578125,0.308502197265625,-0.747222900390625,0.0,-0.1220703125,-0.244140625,0.4476318359375,-0.802001953125,0.4000244140625,-295.0,152.0,-147.0,101700.0,-3.118000030517578,0,0
0.67281930000172,0.375579833984375,-0.453155517578125,0.308502197265625,-0.74725341796875,0.18310546875,-0.1220703125,0.18310546875,0.4466552734375,-0.8011474609375,0.4002685546875,-295.0,152.0,-147.0,101700.0,-3.118000030517578,0,0
0.7350573000003351,0.37554931640625,-0.453155517578125,0.308502197265625,-0.74725341796875,-0.1220703125,-0.06103515625,0.0,0.4478759765625,-0.80078125,0.3992919921875,-295.0,152.0,-147.0,101700.0,-3.118000030517578,0,0
0.7351261000003433,0.37554931640625,-0.453155517578125,0.308502197265625,-0.74725341796875,-0.18310546875,-0.1220703125,0.06103515625,0.4464111328125,-0.8033447265625,0.3992919921875,-295.0,152.0,-147.0,101700.0,-3.118000030517578,0,0
0.735188399994513,0.37554931640625,-0.453155517578125,0.308502197265625,-0.74725341796875,0.1220703125,-0.06103515625,0.0,0.4449462890625,-0.8013916015625,0.39990234375,-295.0,152.0,-147.0,101700.0,-3.118000030517578,0,0
0.7352471999911359,0.37554931640625,-0.453155517578125,0.308502197265625,-0.74725341796875,0.1220703125,-0.06103515625,0.0,0.4449462890625,-0.8013916015625,0.39990234375,-295.0,152.0,-147.0,101700.0,-3.118000030517578,0,0
0.735308499992243,0.375579833984375,-0.453155517578125,0.308502197265625,-0.74725341796875,0.18310546875,0.1220703125,0.06103515625,0.4447021484375,-0.8031005859375,0.3990478515625,-295.0,152.0,-147.0,101700.0,-3.118000030517578,0,0
0.7353694999910658,0.375579833984375,-0.453155517578125,0.308502197265625,-0.74725341796875,-0.06103515625,-0.18310546875,-0.18310546875,0.4454345703125,-0.801513671875,0.4005126953125,-295.0,152.0,-147.0,101700.0,-3.118000030517578,0,0
0.7371344999992289,0.375579833984375,-0.453155517578125,0.308502197265625,-0.74725341796875,0.1220703125,0.06103515625,-0.30517578125,0.4464111328125,-0.802490234375,0.3990478515625,-295.0,152.0,-147.0,101700.0,-3.118000030517578,0,0
0.7372222999983933,0.375579833984375,-0.453155517578125,0.308502197265625,-0.74725341796875,0.18310546875,0.0,-0.06103515625,0.443603515625,-0.8009033203125,0.3997802734375,-295.0,152.0,-147.0,101700.0,-3.118000030517578,0,0
0.7372815999988234,0.375579833984375,-0.453125,0.308502197265625,-0.74725341796875,0.1220703125,0.1220703125,-0.06103515625,0.446044921875,-0.8009033203125,0.400634765625,-295.0,152.0,-147.0,101700.0,-3.118000030517578,0,0
0.7373391000000993,0.375579833984375,-0.453125,0.308502197265625,-0.74725341796875,0.1220703125,0.1220703125,-0.06103515625,0.446044921875,-0.8009033203125,0.400634765625,-295.0,152.0,-147.0,101700.0,-3.118000030517578,0,0
0.7373969000036595,0.375579833984375,-0.453125,0.3084716796875,-0.74725341796875,0.06103515625,-0.1220703125,-0.18310546875,0.447021484375,-0.799560546875,0.3997802734375,-295.0,152.0,-147.0,101700.0,-3.118000030517578,0,0
0.7374570999963908,0.375579833984375,-0.453125,0.308502197265625,-0.74725341796875,-0.06103515625,0.06103515625,-0.1220703125,0.443359375,-0.8006591796875,0.3988037109375,-295.0,152.0,-147.0,101700.0,-3.118000030517578,0,0
0.7375166999991052,0.375579833984375,-0.453125,0.308502197265625,-0.74725341796875,-0.06103515625,0.06103515625,-0.1220703125,0.443359375,-0.8006591796875,0.3988037109375,-295.0,152.0,-147.0,101700.0,-3.118000030517578,0,0
0.8020212999981595,0.37579345703125,-0.45318603515625,0.308380126953125,-0.747161865234375,-0.1220703125,-0.06103515625,-0.06103515625,0.44384765625,-0.80078125,0.3985595703125,-296.0,153.0,-147.0,101700.0,-3.118000030517578,0,0
0.8020967999909772,0.37579345703125,-0.45318603515625,0.308380126953125,-0.747161865234375,0.18310546875,-0.06103515625,-0.06103515625,0.443603515625,-0.799560546875,0.39990234375,-296.0,153.0,-147.0,101700.0,-3.118000030517578,0,0
0.8021571999997832,0.37579345703125,-0.45318603515625,0.308380126953125,-0.747161865234375,0.0,0.06103515625,-0.06103515625,0.4447021484375,-0.8023681640625,0.3997802734375,-296.0,153.0,-147.0,101700.0,-3.118000030517578,0,0
0.8022160999971675,0.37579345703125,-0.45318603515625,0.308380126953125,-0.747161865234375,0.0,0.06103515625,-0.1220703125,0.44482421875,-0.8018798828125,0.3994140625,-296.0,153.0,-147.0,101700.0,-3.118000030517578,0,0
0.8022762999898987,0.37579345703125,-0.45318603515625,0.308380126953125,-0.747161865234375,-0.1220703125,-0.06103515625,0.0,0.4454345703125,-0.8004150390625,0.4000244140625,-296.0,153.0,-147.0,101700.0,-3.118000030517578,0,0
0.802502699996694,0.37579345703125,-0.45318603515625,0.308380126953125,-0.747161865234375,-0.1220703125,0.0,-0.1220703125,0.4451904296875,-0.802490234375,0.400146484375,-296.0,153.0,-147.0,101700.0,-3.118000030517578,0,0
0.8025669999915408,0.37579345703125,-0.45318603515625,0.308349609375,-0.747161865234375,-0.244140625,-0.18310546875,0.0,0.44677734375,-0.800048828125,0.3983154296875,-296.0,153.0,-147.0,101700.0,-3.118000030517578,0,0
0.8026381999952719,0.37579345703125,-0.45318603515625,0.308349609375,-0.747161865234375,-0.244140625,-0.18310546875,0.0,0.44677734375,-0.800048828125,0.3983154296875,-296.0,153.0,-147.0,101700.0,-3.118000030517578,0,0
0.8028576999931829,0.37579345703125,-0.45318603515625,0.308349609375,-0.747161865234375,0.18310546875,0.0,0.06103515625,0.4453125,-0.8018798828125,0.3994140625,-296.0,153.0,-147.0,101700.0,-3.117000102996826,0,0
0.8029168999928515,0.37579345703125,-0.45318603515625,0.308349609375,-0.747161865234375,0.30517578125,0.06103515625,-0.18310546875,0.444091796875,-0.8006591796875,0.401611328125,-296.0,153.0,-147.0,101700.0,-3.117000102996826,0,0
0.8029753000009805,0.37579345703125,-0.45318603515625,0.308349609375,-0.747161865234375,0.1220703125,-0.244140625,-0.244140625,0.447509765625,-0.801513671875,0.4007568359375,-296.0,153.0,-147.0,101700.0,-3.117000102996826,0,0
0.865051200002199,0.37579345703125,-0.45318603515625,0.308349609375,-0.747161865234375,0.0,-0.06103515625,0.0,0.4454345703125,-0.802490234375,0.3995361328125,-296.0,153.0,-147.0,101700.0,-3.117000102996826,0,0
0.865114000000176,0.37579345703125,-0.45318603515625,0.308349609375,-0.747161865234375,0.06103515625,-0.244140625,-0.18310546875,0.4468994140625,-0.80126953125,0.3988037109375,-296.0,153.0,-147.0,101700.0,-3.117000102996826,0,0
0.8651699999900302,0.37579345703125,-0.45318603515625,0.308349609375,-0.747161865234375,0.06103515625,0.06103515625,-0.06103515625,0.4461669921875,-0.80126953125,0.398681640625,-296.0,153.0,-147.0,101700.0,-3.117000102996826,0,0
0.8652232000022195,0.37579345703125,-0.45318603515625,0.308349609375,-0.747161865234375,0.06103515625,0.06103515625,-0.06103515625,0.4461669921875,-0.80126953125,0.398681640625,-296.0,153.0,-147.0,101700.0,-3.117000102996826,0,0
0.8652801999996882,0.37579345703125,-0.45318603515625,0.308349609375,-0.747161865234375,-0.06103515625,-0.06103515625,0.0,0.446044921875,-0.804443359375,0.39990234375,-296.0,153.0,-147.0,101700.0,-3.117000102996826,0,0
0.8667669999995269,0.37579345703125,-0.45318603515625,0.308349609375,-0.747161865234375,0.18310546875,-0.1220703125,-0.06103515625,0.44482421875,-0.8026123046875,0.3995361328125,-295.0,152.0,-148.0,101700.0,-3.117000102996826,0,0
0.8668247000023257,0.37579345703125,-0.45318603515625,0.308349609375,-0.747161865234375,0.18310546875,0.06103515625,-0.1220703125,0.444580078125,-0.8023681640625,0.3983154296875,-295.0,152.0,-148.0,101700.0,-3.117000102996826,0,0
0.8669119999976829,0.37591552734375,-0.453216552734375,0.30828857421875,-0.74713134765625,0.1220703125,-0.30517578125,-0.1220703125,0.444091796875,-0.80078125,0.40087890625,-295.0,152.0,-148.0,101700.0,-3.117000102996826,0,0
0.8669661000021733,0.37591552734375,-0.453216552734375,0.30828857421875,-0.74713134765625,-0.06103515625,0.0,-0.06103515625,0.4449462890625,-0.798583984375,0.400146484375,-295.0,152.0,-148.0,101700.0,-3.117000102996826,0,0
0.8670203999936348,0.37591552734375,-0.45318603515625,0.30828857421875,-0.74713134765625,-0.1220703125,-0.06103515625,-0.18310546875,0.444580078125,-0.802490234375,0.4007568359375,-295.0,152.0,-148.0,101700.0,-3.117000102996826,0,0
0.8670753999904264,0.37591552734375,-0.45318603515625,0.30828857421875,-0.74713134765625,0.06103515625,-0.1220703125,-0.244140625,0.445068359375,-0.8009033203125,0.400146484375,-295.0,152.0,-148.0,101700.0,-3.117000102996826,0,0
0.9303928000008455,0.37591552734375,-0.45318603515625,0.30828857421875,-0.74713134765625,-0.18310546875,-0.06103515625,0.0,0.446533203125,-0.801025390625,0.400146484375,-295.0,152.0,-148.0,101700.0,-3.117000102996826,0,0
0.9304663999937475,0.37591552734375,-0.45318603515625,0.30828857421875,-0.74713134765625,-0.06103515625,0.0,-0.06103515625,0.4459228515625,-0.8004150390625,0.400146484375,-295.0,152.0,-148.0,101700.0,-3.117000102996826,0,0
0.9305255999934161,0.37591552734375,-0.45318603515625,0.30828857421875,-0.74713134765625,-0.06103515625,0.0,-0.06103515625,0.4459228515625,-0.8004150390625,0.400146484375,-295.0,152.0,-148.0,101700.0,-3.117000102996826,0,0
0.9305812999955378,0.37591552734375,-0.45318603515625,0.30828857421875,-0.74713134765625,-0.30517578125,-0.06103515625,-0.06103515625,0.44580078125,-0.8018798828125,0.3995361328125,-295.0,152.0,-148.0,101700.0,-3.117000102996826,0,0
0.930639300000621,0.37591552734375,-0.45318603515625,0.30828857421875,-0.74713134765625,-0.06103515625,-0.06103515625,-0.18310546875,0.4451904296875,-0.803466796875,0.4010009765625,-295.0,152.0,-148.0,101700.0,-3.117000102996826,0,0
0.9306948000012198,0.37591552734375,-0.45318603515625,0.30828857421875,-0.74713134765625,0.0,0.06103515625,0.18310546875,0.4444580078125,-0.801025390625,0.400390625,-295.0,152.0,-148.0,101700.0,-3.117000102996826,0,0
0.9307478999980958,0.37591552734375,-0.45318603515625,0.30828857421875,-0.74713134765625,0.06103515625,-0.1220703125,0.0,0.4453125,-0.8026123046875,0.396728515625,-295.0,152.0,-148.0,101700.0,-3.117000102996826,0,0
0.9308148999989498,0.37591552734375,-0.45318603515625,0.30828857421875,-0.74713134765625,0.0,-0.06103515625,0.06103515625,0.4456787109375,-0.801513671875,0.398681640625,-295.0,152.0,-148.0,101700.0,-3.117000102996826,0,0
0.9309122999984538,0.37591552734375,-0.45318603515625,0.30828857421875,-0.74713134765625,0.244140625,0.30517578125,-0.06103515625,0.44384765625,-0.8016357421875,0.400390625,-295.0,152.0,-148.0,101700.0,-3.117000102996826,0,0
0.9309817000030307,0.37591552734375,-0.45318603515625,0.30828857421875,-0.74713134765625,-0.18310546875,-0.1220703125,0.06103515625,0.445556640625,-0.8011474609375,0.4005126953125,-295.0,152.0,-148.0,101700.0,-3.117000102996826,0,0
0.9310392999905162,0.37591552734375,-0.45318603515625,0.30828857421875,-0.74713134765625,0.06103515625,-0.18310546875,0.0,0.4437255859375,-0.8004150390625,0.4002685546875,-295.0,152.0,-148.0,101700.0,-3.117000102996826,0,0
0.9310938999988139,0.37591552734375,-0.45318603515625,0.30828857421875,-0.74713134765625,0.06103515625,-0.18310546875,0.0,0.4437255859375,-0.8004150390625,0.4002685546875,-295.0,152.0,-148.0,101700.0,-3.117000102996826,0,0
0.9311468999949284,0.37591552734375,-0.453155517578125,0.30828857421875,-0.74713134765625,0.06103515625,0.06103515625,-0.18310546875,0.4466552734375,-0.8018798828125,0.400390625,-295.0,152.0,-148.0,101700.0,-3.117000102996826,0,0
0.9942224999977043,0.37591552734375,-0.453155517578125,0.30828857421875,-0.74713134765625,0.06103515625,-0.18310546875,-0.06103515625,0.4442138671875,-0.8011474609375,0.401123046875,-295.0,152.0,-149.0,101700.0,-3.117000102996826,0,0
0.9942912999977125,0.375823974609375,-0.453125,0.308349609375,-0.7471923828125,-0.48828125,0.0,0.06103515625,0.4444580078125,-0.80224609375,0.3995361328125,-295.0,152.0,-149.0,101700.0,-3.117000102996826,0,0
0.9943483999959426,0.375823974609375,-0.453125,0.308349609375,-0.7471923828125,0.18310546875,0.0,-0.06103515625,0.443359375,-0.8017578125,0.4000244140625,-295.0,152.0,-149.0,101700.0,-3.117000102996826,0,0
0.9944023999996716,0.375823974609375,-0.453125,0.308349609375,-0.7471923828125,-0.1220703125,-0.1220703125,-0.30517578125,0.4459228515625,-0.80322265625,0.401123046875,-295.0,152.0,-149.0,101700.0,-3.117000102996826,0,0
0.9944571999949403,0.375823974609375,-0.453094482421875,0.308349609375,-0.7471923828125,0.1220703125,0.1220703125,-0.06103515625,0.445068359375,-0.8011474609375,0.400390625,-295.0,152.0,-149.0,101700.0,-3.117000102996826,0,0
0.9957385000016075,0.375823974609375,-0.453094482421875,0.308349609375,-0.7471923828125,0.1220703125,0.1220703125,-0.06103515625,0.444580078125,-0.803466796875,0.399658203125,-295.0,152.0,-149.0,101700.0,-3.117000102996826,0,0
0.9957976000005146,0.375823974609375,-0.453094482421875,0.308349609375,-0.7471923828125,0.1220703125,0.1220703125,-0.06103515625,0.444580078125,-0.803466796875,0.399658203125,-295.0,152.0,-149.0,101700.0,-3.117000102996826,0,0
0.9960448999918299,0.375823974609375,-0.453094482421875,0.308349609375,-0.7471923828125,0.06103515625,0.0,0.06103515625,0.4456787109375,-0.8021240234375,0.4012451171875,-295.0,152.0,-149.0,101700.0,-3.117000102996826,0,0
0.9961014000000432,0.3758544921875,-0.453094482421875,0.308349609375,-0.7471923828125,0.18310546875,-0.1220703125,0.18310546875,0.4442138671875,-0.8021240234375,0.4007568359375,-295.0,152.0,-149.0,101700.0,-3.117000102996826,0,0
0.9961552000022493,0.3758544921875,-0.453094482421875,0.308349609375,-0.7471923828125,0.1220703125,0.06103515625,0.1220703125,0.4459228515625,-0.8023681640625,0.4002685546875,-295.0,152.0,-149.0,101700.0,-3.117000102996826,0,0
0.996207799995318,0.375823974609375,-0.453094482421875,0.308349609375,-0.747222900390625,0.1220703125,0.06103515625,0.1220703125,0.4459228515625,-0.8023681640625,0.4002685546875,-295.0,152.0,-149.0,101700.0,-3.117000102996826,0,0
1.0569109999923967,0.375823974609375,-0.453094482421875,0.308319091796875,-0.747222900390625,-0.06103515625,0.06103515625,0.0,0.447021484375,-0.8021240234375,0.4002685546875,-295.0,152.0,-149.0,101700.0,-3.117000102996826,0,0
1.056984900002135,0.375823974609375,-0.453094482421875,0.308319091796875,-0.747222900390625,0.0,-0.30517578125,0.1220703125,0.4476318359375,-0.8026123046875,0.4014892578125,-295.0,152.0,-149.0,101700.0,-3.117000102996826,0,0
1.0570429999934277,0.375823974609375,-0.453094482421875,0.308319091796875,-0.747222900390625,0.0,-0.30517578125,0.1220703125,0.4476318359375,-0.8026123046875,0.4014892578125,-295.0,152.0,-149.0,101700.0,-3.117000102996826,0,0
1.0570996000024024,0.375823974609375,-0.453094482421875,0.308319091796875,-0.747222900390625,-0.1220703125,-0.30517578125,0.18310546875,0.4482421875,-0.8033447265625,0.400146484375,-295.0,152.0,-149.0,101700.0,-3.117000102996826,0,0
1.0573492999974405,0.375823974609375,-0.453094482421875,0.308319091796875,-0.747222900390625,0.06103515625,0.18310546875,-0.1220703125,0.4459228515625,-0.80126953125,0.4007568359375,-295.0,152.0,-149.0,101700.0,-3.117000102996826,0,0
1.057467299993732,0.375823974609375,-0.453094482421875,0.308319091796875,-0.747222900390625,0.0,0.06103515625,-0.18310546875,0.4468994140625,-0.8026123046875,0.3983154296875,-295.0,152.0,-149.0,101700.0,-3.117000102996826,0,0
1.057523499999661,0.375823974609375,-0.453094482421875,0.308319091796875,-0.747222900390625,-0.06103515625,-0.1220703125,-0.244140625,0.4449462890625,-0.8009033203125,0.400146484375,-295.0,152.0,-149.0,101700.0,-3.117000102996826,0,0
1.0575801999948453,0.375823974609375,-0.453094482421875,0.308319091796875,-0.747222900390625,-0.06103515625,0.0,-0.18310546875,0.4461669921875,-0.8006591796875,0.3992919921875,-295.0,153.0,-149.0,101700.0,-3.117000102996826,0,0
1.0576334999932442,0.375823974609375,-0.453094482421875,0.308319091796875,-0.747222900390625,0.244140625,-0.1220703125,-0.1220703125,0.4451904296875,-0.7978515625,0.3980712890625,-295.0,153.0,-149.0,101700.0,-3.117000102996826,0,0
1.0576865999901202,0.375823974609375,-0.453094482421875,0.308319091796875,-0.747222900390625,0.0,0.06103515625,-0.30517578125,0.44482421875,-0.8037109375,0.4010009765625,-295.0,153.0,-149.0,101700.0,-3.117000102996826,0,0
1.0577383999916492,0.3758544921875,-0.453094482421875,0.308319091796875,-0.747222900390625,0.244140625,-0.18310546875,0.06103515625,0.443603515625,-0.8028564453125,0.400390625,-295.0,153.0,-149.0,101700.0,-3.117000102996826,0,0
1.0577911000000313,0.375823974609375,-0.453094482421875,0.308319091796875,-0.747222900390625,-0.18310546875,-0.06103515625,0.1220703125,0.4434814453125,-0.8035888671875,0.398681640625,-295.0,153.0,-149.0,101700.0,-3.117000102996826,0,0
1.121733399995719,0.375823974609375,-0.453094482421875,0.308319091796875,-0.747222900390625,-0.18310546875,-0.06103515625,0.1220703125,0.4434814453125,-0.8035888671875,0.398681640625,-295.0,153.0,-149.0,101700.0,-3.117000102996826,0,0
1.1217979999928502,0.375823974609375,-0.453094482421875,0.308319091796875,-0.747222900390625,-0.06103515625,-0.06103515625,0.0,0.445556640625,-0.7998046875,0.399658203125,-295.0,153.0,-149.0,101700.0,-3.117000102996826,0,0
1.1241948999959277,0.375823974609375,-0.453094482421875,0.308319091796875,-0.747222900390625,-0.06103515625,-0.18310546875,0.1220703125,0.4454345703125,-0.802001953125,0.398681640625,-295.0,153.0,-149.0,101700.0,-3.117000102996826,0,0
1.1243393999902764,0.375823974609375,-0.453094482421875,0.308319091796875,-0.747222900390625,0.18310546875,-0.1220703125,-0.06103515625,0.4456787109375,-0.80224609375,0.400390625,-295.0,153.0,-149.0,101700.0,-3.117000102996826,0,0
1.124438899991219,0.375823974609375,-0.453094482421875,0.308319091796875,-0.747222900390625,0.1220703125,0.06103515625,0.06103515625,0.4453125,-0.80322265625,0.3975830078125,-295.0,153.0,-149.0,101700.0,-3.117000102996826,0,0
1.124513199989451,0.375823974609375,-0.453094482421875,0.308319091796875,-0.747222900390625,0.1220703125,0.06103515625,0.06103515625,0.4453125,-0.80322265625,0.3975830078125,-295.0,153.0,-149.0,101700.0,-3.117000102996826,0,0
1.1248739000002388,0.375823974609375,-0.453094482421875,0.308319091796875,-0.747222900390625,0.0,-0.42724609375,-0.18310546875,0.4461669921875,-0.803955078125,0.3974609375,-295.0,153.0,-149.0,101700.0,-3.117000102996826,0,0
1.125004599991371,0.375823974609375,-0.453094482421875,0.308319091796875,-0.747222900390625,0.1220703125,-0.1220703125,-0.06103515625,0.443115234375,-0.7998046875,0.4000244140625,-295.0,153.0,-149.0,101700.0,-3.117000102996826,0,0
1.1918831999937538,0.375823974609375,-0.453094482421875,0.308319091796875,-0.747222900390625,0.244140625,0.1220703125,0.1220703125,0.44580078125,-0.802734375,0.3983154296875,-295.0,153.0,-149.0,101700.0,-3.117000102996826,0,0
1.191949799991562,0.375823974609375,-0.453094482421875,0.308319091796875,-0.747222900390625,0.0,-0.30517578125,-0.18310546875,0.4461669921875,-0.8006591796875,0.3995361328125,-295.0,153.0,-149.0,101700.0,-3.117000102996826,0,0
1.1920096999965608,0.375823974609375,-0.453094482421875,0.308319091796875,-0.747222900390625,-0.06103515625,-0.1220703125,0.06103515625,0.4453125,-0.799560546875,0.400634765625,-296.0,152.0,-149.0,101700.0,-3.117000102996826,0,0
1.1920670999970753,0.375732421875,-0.45306396484375,0.308380126953125,-0.74725341796875,0.18310546875,0.18310546875,-0.18310546875,0.445068359375,-0.8037109375,0.398681640625,-296.0,152.0,-149.0,101700.0,-3.117000102996826,0,0
1.1921246999991126,0.375732421875,-0.45306396484375,0.308380126953125,-0.74725341796875,-0.06103515625,-0.1220703125,-0.18310546875,0.4453125,-0.80078125,0.40087890625,-296.0,152.0,-149.0,101700.0,-3.117000102996826,0,0
1.1923700999905122,0.375732421875,-0.45306396484375,0.308380126953125,-0.74725341796875,-0.06103515625,-0.1220703125,-0.18310546875,0.4453125,-0.80078125,0.40087890625,-296.0,152.0,-149.0,101700.0,-3.117000102996826,0,0
1.192438400001265,0.375732421875,-0.45306396484375,0.308380126953125,-0.74725341796875,-0.18310546875,0.0,-0.18310546875,0.445556640625,-0.801025390625,0.398681640625,-296.0,152.0,-149.0,101700.0,-3.117000102996826,0,0
1.1929303999932017,0.375732421875,-0.45306396484375,0.308380126953125,-0.74725341796875,0.3662109375,0.0,-0.1220703125,0.4451904296875,-0.803466796875,0.400146484375,-296.0,152.0,-149.0,101700.0,-3.117000102996826,0,0
1.193011099996511,0.375732421875,-0.45306396484375,0.30841064453125,-0.74725341796875,0.06103515625,-0.18310546875,-0.18310546875,0.445556640625,-0.80517578125,0.3975830078125,-296.0,152.0,-149.0,101700.0,-3.117000102996826,0,0
1.193298700003652,0.375732421875,-0.45306396484375,0.30841064453125,-0.74725341796875,0.0,-0.18310546875,-0.244140625,0.44580078125,-0.802490234375,0.3984375,-296.0,152.0,-149.0,101700.0,-3.117000102996826,0,0
1.193382700002985,0.375732421875,-0.45306396484375,0.30841064453125,-0.74725341796875,0.18310546875,0.06103515625,-0.06103515625,0.446044921875,-0.8017578125,0.398681640625,-296.0,152.0,-149.0,101700.0,-3.117000102996826,0,0
1.193445899989456,0.375732421875,-0.45306396484375,0.30841064453125,-0.74725341796875,-0.06103515625,0.06103515625,0.18310546875,0.44580078125,-0.802978515625,0.398681640625,-296.0,152.0,-149.0,101700.0,-3.117000102996826,0,0
1.244477200001711,0.375732421875,-0.45306396484375,0.30841064453125,-0.74725341796875,0.18310546875,-0.18310546875,-0.1220703125,0.44580078125,-0.8023681640625,0.3985595703125,-296.0,152.0,-149.0,101700.0,-3.117000102996826,0,0
1.244542000000365,0.375732421875,-0.45306396484375,0.30841064453125,-0.74725341796875,0.1220703125,-0.18310546875,0.06103515625,0.4464111328125,-0.8013916015625,0.40087890625,-296.0,152.0,-149.0,101700.0,-3.117000102996826,0,0
1.2446009999985108,0.375732421875,-0.45306396484375,0.30841064453125,-0.74725341796875,0.0,0.0,-0.1220703125,0.4449462890625,-0.8018798828125,0.39697265625,-296.0,152.0,-149.0,101700.0,-3.117000102996826,0,0
1.2446592999913264,0.375732421875,-0.45306396484375,0.30841064453125,-0.74725341796875,0.18310546875,-0.1220703125,0.1220703125,0.44580078125,-0.802001953125,0.3975830078125,-296.0,152.0,-149.0,101700.0,-3.117000102996826,0,0
1.24556080000184,0.375732421875,-0.45306396484375,0.30841064453125,-0.74725341796875,0.0,0.06103515625,0.06103515625,0.4468994140625,-0.8011474609375,0.3995361328125,-296.0,152.0,-149.0,101700.0,-3.117000102996826,0,0
1.245627099997364,0.375732421875,-0.45306396484375,0.30841064453125,-0.74725341796875,0.0,-0.06103515625,0.06103515625,0.447509765625,-0.8035888671875,0.3984375,-296.0,152.0,-149.0,101700.0,-3.117000102996826,0,0
1.2456893999915337,0.375732421875,-0.45306396484375,0.30841064453125,-0.74725341796875,0.244140625,0.06103515625,-0.18310546875,0.4461669921875,-0.8004150390625,0.398681640625,-296.0,152.0,-149.0,101700.0,-3.117000102996826,0,0
1.245748100001947,0.375732421875,-0.45306396484375,0.30841064453125,-0.74725341796875,0.0,-0.18310546875,-0.18310546875,0.4473876953125,-0.801025390625,0.3988037109375,-296.0,152.0,-149.0,101700.0,-3.117000102996826,0,0
1.2458072000008542,0.375732421875,-0.45306396484375,0.30841064453125,-0.74725341796875,0.0,-0.18310546875,-0.18310546875,0.4473876953125,-0.801025390625,0.3988037109375,-295.0,152.0,-149.0,101700.0,-3.117000102996826,0,0
1.2458631999907084,0.375640869140625,-0.453033447265625,0.3084716796875,-0.747283935546875,0.244140625,-0.1220703125,-0.1220703125,0.44384765625,-0.800537109375,0.3985595703125,-295.0,152.0,-149.0,101700.0,-3.117000102996826,0,0
1.2459186999913072,0.375640869140625,-0.453033447265625,0.3084716796875,-0.747283935546875,0.244140625,-0.1220703125,-0.1220703125,0.44384765625,-0.800537109375,0.3985595703125,-295.0,152.0,-149.0,101700.0,-3.117000102996826,0,0
1.311831799990614,0.375640869140625,-0.453033447265625,0.3084716796875,-0.747283935546875,-0.18310546875,0.1220703125,-0.1220703125,0.4454345703125,-0.8028564453125,0.39794921875,-295.0,152.0,-149.0,101700.0,-3.117000102996826,0,0
1.3118966999900294,0.375640869140625,-0.453033447265625,0.308502197265625,-0.747283935546875,0.30517578125,-0.06103515625,-0.30517578125,0.4462890625,-0.802490234375,0.398193359375,-295.0,152.0,-149.0,101700.0,-3.117000102996826,0,0
1.311955899989698,0.375640869140625,-0.453033447265625,0.308502197265625,-0.747283935546875,0.0,-0.1220703125,-0.06103515625,0.4443359375,-0.802490234375,0.399658203125,-295.0,152.0,-149.0,101700.0,-3.117000102996826,0,0
1.3120118999941042,0.375640869140625,-0.453033447265625,0.308502197265625,-0.747283935546875,0.0,0.18310546875,0.0,0.446044921875,-0.8011474609375,0.3984375,-295.0,152.0,-149.0,101700.0,-3.117000102996826,0,0
1.3120699999999488,0.375640869140625,-0.453033447265625,0.308502197265625,-0.747283935546875,0.06103515625,0.1220703125,0.18310546875,0.444091796875,-0.8023681640625,0.39892578125,-295.0,152.0,-149.0,101700.0,-3.117000102996826,0,0
1.312125800002832,0.375640869140625,-0.453033447265625,0.308502197265625,-0.747283935546875,0.0,-0.06103515625,-0.18310546875,0.4432373046875,-0.801513671875,0.3985595703125,-295.0,152.0,-149.0,101700.0,-3.117000102996826,0,0
1.3132737999985693,0.375640869140625,-0.453033447265625,0.308502197265625,-0.747283935546875,0.0,0.06103515625,0.1220703125,0.4454345703125,-0.8037109375,0.401611328125,-295.0,152.0,-149.0,101700.0,-3.117000102996826,0,0
1.3133923999994295,0.375640869140625,-0.453033447265625,0.308502197265625,-0.747283935546875,-0.244140625,0.06103515625,0.06103515625,0.4462890625,-0.801513671875,0.3975830078125,-295.0,152.0,-149.0,101700.0,-3.117000102996826,0,0
1.3134514999983367,0.375640869140625,-0.453033447265625,0.308502197265625,-0.747283935546875,-0.244140625,0.06103515625,0.06103515625,0.4462890625,-0.801513671875,0.3975830078125,-295.0,152.0,-149.0,101700.0,-3.117000102996826,0,0
1.3135088999988511,0.375640869140625,-0.453033447265625,0.308502197265625,-0.747283935546875,0.06103515625,-0.1220703125,-0.244140625,0.447509765625,-0.8017578125,0.3985595703125,-295.0,152.0,-149.0,101700.0,-3.117000102996826,0,0
1.313565499993274,0.375640869140625,-0.453033447265625,0.308502197265625,-0.747283935546875,0.30517578125,-0.244140625,0.0,0.4461669921875,-0.8026123046875,0.3990478515625,-295.0,152.0,-149.0,101700.0,-3.117000102996826,0,0
1.3136231999960728,0.375640869140625,-0.453033447265625,0.308502197265625,-0.747283935546875,-0.06103515625,-0.30517578125,0.0,0.4429931640625,-0.802734375,0.39892578125,-295.0,152.0,-149.0,101700.0,-3.117000102996826,0,0
1.3828692999959458,0.375640869140625,-0.453033447265625,0.308502197265625,-0.747283935546875,0.30517578125,0.0,-0.06103515625,0.4447021484375,-0.799072265625,0.398193359375,-295.0,152.0,-149.0,101700.0,-3.117000102996826,0,0
1.3829379999951925,0.375640869140625,-0.453033447265625,0.308502197265625,-0.747283935546875,0.18310546875,0.06103515625,-0.06103515625,0.4449462890625,-0.800537109375,0.3978271484375,-295.0,152.0,-149.0,101700.0,-3.117000102996826,0,0
1.3829989999940153,0.375640869140625,-0.453033447265625,0.308502197265625,-0.747283935546875,0.244140625,-0.1220703125,-0.06103515625,0.446533203125,-0.7999267578125,0.3997802734375,-295.0,152.0,-149.0,101700.0,-3.117000102996826,0,0
1.3830592000012984,0.375640869140625,-0.453033447265625,0.308502197265625,-0.747283935546875,0.244140625,-0.1220703125,-0.06103515625,0.446533203125,-0.7999267578125,0.3997802734375,-295.0,152.0,-149.0,101700.0,-3.117000102996826,0,0
1.383119699996314,0.37554931640625,-0.4530029296875,0.308563232421875,-0.747314453125,0.244140625,0.06103515625,0.06103515625,0.4451904296875,-0.8045654296875,0.4005126953125,-294.0,150.0,-149.0,101700.0,-3.117000102996826,0,0
1.383267800003523,0.37554931640625,-0.4530029296875,0.308563232421875,-0.747314453125,0.06103515625,-0.06103515625,0.06103515625,0.4449462890625,-0.8016357421875,0.3978271484375,-294.0,150.0,-149.0,101700.0,-3.117000102996826,0,0
1.3833262999978615,0.375518798828125,-0.4530029296875,0.308563232421875,-0.747314453125,0.06103515625,0.244140625,-0.1220703125,0.44677734375,-0.8006591796875,0.3985595703125,-294.0,150.0,-149.0,101700.0,-3.117000102996826,0,0
1.3833822000015061,0.375518798828125,-0.4530029296875,0.30859375,-0.747314453125,0.18310546875,-0.06103515625,-0.1220703125,0.44580078125,-0.8016357421875,0.3978271484375,-294.0,150.0,-149.0,101700.0,-3.117000102996826,0,0
1.383438999997452,0.375518798828125,-0.4530029296875,0.30859375,-0.747314453125,0.0,-0.1220703125,0.0,0.4466552734375,-0.80224609375,0.3990478515625,-294.0,150.0,-149.0,101700.0,-3.117000102996826,0,0
1.3834935999911977,0.375518798828125,-0.4530029296875,0.30859375,-0.747314453125,0.0,-0.1220703125,-0.18310546875,0.4459228515625,-0.8017578125,0.3975830078125,-294.0,150.0,-149.0,101700.0,-3.117000102996826,0,0
1.3835470999911195,0.375518798828125,-0.4530029296875,0.30859375,-0.747314453125,-0.18310546875,-0.18310546875,-0.244140625,0.4451904296875,-0.8001708984375,0.398681640625,-294.0,150.0,-149.0,101700.0,-3.117000102996826,0,0
1.3836035999993328,0.375518798828125,-0.453033447265625,0.30859375,-0.747314453125,-0.244140625,-0.18310546875,-0.244140625,0.445556640625,-0.80419921875,0.3994140625,-294.0,150.0,-149.0,101700.0,-3.117000102996826,0,0
1.4369177999906242,0.375518798828125,-0.4530029296875,0.30859375,-0.747314453125,0.1220703125,-0.06103515625,-0.06103515625,0.4442138671875,-0.8016357421875,0.3995361328125,-294.0,150.0,-149.0,101699.0,-3.116000175476074,0,0
1.4369923999911407,0.37554931640625,-0.4530029296875,0.30859375,-0.747314453125,0.1220703125,0.18310546875,-0.244140625,0.44287109375,-0.8018798828125,0.4012451171875,-294.0,150.0,-149.0,101699.0,-3.116000175476074,0,0
1.4372570999985328,0.37554931640625,-0.4530029296875,0.30859375,-0.747314453125,0.1220703125,-0.06103515625,0.0,0.4453125,-0.800537109375,0.398681640625,-294.0,150.0,-149.0,101699.0,-3.116000175476074,0,0
1.43731839999964,0.37554931640625,-0.4530029296875,0.30859375,-0.747314453125,0.0,-0.18310546875,-0.06103515625,0.444580078125,-0.7996826171875,0.3975830078125,-294.0,150.0,-149.0,101699.0,-3.116000175476074,0,0
1.4373780000023544,0.37554931640625,-0.4530029296875,0.30859375,-0.747314453125,-0.06103515625,0.0,-0.244140625,0.4439697265625,-0.8009033203125,0.39794921875,-294.0,150.0,-149.0,101699.0,-3.116000175476074,0,0
1.4375361999991583,0.37554931640625,-0.4530029296875,0.30859375,-0.747314453125,-0.06103515625,0.0,-0.1220703125,0.4437255859375,-0.80322265625,0.399169921875,-294.0,150.0,-149.0,101699.0,-3.116000175476074,0,0
1.4375987999956124,0.37554931640625,-0.4530029296875,0.30859375,-0.747314453125,0.3662109375,-0.18310546875,-0.18310546875,0.44482421875,-0.802490234375,0.398681640625,-294.0,150.0,-149.0,101699.0,-3.116000175476074,0,0
1.4376571000029799,0.37554931640625,-0.4530029296875,0.30859375,-0.747314453125,0.0,-0.3662109375,0.244140625,0.4481201171875,-0.80419921875,0.39697265625,-294.0,150.0,-149.0,101699.0,-3.116000175476074,0,0
1.437713999999687,0.37554931640625,-0.4530029296875,0.30859375,-0.747314453125,0.0,-0.3662109375,0.244140625,0.4481201171875,-0.80419921875,0.39697265625,-294.0,150.0,-149.0,101699.0,-3.116000175476074,0,0
1.4377704999933485,0.37554931640625,-0.4530029296875,0.30859375,-0.747314453125,-0.18310546875,-0.06103515625,-0.1220703125,0.4461669921875,-0.80224609375,0.398193359375,-294.0,150.0,-149.0,101699.0,-3.116000175476074,0,0
1.4378284999984317,0.37554931640625,-0.4530029296875,0.30859375,-0.747283935546875,0.1220703125,-0.06103515625,-0.18310546875,0.4456787109375,-0.8026123046875,0.3983154296875,-295.0,151.0,-150.0,101699.0,-3.116000175476074,0,0
1.5036051999923075,0.37542724609375,-0.452972412109375,0.30865478515625,-0.747344970703125,0.06103515625,-0.244140625,-0.1220703125,0.446533203125,-0.8017578125,0.399169921875,-295.0,151.0,-150.0,101699.0,-3.116000175476074,0,0
1.5036764999968,0.37542724609375,-0.452972412109375,0.30865478515625,-0.747344970703125,0.1220703125,0.0,0.0,0.447265625,-0.80126953125,0.3994140625,-295.0,151.0,-150.0,101699.0,-3.116000175476074,0,0
1.5037383000017144,0.37542724609375,-0.452972412109375,0.30865478515625,-0.747344970703125,-0.1220703125,-0.06103515625,-0.30517578125,0.445068359375,-0.8001708984375,0.3994140625,-295.0,151.0,-150.0,101699.0,-3.116000175476074,0,0
1.5037960999907227,0.37542724609375,-0.452972412109375,0.30865478515625,-0.747344970703125,-0.18310546875,0.0,-0.30517578125,0.4444580078125,-0.80126953125,0.39794921875,-295.0,151.0,-150.0,101699.0,-3.116000175476074,0,0
1.5038561999972444,0.37542724609375,-0.452972412109375,0.30865478515625,-0.747344970703125,0.244140625,0.18310546875,0.0,0.443115234375,-0.79931640625,0.3994140625,-295.0,151.0,-150.0,101699.0,-3.116000175476074,0,0
1.503912499989383,0.37542724609375,-0.452972412109375,0.30865478515625,-0.747344970703125,0.0,-0.1220703125,-0.06103515625,0.4459228515625,-0.8017578125,0.399658203125,-295.0,151.0,-150.0,101699.0,-3.116000175476074,0,0
1.5047162999981083,0.37542724609375,-0.452972412109375,0.30865478515625,-0.747344970703125,0.30517578125,0.18310546875,0.06103515625,0.4464111328125,-0.8016357421875,0.398681640625,-295.0,151.0,-150.0,101699.0,-3.116000175476074,0,0
1.5048307999968529,0.37542724609375,-0.452972412109375,0.30865478515625,-0.747344970703125,0.30517578125,0.18310546875,0.06103515625,0.4464111328125,-0.8016357421875,0.398681640625,-295.0,151.0,-150.0,101699.0,-3.116000175476074,0,0
1.5048926000017673,0.37542724609375,-0.452972412109375,0.30865478515625,-0.747344970703125,-0.06103515625,-0.06103515625,-0.1220703125,0.4461669921875,-0.8021240234375,0.3985595703125,-295.0,151.0,-150.0,101700.0,-3.118000030517578,0,0
1.5049512999976287,0.37542724609375,-0.4530029296875,0.30865478515625,-0.747344970703125,0.06103515625,-0.18310546875,0.18310546875,0.444091796875,-0.8016357421875,0.3978271484375,-295.0,151.0,-150.0,101700.0,-3.118000030517578,0,0
1.5050110000011045,0.37542724609375,-0.4530029296875,0.308685302734375,-0.747344970703125,0.0,0.1220703125,0.244140625,0.4443359375,-0.8026123046875,0.3974609375,-295.0,151.0,-150.0,101700.0,-3.118000030517578,0,0
