Time stamp(sec),adc1,adc2,roll_angular_rate,pitch_angular_rate,yaw_angular_rate,acc_X,acc_Y,acc_Z,mag_X,mag_Y,mag_Z,pressure,altitude
0.06372439999540802,0.37298583984375,-0.45245361328125,0.30975341796875,-0.748443603515625,0.06103515625,-0.06103515625,0.48828125,0.4466552734375,-0.80517578125,0.399658203125,-292.0,149.0,-151.0,101703.0,-3.1500000953674316,0,0
0.0638016000011703,0.37298583984375,-0.45245361328125,0.30975341796875,-0.748443603515625,-0.06103515625,0.0,0.30517578125,0.444091796875,-0.802978515625,0.399169921875,-292.0,149.0,-151.0,101703.0,-3.1500000953674316,0,0
0.06385730000329204,0.373016357421875,-0.45245361328125,0.30975341796875,-0.748443603515625,-0.06103515625,-0.48828125,-0.06103515625,0.4461669921875,-0.8038330078125,0.3990478515625,-292.0,149.0,-151.0,101703.0,-3.1500000953674316,0,0
0.0639110000047367,0.3726806640625,-0.45233154296875,0.3099365234375,-0.74859619140625,-0.06103515625,0.0,-0.30517578125,0.4466552734375,-0.8016357421875,0.3978271484375,-292.0,149.0,-151.0,101703.0,-3.1500000953674316,0,0
0.06396479999239091,0.3726806640625,-0.45233154296875,0.3099365234375,-0.74859619140625,-0.06103515625,0.0,-0.30517578125,0.4466552734375,-0.8016357421875,0.3978271484375,-292.0,149.0,-151.0,101703.0,-3.1500000953674316,0,0
0.06401679999544285,0.3726806640625,-0.45233154296875,0.3099365234375,-0.74859619140625,-0.3662109375,-0.06103515625,-0.244140625,0.446044921875,-0.79736328125,0.3970947265625,-292.0,149.0,-151.0,101703.0,-3.1500000953674316,0,0
0.06406960000458639,0.3726806640625,-0.45233154296875,0.3099365234375,-0.74859619140625,0.06103515625,-0.18310546875,-0.42724609375,0.4444580078125,-0.7994384765625,0.3975830078125,-292.0,149.0,-151.0,101703.0,-3.1500000953674316,0,0
0.06467229999543633,0.3726806640625,-0.45233154296875,0.3099365234375,-0.74859619140625,0.67138671875,-0.06103515625,-0.30517578125,0.4476318359375,-0.8009033203125,0.3974609375,-292.0,149.0,-151.0,101703.0,-3.1500000953674316,0,0
0.0647439000022132,0.3726806640625,-0.45233154296875,0.3099365234375,-0.74859619140625,0.3662109375,-0.06103515625,-0.06103515625,0.4471435546875,-0.7978515625,0.3975830078125,-292.0,149.0,-151.0,101703.0,-3.1500000953674316,0,0
0.06485759999486618,0.3726806640625,-0.45233154296875,0.3099365234375,-0.74859619140625,0.244140625,-0.18310546875,-0.06103515625,0.447998046875,-0.79833984375,0.4012451171875,-292.0,149.0,-151.0,101703.0,-3.1500000953674316,0,0
0.06491489999461919,0.3726806640625,-0.45233154296875,0.3099365234375,-0.74859619140625,0.18310546875,-0.18310546875,0.1220703125,0.44677734375,-0.801025390625,0.399658203125,-292.0,149.0,-151.0,101703.0,-3.1500000953674316,0,0
0.06496899999910966,0.3726806640625,-0.45233154296875,0.309906005859375,-0.74859619140625,-0.48828125,-0.30517578125,0.18310546875,0.4464111328125,-0.8001708984375,0.4005126953125,-292.0,149.0,-151.0,101703.0,-3.1500000953674316,0,0
0.06502270000055432,0.3726806640625,-0.45233154296875,0.3099365234375,-0.74859619140625,0.1220703125,0.1220703125,0.30517578125,0.4466552734375,-0.8048095703125,0.3992919921875,-292.0,149.0,-151.0,101703.0,-3.1500000953674316,0,0
0.12977230000251438,0.3726806640625,-0.45233154296875,0.3099365234375,-0.74859619140625,-0.06103515625,-0.06103515625,-0.06103515625,0.445556640625,-0.8028564453125,0.398193359375,-292.0,149.0,-151.0,101703.0,-3.1500000953674316,0,0
0.12984929999220185,0.372711181640625,-0.45233154296875,0.3099365234375,-0.74859619140625,0.244140625,0.244140625,-0.30517578125,0.444580078125,-0.8035888671875,0.39794921875,-292.0,149.0,-151.0,101703.0,-3.1500000953674316,0,0
0.12993310000456404,0.372711181640625,-0.452301025390625,0.309967041015625,-0.748565673828125,0.18310546875,-0.244140625,-0.18310546875,0.4420166015625,-0.8016357421875,0.3984375,-292.0,149.0,-151.0,101703.0,-3.1500000953674316,0,0
0.12998769999830984,0.372711181640625,-0.452301025390625,0.309967041015625,-0.74859619140625,0.244140625,-0.06103515625,-0.42724609375,0.4456787109375,-0.8001708984375,0.3997802734375,-292.0,149.0,-151.0,101703.0,-3.1500000953674316,0,0
0.130684999996447,0.372711181640625,-0.452301025390625,0.309967041015625,-0.74859619140625,0.3662109375,-0.18310546875,-0.18310546875,0.44287109375,-0.8017578125,0.3984375,-292.0,149.0,-151.0,101703.0,-3.1500000953674316,0,0
0.13103350000164937,0.372711181640625,-0.452301025390625,0.309967041015625,-0.74859619140625,0.1220703125,-0.3662109375,-0.48828125,0.4453125,-0.7994384765625,0.3973388671875,-292.0,149.0,-151.0,101703.0,-3.1500000953674316,0,0
0.13109110000368673,0.372711181640625,-0.452301025390625,0.309967041015625,-0.74859619140625,-0.06103515625,-0.1220703125,-0.06103515625,0.4468994140625,-0.7996826171875,0.400390625,-292.0,149.0,-151.0,101703.0,-3.1500000953674316,0,0
0.13114610000047833,0.372711181640625,-0.452301025390625,0.3099365234375,-0.74859619140625,-0.18310546875,-0.18310546875,-0.18310546875,0.44775390625,-0.798095703125,0.3973388671875,-292.0,149.0,-151.0,101703.0,-3.1500000953674316,0,0
0.13120010000420734,0.372711181640625,-0.452301025390625,0.3099365234375,-0.74859619140625,-0.18310546875,-0.18310546875,-0.18310546875,0.44775390625,-0.798095703125,0.3973388671875,-292.0,149.0,-151.0,101703.0,-3.1500000953674316,0,0
0.1312545999971917,0.37249755859375,-0.452239990234375,0.310089111328125,-0.748687744140625,-0.48828125,-0.30517578125,-0.18310546875,0.4439697265625,-0.7989501953125,0.3956298828125,-294.0,149.0,-152.0,101703.0,-3.1500000953674316,0,0
0.13131309999153018,0.37249755859375,-0.45220947265625,0.310089111328125,-0.748687744140625,-0.18310546875,0.06103515625,0.06103515625,0.4437255859375,-0.80126953125,0.39697265625,-294.0,149.0,-152.0,101703.0,-3.1500000953674316,0,0
0.18812130000151228,0.37249755859375,-0.45220947265625,0.31005859375,-0.748687744140625,-0.18310546875,0.0,0.244140625,0.446044921875,-0.80078125,0.3997802734375,-294.0,149.0,-152.0,101703.0,-3.1500000953674316,0,0
0.18818139999348205,0.37249755859375,-0.45220947265625,0.31005859375,-0.748687744140625,0.0,0.06103515625,0.244140625,0.44677734375,-0.8021240234375,0.3995361328125,-294.0,149.0,-152.0,101703.0,-3.1500000953674316,0,0
0.18823759999941103,0.37249755859375,-0.45220947265625,0.310089111328125,-0.748687744140625,0.30517578125,-0.30517578125,0.1220703125,0.4447021484375,-0.8038330078125,0.400146484375,-294.0,149.0,-152.0,101703.0,-3.1500000953674316,0,0
0.18829320000077132,0.372528076171875,-0.45220947265625,0.310089111328125,-0.748687744140625,-0.244140625,-0.30517578125,-0.18310546875,0.4451904296875,-0.802490234375,0.3975830078125,-294.0,149.0,-152.0,101703.0,-3.1500000953674316,0,0
0.18834680000145454,0.372528076171875,-0.45220947265625,0.310089111328125,-0.748687744140625,-0.244140625,-0.30517578125,-0.18310546875,0.4451904296875,-0.802490234375,0.3975830078125,-294.0,149.0,-152.0,101703.0,-3.1500000953674316,0,0
0.18933710000419524,0.372528076171875,-0.45220947265625,0.310089111328125,-0.748687744140625,0.1220703125,-0.1220703125,-0.3662109375,0.4439697265625,-0.801513671875,0.3992919921875,-294.0,149.0,-152.0,101703.0,-3.1500000953674316,0,0
0.1894002999906661,0.372528076171875,-0.45220947265625,0.310089111328125,-0.748687744140625,0.06103515625,-0.3662109375,-0.48828125,0.446044921875,-0.801513671875,0.396484375,-294.0,149.0,-152.0,101703.0,-3.1500000953674316,0,0
0.18945649999659508,0.372528076171875,-0.45220947265625,0.310089111328125,-0.748687744140625,0.8544921875,-0.1220703125,-0.42724609375,0.4434814453125,-0.7989501953125,0.3978271484375,-294.0,149.0,-152.0,101703.0,-3.1500000953674316,0,0
0.18951060000108555,0.372528076171875,-0.45220947265625,0.310089111328125,-0.748687744140625,0.18310546875,-0.1220703125,-0.244140625,0.4468994140625,-0.80224609375,0.4007568359375,-294.0,149.0,-152.0,101703.0,-3.1500000953674316,0,0
0.18956420000176877,0.372528076171875,-0.45220947265625,0.310089111328125,-0.748687744140625,0.06103515625,-0.244140625,-0.30517578125,0.4476318359375,-0.8013916015625,0.3992919921875,-294.0,149.0,-152.0,101703.0,-3.1500000953674316,0,0
0.18961729999864474,0.372528076171875,-0.45220947265625,0.310089111328125,-0.748687744140625,0.1220703125,-0.1220703125,0.244140625,0.4481201171875,-0.8035888671875,0.3973388671875,-294.0,149.0,-152.0,101703.0,-3.1500000953674316,0,0
0.2534471999970265,0.372528076171875,-0.45220947265625,0.310089111328125,-0.748687744140625,0.0,0.0,0.0,0.4478759765625,-0.803955078125,0.3997802734375,-294.0,149.0,-152.0,101703.0,-3.1500000953674316,0,0
0.2535128000017721,0.372528076171875,-0.45220947265625,0.310089111328125,-0.748687744140625,-0.06103515625,-0.06103515625,0.30517578125,0.4461669921875,-0.802978515625,0.398681640625,-294.0,149.0,-152.0,101703.0,-3.1500000953674316,0,0
0.2535686000046553,0.372528076171875,-0.45220947265625,0.310089111328125,-0.748687744140625,-0.06103515625,-0.1220703125,0.06103515625,0.4466552734375,-0.802490234375,0.398193359375,-294.0,149.0,-152.0,101703.0,-3.1500000953674316,0,0
0.25362350000068545,0.372528076171875,-0.45220947265625,0.310089111328125,-0.748687744140625,-0.06103515625,-0.1220703125,0.06103515625,0.4466552734375,-0.802490234375,0.398193359375,-294.0,149.0,-152.0,101703.0,-3.1500000953674316,0,0
0.2536767999990843,0.372528076171875,-0.45220947265625,0.310089111328125,-0.748687744140625,0.0,0.1220703125,-0.06103515625,0.4459228515625,-0.8006591796875,0.3975830078125,-294.0,149.0,-152.0,101703.0,-3.1500000953674316,0,0
0.2537291000044206,0.372314453125,-0.452117919921875,0.310211181640625,-0.748779296875,0.1220703125,-0.18310546875,-0.18310546875,0.4454345703125,-0.8017578125,0.3988037109375,-294.0,149.0,-152.0,101703.0,-3.1500000953674316,0,0
0.25378339999588206,0.372314453125,-0.452117919921875,0.310211181640625,-0.748779296875,0.1220703125,-0.06103515625,-0.18310546875,0.446044921875,-0.80224609375,0.39794921875,-294.0,149.0,-152.0,101703.0,-3.1500000953674316,0,0
0.25393110000004526,0.372314453125,-0.452117919921875,0.31024169921875,-0.748779296875,0.06103515625,-0.1220703125,-0.06103515625,0.4443359375,-0.803955078125,0.398193359375,-294.0,149.0,-152.0,101703.0,-3.1500000953674316,0,0
0.25398379999387544,0.372314453125,-0.452117919921875,0.31024169921875,-0.748779296875,0.244140625,-0.18310546875,-0.42724609375,0.4473876953125,-0.80126953125,0.399658203125,-294.0,149.0,-152.0,101703.0,-3.1500000953674316,0,0
0.25403879999066703,0.372314453125,-0.452117919921875,0.31024169921875,-0.748779296875,-0.06103515625,-0.18310546875,-0.1220703125,0.445068359375,-0.802978515625,0.39990234375,-294.0,149.0,-152.0,101703.0,-3.1500000953674316,0,0
0.25409139999828767,0.372314453125,-0.452117919921875,0.31024169921875,-0.748779296875,0.244140625,0.18310546875,-0.18310546875,0.4473876953125,-0.8021240234375,0.399169921875,-294.0,149.0,-152.0,101703.0,-3.1500000953674316,0,0
0.254144799997448,0.372314453125,-0.452117919921875,0.310211181640625,-0.748779296875,-0.06103515625,-0.18310546875,-0.3662109375,0.4481201171875,-0.797119140625,0.3990478515625,-294.0,149.0,-152.0,101703.0,-3.1500000953674316,0,0
0.2541977999935625,0.372314453125,-0.452117919921875,0.310211181640625,-0.748779296875,-0.06103515625,-0.18310546875,-0.3662109375,0.4481201171875,-0.797119140625,0.3990478515625,-294.0,149.0,-152.0,101703.0,-3.1500000953674316,0,0
0.3191818999912357,0.372314453125,-0.452117919921875,0.310211181640625,-0.748779296875,0.18310546875,0.0,0.244140625,0.4482421875,-0.80029296875,0.399169921875,-294.0,149.0,-152.0,101703.0,-3.1500000953674316,0,0
0.31924299999081995,0.372314453125,-0.452117919921875,0.310211181640625,-0.748779296875,-0.18310546875,-0.18310546875,0.30517578125,0.448486328125,-0.8018798828125,0.399169921875,-294.0,149.0,-152.0,101703.0,-3.1500000953674316,0,0
0.3192983000044478,0.372314453125,-0.452117919921875,0.310211181640625,-0.748779296875,0.06103515625,-0.244140625,0.1220703125,0.444091796875,-0.7994384765625,0.3990478515625,-294.0,149.0,-152.0,101703.0,-3.1500000953674316,0,0
0.31935190000513103,0.372314453125,-0.452117919921875,0.310211181640625,-0.748779296875,0.1220703125,-0.1220703125,-0.18310546875,0.4454345703125,-0.801513671875,0.396484375,-294.0,149.0,-152.0,101703.0,-3.1500000953674316,0,0
0.31940720000420697,0.372314453125,-0.452117919921875,0.310211181640625,-0.748779296875,-0.3662109375,-0.1220703125,-0.244140625,0.4456787109375,-0.8016357421875,0.3985595703125,-294.0,149.0,-152.0,101703.0,-3.1500000953674316,0,0
0.3195833999925526,0.372314453125,-0.452117919921875,0.310211181640625,-0.748779296875,0.244140625,0.0,-0.1220703125,0.44580078125,-0.8028564453125,0.3975830078125,-294.0,149.0,-152.0,101703.0,-3.1500000953674316,0,0
0.31963879999239,0.372314453125,-0.4521484375,0.310211181640625,-0.748779296875,0.30517578125,-0.06103515625,-0.06103515625,0.4466552734375,-0.8018798828125,0.3978271484375,-294.0,149.0,-152.0,101703.0,-3.1500000953674316,0,0
0.3196925999945961,0.372314453125,-0.4521484375,0.310211181640625,-0.748779296875,0.30517578125,-0.06103515625,-0.06103515625,0.4466552734375,-0.8018798828125,0.3978271484375,-294.0,149.0,-152.0,101703.0,-3.1500000953674316,0,0
0.3197455000045011,0.372314453125,-0.452117919921875,0.310211181640625,-0.748779296875,0.06103515625,0.1220703125,0.18310546875,0.4468994140625,-0.8017578125,0.4012451171875,-294.0,149.0,-152.0,101703.0,-3.1500000953674316,0,0
0.31979880000289995,0.372314453125,-0.452117919921875,0.310211181640625,-0.748779296875,0.06103515625,0.1220703125,0.18310546875,0.4468994140625,-0.8017578125,0.4012451171875,-294.0,149.0,-152.0,101703.0,-3.1500000953674316,0,0
0.31985319999512285,0.3721923828125,-0.45208740234375,0.310272216796875,-0.74884033203125,-0.1220703125,-0.1220703125,0.1220703125,0.44677734375,-0.8038330078125,0.3992919921875,-295.0,149.0,-151.0,101703.0,-3.1500000953674316,0,0
0.37991789999068715,0.3721923828125,-0.45208740234375,0.310272216796875,-0.74884033203125,-0.06103515625,-0.06103515625,0.0,0.4468994140625,-0.8009033203125,0.3992919921875,-295.0,149.0,-151.0,101703.0,-3.1500000953674316,0,0
0.37997890000406187,0.3721923828125,-0.45208740234375,0.310272216796875,-0.74884033203125,0.30517578125,0.0,-0.1220703125,0.444091796875,-0.8011474609375,0.3975830078125,-295.0,149.0,-151.0,101703.0,-3.1500000953674316,0,0
0.38003509999543894,0.372222900390625,-0.45208740234375,0.310272216796875,-0.74884033203125,0.06103515625,-0.30517578125,-0.18310546875,0.44482421875,-0.8023681640625,0.398681640625,-295.0,149.0,-151.0,101703.0,-3.1500000953674316,0,0
0.3800885999953607,0.372222900390625,-0.45208740234375,0.310272216796875,-0.74884033203125,0.06103515625,-0.30517578125,-0.18310546875,0.44482421875,-0.8023681640625,0.398681640625,-295.0,149.0,-151.0,101703.0,-3.1500000953674316,0,0
0.3801426999998512,0.372222900390625,-0.45208740234375,0.310272216796875,-0.74884033203125,-0.1220703125,-0.244140625,-0.06103515625,0.446533203125,-0.7996826171875,0.3994140625,-295.0,149.0,-151.0,101703.0,-3.1500000953674316,0,0
0.3804154999961611,0.3721923828125,-0.45208740234375,0.310272216796875,-0.74884033203125,0.06103515625,-0.18310546875,-0.244140625,0.446044921875,-0.8016357421875,0.3994140625,-295.0,149.0,-151.0,101703.0,-3.1500000953674316,0,0
0.3804723999928683,0.3721923828125,-0.45208740234375,0.310272216796875,-0.74884033203125,-0.1220703125,-0.18310546875,-0.18310546875,0.447021484375,-0.800537109375,0.3990478515625,-295.0,149.0,-151.0,101704.0,-3.1500000953674316,0,0
0.38052520000201184,0.3721923828125,-0.45208740234375,0.310272216796875,-0.74884033203125,0.0,0.0,0.0,0.4462890625,-0.8033447265625,0.3995361328125,-295.0,149.0,-151.0,101704.0,-3.1500000953674316,0,0
0.3805780999973649,0.3721923828125,-0.45208740234375,0.310272216796875,-0.74884033203125,0.30517578125,-0.06103515625,-0.18310546875,0.44775390625,-0.800048828125,0.3988037109375,-295.0,149.0,-151.0,101704.0,-3.1500000953674316,0,0
0.38063250000413973,0.3721923828125,-0.45208740234375,0.310272216796875,-0.74884033203125,0.06103515625,0.1220703125,-0.18310546875,0.4443359375,-0.801025390625,0.398681640625,-295.0,149.0,-151.0,101704.0,-3.1500000953674316,0,0
0.380684999996447,0.3721923828125,-0.45208740234375,0.310272216796875,-0.74884033203125,0.244140625,0.06103515625,0.1220703125,0.445068359375,-0.799072265625,0.3990478515625,-295.0,149.0,-151.0,101704.0,-3.1500000953674316,0,0
0.3807379999925615,0.3721923828125,-0.45208740234375,0.310272216796875,-0.74884033203125,-0.30517578125,-0.1220703125,-0.1220703125,0.447021484375,-0.80078125,0.3983154296875,-295.0,149.0,-151.0,101704.0,-3.1500000953674316,0,0
0.44678559999738354,0.3721923828125,-0.45208740234375,0.310272216796875,-0.74884033203125,-0.30517578125,-0.1220703125,-0.1220703125,0.447021484375,-0.80078125,0.3983154296875,-295.0,149.0,-151.0,101704.0,-3.1500000953674316,0,0
0.4468568000011146,0.3721923828125,-0.45208740234375,0.310272216796875,-0.74884033203125,0.1220703125,-0.06103515625,-0.30517578125,0.444580078125,-0.802734375,0.3974609375,-295.0,149.0,-151.0,101704.0,-3.1500000953674316,0,0
0.4469150999939302,0.3721923828125,-0.45208740234375,0.310272216796875,-0.74884033203125,-0.18310546875,0.0,0.0,0.444580078125,-0.801025390625,0.3985595703125,-295.0,149.0,-151.0,101704.0,-3.1500000953674316,0,0
0.44696790000307374,0.3721923828125,-0.45208740234375,0.310272216796875,-0.74884033203125,0.06103515625,0.06103515625,-0.1220703125,0.4447021484375,-0.803955078125,0.399169921875,-295.0,149.0,-151.0,101704.0,-3.1500000953674316,0,0
0.44702189999225084,0.3721923828125,-0.45208740234375,0.310272216796875,-0.74884033203125,-0.06103515625,-0.1220703125,-0.06103515625,0.447021484375,-0.80029296875,0.3990478515625,-295.0,149.0,-151.0,101704.0,-3.1500000953674316,0,0
0.44707439999911003,0.3721923828125,-0.45208740234375,0.310272216796875,-0.74884033203125,-0.06103515625,-0.06103515625,0.06103515625,0.44580078125,-0.8006591796875,0.3994140625,-296.0,149.0,-151.0,101704.0,-3.1500000953674316,0,0
0.4471478999912506,0.372222900390625,-0.45208740234375,0.310272216796875,-0.74884033203125,-0.06103515625,-0.244140625,-0.06103515625,0.4449462890625,-0.8028564453125,0.398193359375,-296.0,149.0,-151.0,101704.0,-3.1500000953674316,0,0
0.4472024999995483,0.372222900390625,-0.45208740234375,0.310272216796875,-0.748809814453125,0.30517578125,-0.1220703125,-0.1220703125,0.4449462890625,-0.8004150390625,0.3970947265625,-296.0,149.0,-151.0,101704.0,-3.1500000953674316,0,0
0.4472551999933785,0.372222900390625,-0.45208740234375,0.310272216796875,-0.748809814453125,-0.06103515625,-0.06103515625,-0.244140625,0.4451904296875,-0.802978515625,0.39892578125,-296.0,149.0,-151.0,101704.0,-3.1500000953674316,0,0
0.44730889999482315,0.372222900390625,-0.45208740234375,0.310272216796875,-0.74884033203125,-0.06103515625,-0.1220703125,-0.1220703125,0.4456787109375,-0.800537109375,0.399658203125,-296.0,149.0,-151.0,101704.0,-3.1500000953674316,0,0
0.4473627999977907,0.372222900390625,-0.45208740234375,0.310272216796875,-0.74884033203125,-0.06103515625,-0.1220703125,-0.1220703125,0.4456787109375,-0.800537109375,0.399658203125,-296.0,149.0,-151.0,101704.0,-3.1500000953674316,0,0
0.44746650000161026,0.372222900390625,-0.45208740234375,0.310302734375,-0.748809814453125,0.0,-0.244140625,-0.06103515625,0.4456787109375,-0.80126953125,0.396240234375,-296.0,149.0,-151.0,101704.0,-3.1500000953674316,0,0
0.5103843999968376,0.372222900390625,-0.45208740234375,0.310302734375,-0.748809814453125,-0.1220703125,-0.06103515625,0.0,0.448486328125,-0.8016357421875,0.3983154296875,-296.0,149.0,-151.0,101704.0,-3.1500000953674316,0,0
0.5104509999946458,0.372222900390625,-0.45208740234375,0.310302734375,-0.748809814453125,0.18310546875,0.0,0.0,0.4453125,-0.8033447265625,0.4000244140625,-296.0,149.0,-151.0,101704.0,-3.1500000953674316,0,0
0.5105065999960061,0.372222900390625,-0.45208740234375,0.310302734375,-0.748809814453125,0.0,0.0,0.18310546875,0.447021484375,-0.80078125,0.4005126953125,-296.0,149.0,-151.0,101704.0,-3.1500000953674316,0,0
0.5105603999982122,0.372222900390625,-0.45208740234375,0.310302734375,-0.748809814453125,-0.06103515625,-0.30517578125,0.1220703125,0.442626953125,-0.801513671875,0.3980712890625,-296.0,149.0,-151.0,101704.0,-3.1500000953674316,0,0
0.5106135999958497,0.372222900390625,-0.45208740234375,0.310302734375,-0.748809814453125,0.18310546875,0.06103515625,-0.1220703125,0.443115234375,-0.80126953125,0.398193359375,-296.0,149.0,-151.0,101704.0,-3.1500000953674316,0,0
0.5106818999920506,0.372222900390625,-0.45208740234375,0.310302734375,-0.748809814453125,0.18310546875,0.06103515625,-0.1220703125,0.443115234375,-0.80126953125,0.398193359375,-296.0,149.0,-151.0,101704.0,-3.1500000953674316,0,0
0.5107362999988254,0.372222900390625,-0.45208740234375,0.310302734375,-0.748809814453125,0.18310546875,0.06103515625,-0.1220703125,0.443115234375,-0.80126953125,0.398193359375,-296.0,149.0,-151.0,101704.0,-3.1500000953674316,0,0
0.5107889999926556,0.372222900390625,-0.45208740234375,0.310302734375,-0.748809814453125,-0.06103515625,0.0,-0.06103515625,0.44677734375,-0.801513671875,0.3970947265625,-296.0,149.0,-151.0,101704.0,-3.1500000953674316,0,0
0.5108414999995148,0.372222900390625,-0.45208740234375,0.310302734375,-0.748809814453125,0.0,-0.18310546875,-0.1220703125,0.4425048828125,-0.798828125,0.3973388671875,-296.0,149.0,-151.0,101704.0,-3.1500000953674316,0,0
0.5108938999910606,0.372222900390625,-0.45208740234375,0.310302734375,-0.748809814453125,0.244140625,0.1220703125,-0.18310546875,0.4449462890625,-0.8018798828125,0.397216796875,-296.0,149.0,-151.0,101704.0,-3.1500000953674316,0,0
0.5109467000002041,0.372222900390625,-0.45208740234375,0.310333251953125,-0.748809814453125,-0.06103515625,-0.1220703125,-0.244140625,0.4471435546875,-0.8011474609375,0.397216796875,-296.0,149.0,-151.0,101704.0,-3.1500000953674316,0,0
0.5697327999951085,0.372222900390625,-0.45208740234375,0.310302734375,-0.748809814453125,0.06103515625,-0.06103515625,0.06103515625,0.4464111328125,-0.8016357421875,0.3985595703125,-296.0,148.0,-151.0,101704.0,-3.1500000953674316,0,0
0.5697942999977386,0.372222900390625,-0.45208740234375,0.310333251953125,-0.748809814453125,0.06103515625,-0.18310546875,0.06103515625,0.4473876953125,-0.8017578125,0.3983154296875,-296.0,148.0,-151.0,101704.0,-3.1500000953674316,0,0
0.5698507999914,0.372222900390625,-0.45208740234375,0.310333251953125,-0.748809814453125,0.06103515625,-0.18310546875,0.06103515625,0.4473876953125,-0.8017578125,0.3983154296875,-296.0,148.0,-151.0,101704.0,-3.1500000953674316,0,0
0.5699061000050278,0.372222900390625,-0.45208740234375,0.310302734375,-0.748809814453125,-0.1220703125,0.06103515625,-0.30517578125,0.4453125,-0.7998046875,0.3983154296875,-296.0,148.0,-151.0,101704.0,-3.1500000953674316,0,0
0.5699612000025809,0.372222900390625,-0.45208740234375,0.310333251953125,-0.748809814453125,0.1220703125,-0.06103515625,0.18310546875,0.4434814453125,-0.8009033203125,0.3978271484375,-296.0,148.0,-151.0,101704.0,-3.1500000953674316,0,0
0.5700288999942131,0.372222900390625,-0.45208740234375,0.310333251953125,-0.748809814453125,-0.1220703125,0.0,-0.1220703125,0.4437255859375,-0.79931640625,0.39892578125,-296.0,148.0,-151.0,101704.0,-3.1500000953674316,0,0
0.5700835000025108,0.372222900390625,-0.45208740234375,0.310333251953125,-0.748809814453125,-0.06103515625,-0.42724609375,-0.244140625,0.443359375,-0.800048828125,0.3988037109375,-296.0,148.0,-151.0,101704.0,-3.1500000953674316,0,0
0.5701360999955796,0.372222900390625,-0.452056884765625,0.310333251953125,-0.748809814453125,0.244140625,-0.3662109375,-0.1220703125,0.4443359375,-0.8001708984375,0.3974609375,-296.0,148.0,-151.0,101703.0,-3.1500000953674316,0,0
0.5701895999955013,0.372222900390625,-0.452056884765625,0.310333251953125,-0.748809814453125,0.06103515625,0.0,-0.06103515625,0.4471435546875,-0.804443359375,0.399658203125,-296.0,148.0,-151.0,101703.0,-3.1500000953674316,0,0
0.5702441000030376,0.372222900390625,-0.45208740234375,0.310333251953125,-0.748809814453125,0.18310546875,0.0,-0.244140625,0.447509765625,-0.8023681640625,0.3994140625,-296.0,148.0,-151.0,101703.0,-3.1500000953674316,0,0
0.5702976000029594,0.37225341796875,-0.452056884765625,0.310333251953125,-0.748809814453125,0.06103515625,-0.06103515625,-0.18310546875,0.444580078125,-0.8013916015625,0.399658203125,-296.0,148.0,-151.0,101703.0,-3.1500000953674316,0,0
0.570350399997551,0.37225341796875,-0.452056884765625,0.310333251953125,-0.748809814453125,0.06103515625,-0.06103515625,-0.18310546875,0.444580078125,-0.8013916015625,0.399658203125,-296.0,148.0,-151.0,101703.0,-3.1500000953674316,0,0
0.6438595999934478,0.37225341796875,-0.452056884765625,0.310333251953125,-0.748809814453125,-0.1220703125,-0.244140625,-0.18310546875,0.4466552734375,-0.8028564453125,0.3997802734375,-296.0,148.0,-151.0,101703.0,-3.1500000953674316,0,0
0.6439312000002246,0.37225341796875,-0.452056884765625,0.310333251953125,-0.748809814453125,-0.3662109375,-0.06103515625,-0.244140625,0.4449462890625,-0.80126953125,0.3985595703125,-296.0,148.0,-151.0,101703.0,-3.1500000953674316,0,0
0.6439948000042932,0.372222900390625,-0.45208740234375,0.310333251953125,-0.748809814453125,-0.18310546875,-0.1220703125,-0.30517578125,0.445068359375,-0.79833984375,0.3961181640625,-296.0,148.0,-151.0,101703.0,-3.1500000953674316,0,0
0.6440560000046389,0.372222900390625,-0.45208740234375,0.310333251953125,-0.748809814453125,0.06103515625,0.06103515625,-0.244140625,0.44775390625,-0.7991943359375,0.3963623046875,-296.0,148.0,-151.0,101703.0,-3.1500000953674316,0,0
0.6441142999974545,0.372222900390625,-0.45208740234375,0.310333251953125,-0.748809814453125,-0.1220703125,-0.06103515625,-0.30517578125,0.4466552734375,-0.798095703125,0.3983154296875,-296.0,148.0,-151.0,101703.0,-3.1500000953674316,0,0
0.6441724000032991,0.372222900390625,-0.45208740234375,0.310333251953125,-0.748809814453125,0.0,-0.3662109375,-0.18310546875,0.4451904296875,-0.7984619140625,0.39794921875,-296.0,148.0,-151.0,101703.0,-3.1500000953674316,0,0
0.644415000002482,0.372222900390625,-0.45208740234375,0.310302734375,-0.748809814453125,0.244140625,-0.1220703125,0.0,0.446533203125,-0.7991943359375,0.3992919921875,-296.0,148.0,-151.0,101703.0,-3.1500000953674316,0,0
0.64448309999716,0.372222900390625,-0.45208740234375,0.310302734375,-0.748809814453125,-0.06103515625,-0.06103515625,0.0,0.4461669921875,-0.8001708984375,0.399658203125,-295.0,148.0,-151.0,101703.0,-3.1500000953674316,0,0
0.6445412000030046,0.37213134765625,-0.452056884765625,0.31036376953125,-0.748870849609375,0.0,-0.18310546875,0.244140625,0.447998046875,-0.80126953125,0.39892578125,-295.0,148.0,-151.0,101703.0,-3.1500000953674316,0,0
0.6445995999965817,0.37213134765625,-0.452056884765625,0.31036376953125,-0.748870849609375,0.0,-0.18310546875,0.244140625,0.447998046875,-0.80126953125,0.39892578125,-295.0,148.0,-151.0,101703.0,-3.1500000953674316,0,0
0.6446568999963347,0.37213134765625,-0.452056884765625,0.31036376953125,-0.748870849609375,-0.1220703125,-0.1220703125,0.48828125,0.4488525390625,-0.8043212890625,0.3984375,-295.0,148.0,-151.0,101703.0,-3.1500000953674316,0,0
0.6447168000013335,0.37213134765625,-0.452056884765625,0.31036376953125,-0.748870849609375,-0.06103515625,0.0,0.1220703125,0.4476318359375,-0.803466796875,0.3995361328125,-295.0,148.0,-151.0,101703.0,-3.1500000953674316,0,0
0.7006153999973321,0.37213134765625,-0.4520263671875,0.31036376953125,-0.748870849609375,0.0,-0.244140625,-0.30517578125,0.446044921875,-0.800537109375,0.3978271484375,-295.0,148.0,-151.0,101703.0,-3.1500000953674316,0,0
0.7006851000041934,0.37213134765625,-0.4520263671875,0.31036376953125,-0.748870849609375,0.18310546875,-0.18310546875,-0.244140625,0.4444580078125,-0.801025390625,0.3974609375,-295.0,148.0,-151.0,101703.0,-3.1500000953674316,0,0
0.700745399997686,0.37213134765625,-0.4520263671875,0.31036376953125,-0.748870849609375,0.30517578125,-0.244140625,-0.30517578125,0.4444580078125,-0.800537109375,0.3974609375,-295.0,148.0,-151.0,101703.0,-3.1500000953674316,0,0
0.7008055000042077,0.37213134765625,-0.4520263671875,0.31036376953125,-0.748870849609375,0.1220703125,-0.18310546875,-0.48828125,0.4461669921875,-0.7994384765625,0.398193359375,-295.0,148.0,-151.0,101703.0,-3.1500000953674316,0,0
0.7008618999971077,0.37213134765625,-0.4520263671875,0.31036376953125,-0.748870849609375,0.1220703125,-0.18310546875,-0.48828125,0.4461669921875,-0.7994384765625,0.398193359375,-295.0,148.0,-151.0,101703.0,-3.1500000953674316,0,0
0.7010163999948418,0.37213134765625,-0.452056884765625,0.31036376953125,-0.748870849609375,-0.06103515625,0.1220703125,0.244140625,0.4466552734375,-0.8004150390625,0.3992919921875,-295.0,148.0,-151.0,101703.0,-3.1500000953674316,0,0
0.7010860000009416,0.37213134765625,-0.452056884765625,0.31036376953125,-0.748870849609375,-0.18310546875,-0.06103515625,0.0,0.446533203125,-0.8021240234375,0.399169921875,-295.0,148.0,-151.0,101703.0,-3.1500000953674316,0,0
0.7011450999998488,0.372100830078125,-0.452056884765625,0.310333251953125,-0.748870849609375,-0.30517578125,-0.06103515625,0.30517578125,0.4490966796875,-0.8001708984375,0.4000244140625,-295.0,148.0,-151.0,101703.0,-3.1500000953674316,0,0
0.7012022999988403,0.372100830078125,-0.452056884765625,0.310333251953125,-0.748870849609375,0.0,0.06103515625,0.06103515625,0.4471435546875,-0.8018798828125,0.397216796875,-295.0,148.0,-151.0,101703.0,-3.1500000953674316,0,0
0.7012586999917403,0.372100830078125,-0.452056884765625,0.31036376953125,-0.748870849609375,0.06103515625,0.0,0.30517578125,0.4453125,-0.801025390625,0.3980712890625,-295.0,148.0,-151.0,101703.0,-3.1500000953674316,0,0
0.7013141999923391,0.372100830078125,-0.452056884765625,0.31036376953125,-0.748870849609375,0.06103515625,-0.1220703125,0.1220703125,0.447265625,-0.8006591796875,0.3970947265625,-295.0,148.0,-151.0,101703.0,-3.1500000953674316,0,0
0.7013693000044441,0.372100830078125,-0.452056884765625,0.310333251953125,-0.748870849609375,0.06103515625,-0.1220703125,0.1220703125,0.447265625,-0.8006591796875,0.3970947265625,-295.0,148.0,-151.0,101703.0,-3.1500000953674316,0,0
0.7626531999994768,0.372100830078125,-0.452056884765625,0.310333251953125,-0.748870849609375,0.244140625,-0.18310546875,0.0,0.4456787109375,-0.8017578125,0.3985595703125,-295.0,147.0,-151.0,101703.0,-3.1500000953674316,0,0
0.7627213999949163,0.371917724609375,-0.45196533203125,0.310455322265625,-0.74896240234375,-0.18310546875,-0.18310546875,-0.1220703125,0.445556640625,-0.802001953125,0.400390625,-295.0,147.0,-151.0,101703.0,-3.1500000953674316,0,0
0.7627812999999151,0.371917724609375,-0.45196533203125,0.310455322265625,-0.74896240234375,0.18310546875,0.0,-0.30517578125,0.4468994140625,-0.8018798828125,0.39892578125,-295.0,147.0,-151.0,101703.0,-3.1500000953674316,0,0
0.7628393999912078,0.371917724609375,-0.45196533203125,0.310455322265625,-0.74896240234375,0.1220703125,-0.3662109375,-0.1220703125,0.4471435546875,-0.79931640625,0.3974609375,-295.0,147.0,-151.0,101703.0,-3.1500000953674316,0,0
0.7630209999915678,0.37188720703125,-0.451995849609375,0.310455322265625,-0.74896240234375,0.244140625,-0.1220703125,-0.244140625,0.447509765625,-0.8016357421875,0.396240234375,-295.0,147.0,-151.0,101703.0,-3.1500000953674316,0,0
0.7630818000034196,0.37188720703125,-0.451995849609375,0.310455322265625,-0.74896240234375,-0.244140625,-0.06103515625,-0.244140625,0.4473876953125,-0.80126953125,0.3988037109375,-295.0,147.0,-151.0,101703.0,-3.1500000953674316,0,0
0.7631378999940353,0.37188720703125,-0.451995849609375,0.310455322265625,-0.74896240234375,0.1220703125,-0.06103515625,0.0,0.4466552734375,-0.799560546875,0.397216796875,-295.0,147.0,-151.0,101703.0,-3.1500000953674316,0,0
0.7631932999938726,0.37188720703125,-0.451995849609375,0.310455322265625,-0.74896240234375,0.1220703125,-0.18310546875,0.06103515625,0.44677734375,-0.8004150390625,0.3988037109375,-295.0,147.0,-151.0,101703.0,-3.1500000953674316,0,0
0.763249800002086,0.37188720703125,-0.451995849609375,0.310455322265625,-0.74896240234375,-0.06103515625,-0.06103515625,0.1220703125,0.4464111328125,-0.80029296875,0.399169921875,-295.0,147.0,-151.0,101704.0,-3.1510002613067627,0,0
0.7633064999972703,0.37188720703125,-0.451995849609375,0.310455322265625,-0.74896240234375,-0.06103515625,-0.06103515625,0.1220703125,0.4464111328125,-0.80029296875,0.399169921875,-295.0,147.0,-151.0,101704.0,-3.1510002613067627,0,0
0.7633638999977848,0.37188720703125,-0.451995849609375,0.310455322265625,-0.74896240234375,-0.18310546875,-0.1220703125,-0.1220703125,0.4451904296875,-0.80078125,0.3985595703125,-295.0,147.0,-151.0,101704.0,-3.1510002613067627,0,0
0.8309835999971256,0.37188720703125,-0.451995849609375,0.310455322265625,-0.74896240234375,0.3662109375,0.0,0.06103515625,0.4442138671875,-0.802001953125,0.39794921875,-295.0,147.0,-151.0,101704.0,-3.1510002613067627,0,0
0.8311132999951951,0.37188720703125,-0.451995849609375,0.310455322265625,-0.74896240234375,-0.1220703125,-0.06103515625,0.0,0.4456787109375,-0.802490234375,0.397216796875,-295.0,147.0,-151.0,101704.0,-3.1510002613067627,0,0
0.8312259999947855,0.37188720703125,-0.451995849609375,0.310455322265625,-0.74896240234375,-0.1220703125,-0.42724609375,-0.244140625,0.4456787109375,-0.8021240234375,0.396484375,-295.0,147.0,-151.0,101704.0,-3.1510002613067627,0,0
0.8313362999906531,0.37188720703125,-0.451995849609375,0.310455322265625,-0.74896240234375,0.244140625,-0.1220703125,-0.30517578125,0.4471435546875,-0.801513671875,0.3975830078125,-295.0,147.0,-151.0,101704.0,-3.1510002613067627,0,0
0.8314781999943079,0.37188720703125,-0.451995849609375,0.310455322265625,-0.74896240234375,0.06103515625,-0.06103515625,-0.244140625,0.447265625,-0.8011474609375,0.3975830078125,-295.0,147.0,-151.0,101704.0,-3.1510002613067627,0,0
0.8315488999942318,0.37188720703125,-0.451995849609375,0.310455322265625,-0.74896240234375,0.3662109375,0.0,-0.42724609375,0.4488525390625,-0.80126953125,0.398681640625,-295.0,147.0,-151.0,101704.0,-3.1510002613067627,0,0
0.8401273999916157,0.37188720703125,-0.451995849609375,0.310455322265625,-0.74896240234375,-0.18310546875,0.0,-0.30517578125,0.447021484375,-0.7989501953125,0.398193359375,-295.0,147.0,-151.0,101704.0,-3.1510002613067627,0,0
0.8401841000013519,0.37188720703125,-0.451995849609375,0.310455322265625,-0.74896240234375,0.244140625,-0.06103515625,-0.18310546875,0.44677734375,-0.8016357421875,0.39794921875,-295.0,147.0,-150.0,101704.0,-3.1510002613067627,0,0
0.840242299993406,0.371795654296875,-0.45196533203125,0.310516357421875,-0.7490234375,-0.1220703125,-0.18310546875,0.06103515625,0.447021484375,-0.8001708984375,0.3997802734375,-295.0,147.0,-150.0,101704.0,-3.1510002613067627,0,0
0.8403174999984913,0.371795654296875,-0.45196533203125,0.310516357421875,-0.7490234375,-0.1220703125,0.18310546875,0.06103515625,0.4456787109375,-0.7994384765625,0.398681640625,-295.0,147.0,-150.0,101704.0,-3.1510002613067627,0,0
0.8404737999953795,0.371795654296875,-0.45196533203125,0.310516357421875,-0.7490234375,0.0,-0.30517578125,0.06103515625,0.4444580078125,-0.801025390625,0.398681640625,-295.0,147.0,-150.0,101704.0,-3.1510002613067627,0,0
0.8916586999985157,0.371795654296875,-0.45196533203125,0.310516357421875,-0.7490234375,0.3662109375,-0.06103515625,-0.06103515625,0.4478759765625,-0.8018798828125,0.3974609375,-295.0,147.0,-150.0,101704.0,-3.1510002613067627,0,0
0.8917215999972541,0.371795654296875,-0.45196533203125,0.310516357421875,-0.7490234375,-0.1220703125,0.0,-0.244140625,0.4471435546875,-0.80322265625,0.39794921875,-295.0,147.0,-150.0,101704.0,-3.1510002613067627,0,0
0.8917756000009831,0.371795654296875,-0.45196533203125,0.310516357421875,-0.7490234375,0.0,-0.1220703125,-0.1220703125,0.447265625,-0.8016357421875,0.3966064453125,-295.0,147.0,-150.0,101704.0,-3.1510002613067627,0,0
0.8918315999908373,0.371795654296875,-0.45196533203125,0.310516357421875,-0.7490234375,0.0,-0.1220703125,-0.1220703125,0.447265625,-0.8016357421875,0.3966064453125,-295.0,147.0,-150.0,101704.0,-3.1510002613067627,0,0
0.8918878999975277,0.371795654296875,-0.45196533203125,0.310516357421875,-0.7490234375,-0.18310546875,-0.244140625,-0.3662109375,0.4451904296875,-0.80322265625,0.3980712890625,-295.0,147.0,-150.0,101704.0,-3.1510002613067627,0,0
0.8919940000050701,0.371795654296875,-0.45196533203125,0.310516357421875,-0.748992919921875,0.1220703125,0.06103515625,-0.1220703125,0.4453125,-0.802734375,0.396240234375,-295.0,147.0,-150.0,101704.0,-3.1510002613067627,0,0
0.8920482999965316,0.371795654296875,-0.45196533203125,0.310546875,-0.748992919921875,0.30517578125,0.06103515625,-0.18310546875,0.44287109375,-0.8023681640625,0.3985595703125,-295.0,147.0,-150.0,101704.0,-3.1510002613067627,0,0
0.8921002999995835,0.371795654296875,-0.45196533203125,0.310546875,-0.748992919921875,-0.1220703125,-0.1220703125,-0.06103515625,0.44580078125,-0.8018798828125,0.39892578125,-295.0,147.0,-150.0,101704.0,-3.1510002613067627,0,0
0.8921539000002667,0.371795654296875,-0.45196533203125,0.310546875,-0.748992919921875,0.0,-0.244140625,0.06103515625,0.4468994140625,-0.8001708984375,0.3992919921875,-295.0,147.0,-150.0,101704.0,-3.1510002613067627,0,0
0.8922051999979885,0.371795654296875,-0.45196533203125,0.310546875,-0.748992919921875,-0.244140625,-0.06103515625,0.06103515625,0.4456787109375,-0.8026123046875,0.39697265625,-295.0,147.0,-150.0,101704.0,-3.1510002613067627,0,0
0.892258399995626,0.371795654296875,-0.45196533203125,0.310546875,-0.748992919921875,-0.06103515625,-0.06103515625,-0.1220703125,0.444580078125,-0.8017578125,0.39697265625,-295.0,147.0,-150.0,101704.0,-3.1510002613067627,0,0
0.8923104999994393,0.371795654296875,-0.45196533203125,0.310546875,-0.748992919921875,0.18310546875,-0.1220703125,-0.06103515625,0.4461669921875,-0.800537109375,0.3966064453125,-295.0,147.0,-150.0,101704.0,-3.1510002613067627,0,0
0.9513822000008076,0.371795654296875,-0.451995849609375,0.310546875,-0.748992919921875,0.06103515625,-0.18310546875,-0.1220703125,0.446533203125,-0.801513671875,0.396484375,-295.0,147.0,-150.0,101704.0,-3.1510002613067627,0,0
0.9514472000009846,0.371795654296875,-0.451995849609375,0.310546875,-0.748992919921875,0.30517578125,0.0,-0.18310546875,0.4473876953125,-0.8013916015625,0.400146484375,-296.0,148.0,-151.0,101704.0,-3.1510002613067627,0,0
0.9515049000037834,0.37158203125,-0.451904296875,0.3106689453125,-0.74908447265625,-0.06103515625,-0.06103515625,0.0,0.445068359375,-0.8013916015625,0.398681640625,-296.0,148.0,-151.0,101704.0,-3.1510002613067627,0,0
0.9515604000043822,0.37158203125,-0.451904296875,0.3106689453125,-0.74908447265625,0.18310546875,-0.1220703125,-0.18310546875,0.44775390625,-0.8018798828125,0.400146484375,-296.0,148.0,-151.0,101704.0,-3.1510002613067627,0,0
0.9516160999919521,0.37158203125,-0.451904296875,0.3106689453125,-0.74908447265625,0.42724609375,0.0,0.0,0.446044921875,-0.8006591796875,0.3994140625,-296.0,148.0,-151.0,101704.0,-3.1510002613067627,0,0
0.9526029999979073,0.37158203125,-0.451904296875,0.3106689453125,-0.74908447265625,0.06103515625,0.0,-0.1220703125,0.44384765625,-0.8021240234375,0.3990478515625,-296.0,148.0,-151.0,101704.0,-3.1510002613067627,0,0
0.9526612999907229,0.37158203125,-0.451904296875,0.3106689453125,-0.74908447265625,0.1220703125,-0.1220703125,-0.06103515625,0.446533203125,-0.799560546875,0.3980712890625,-296.0,148.0,-151.0,101704.0,-3.1510002613067627,0,0
0.9527152999944519,0.37158203125,-0.451904296875,0.3106689453125,-0.74908447265625,-0.1220703125,-0.244140625,0.06103515625,0.445068359375,-0.7999267578125,0.3975830078125,-296.0,148.0,-151.0,101704.0,-3.1510002613067627,0,0
0.9527686999936122,0.37158203125,-0.451904296875,0.3106689453125,-0.74908447265625,-0.1220703125,-0.244140625,0.06103515625,0.445068359375,-0.7999267578125,0.3975830078125,-296.0,148.0,-151.0,101704.0,-3.1510002613067627,0,0
0.9528215000027558,0.37158203125,-0.451904296875,0.3106689453125,-0.74908447265625,0.06103515625,-0.1220703125,-0.06103515625,0.4483642578125,-0.800537109375,0.3985595703125,-296.0,148.0,-151.0,101704.0,-3.1510002613067627,0,0
0.9528756999934558,0.37158203125,-0.451904296875,0.3106689453125,-0.74908447265625,0.06103515625,-0.18310546875,0.0,0.4464111328125,-0.8013916015625,0.39794921875,-296.0,148.0,-151.0,101704.0,-3.1510002613067627,0,0
1.0208294000040041,0.37158203125,-0.451904296875,0.3106689453125,-0.74908447265625,0.3662109375,0.0,0.06103515625,0.4454345703125,-0.80126953125,0.398681640625,-296.0,148.0,-151.0,101704.0,-3.1510002613067627,0,0
1.0208943000034196,0.37158203125,-0.451904296875,0.3106689453125,-0.74908447265625,0.1220703125,-0.1220703125,0.06103515625,0.447998046875,-0.80224609375,0.39794921875,-296.0,148.0,-151.0,101704.0,-3.1510002613067627,0,0
1.0209538999915821,0.37158203125,-0.451904296875,0.3106689453125,-0.74908447265625,-0.18310546875,-0.1220703125,0.0,0.44482421875,-0.800537109375,0.3978271484375,-296.0,148.0,-151.0,101704.0,-3.1510002613067627,0,0
1.0212920000049053,0.37158203125,-0.451904296875,0.3106689453125,-0.74908447265625,0.0,0.0,-0.06103515625,0.4473876953125,-0.80029296875,0.3975830078125,-296.0,148.0,-151.0,101704.0,-3.1510002613067627,0,0
1.0213686999923084,0.37158203125,-0.451904296875,0.3106689453125,-0.74908447265625,-0.18310546875,-0.30517578125,-0.18310546875,0.447509765625,-0.801513671875,0.3984375,-296.0,148.0,-151.0,101704.0,-3.1510002613067627,0,0
1.0214262999943458,0.37158203125,-0.451904296875,0.3106689453125,-0.74908447265625,0.18310546875,-0.18310546875,-0.06103515625,0.44873046875,-0.8013916015625,0.3997802734375,-296.0,148.0,-151.0,101704.0,-3.1510002613067627,0,0
1.0214988999941852,0.37158203125,-0.451904296875,0.310638427734375,-0.749114990234375,-0.06103515625,0.0,0.0,0.447998046875,-0.80029296875,0.3994140625,-296.0,148.0,-151.0,101704.0,-3.1510002613067627,0,0
1.0215522999933455,0.37158203125,-0.451904296875,0.310638427734375,-0.749114990234375,-0.06103515625,0.0,0.0,0.447998046875,-0.80029296875,0.3994140625,-296.0,148.0,-151.0,101704.0,-3.1510002613067627,0,0
1.021605100002489,0.37158203125,-0.451904296875,0.310638427734375,-0.749114990234375,0.06103515625,-0.18310546875,-0.1220703125,0.4451904296875,-0.8011474609375,0.39892578125,-296.0,148.0,-151.0,101704.0,-3.1510002613067627,0,0
1.0216583000001265,0.37158203125,-0.451904296875,0.310638427734375,-0.749114990234375,-0.18310546875,0.0,-0.06103515625,0.445556640625,-0.8016357421875,0.3975830078125,-296.0,148.0,-151.0,101704.0,-3.1510002613067627,0,0
1.0217107999924337,0.37158203125,-0.451904296875,0.310638427734375,-0.749114990234375,0.1220703125,0.0,-0.1220703125,0.445068359375,-0.80029296875,0.3975830078125,-296.0,148.0,-151.0,101704.0,-3.1520001888275146,0,0
1.0217639000038616,0.37127685546875,-0.4517822265625,0.310821533203125,-0.749237060546875,-0.06103515625,-0.1220703125,-0.06103515625,0.4473876953125,-0.80078125,0.39794921875,-295.0,148.0,-151.0,101704.0,-3.1520001888275146,0,0
1.0218174000037834,0.37127685546875,-0.4517822265625,0.310821533203125,-0.749237060546875,0.1220703125,-0.18310546875,0.244140625,0.44482421875,-0.8009033203125,0.3970947265625,-295.0,148.0,-151.0,101704.0,-3.1520001888275146,0,0
1.0827965999924345,0.37127685546875,-0.4517822265625,0.31085205078125,-0.749237060546875,0.1220703125,-0.1220703125,-0.244140625,0.44775390625,-0.802490234375,0.398681640625,-295.0,148.0,-151.0,101704.0,-3.1520001888275146,0,0
1.0828660999977728,0.37127685546875,-0.4517822265625,0.31085205078125,-0.749237060546875,0.1220703125,-0.1220703125,-0.244140625,0.44775390625,-0.802490234375,0.398681640625,-295.0,148.0,-151.0,101704.0,-3.1520001888275146,0,0
1.0829244999913499,0.37127685546875,-0.4517822265625,0.31085205078125,-0.749237060546875,0.0,-0.30517578125,-0.18310546875,0.4451904296875,-0.80029296875,0.39794921875,-295.0,148.0,-151.0,101704.0,-3.1520001888275146,0,0
1.082983400003286,0.37127685546875,-0.4517822265625,0.31085205078125,-0.749237060546875,0.1220703125,0.1220703125,-0.06103515625,0.4447021484375,-0.800537109375,0.3963623046875,-295.0,148.0,-151.0,101704.0,-3.1520001888275146,0,0
1.0832544000004418,0.37127685546875,-0.4517822265625,0.31085205078125,-0.749237060546875,-0.1220703125,-0.244140625,-0.18310546875,0.4434814453125,-0.8023681640625,0.396240234375,-295.0,148.0,-151.0,101704.0,-3.1520001888275146,0,0
1.0834341000008862,0.37127685546875,-0.4517822265625,0.31085205078125,-0.749237060546875,-0.1220703125,-0.244140625,-0.18310546875,0.4434814453125,-0.8023681640625,0.396240234375,-295.0,148.0,-151.0,101704.0,-3.1520001888275146,0,0
1.0834958999912487,0.37127685546875,-0.4517822265625,0.31085205078125,-0.749237060546875,0.3662109375,-0.1220703125,0.1220703125,0.44677734375,-0.7999267578125,0.3983154296875,-295.0,148.0,-151.0,101704.0,-3.1520001888275146,0,0
1.0835673999972641,0.37127685546875,-0.4517822265625,0.31085205078125,-0.749237060546875,0.0,0.06103515625,-0.1220703125,0.4471435546875,-0.7999267578125,0.3970947265625,-295.0,148.0,-151.0,101704.0,-3.1520001888275146,0,0
1.0836375999933807,0.37127685546875,-0.4517822265625,0.31085205078125,-0.749237060546875,0.30517578125,-0.1220703125,-0.1220703125,0.4456787109375,-0.802490234375,0.4005126953125,-295.0,148.0,-151.0,101704.0,-3.1520001888275146,0,0
1.0836923000024399,0.37127685546875,-0.4517822265625,0.31085205078125,-0.749237060546875,-0.18310546875,0.1220703125,-0.18310546875,0.44482421875,-0.801025390625,0.3988037109375,-295.0,148.0,-151.0,101704.0,-3.1520001888275146,0,0
1.0839062000013655,0.37127685546875,-0.4517822265625,0.31085205078125,-0.749237060546875,0.18310546875,-0.18310546875,-0.18310546875,0.447265625,-0.8001708984375,0.398681640625,-295.0,148.0,-151.0,101704.0,-3.1520001888275146,0,0
1.150584399991203,0.37127685546875,-0.4517822265625,0.310821533203125,-0.749237060546875,-0.244140625,-0.30517578125,0.0,0.4481201171875,-0.7996826171875,0.3984375,-295.0,148.0,-151.0,101704.0,-3.1520001888275146,0,0
1.1506501999974716,0.37127685546875,-0.4517822265625,0.31085205078125,-0.749237060546875,0.244140625,-0.1220703125,0.0,0.4443359375,-0.8009033203125,0.39794921875,-295.0,148.0,-151.0,101704.0,-3.1520001888275146,0,0
1.1507092999963788,0.37127685546875,-0.4517822265625,0.31085205078125,-0.749237060546875,0.06103515625,0.1220703125,-0.244140625,0.4449462890625,-0.8004150390625,0.398193359375,-295.0,148.0,-151.0,101704.0,-3.1510002613067627,0,0
1.1507672000007005,0.37127685546875,-0.4517822265625,0.31085205078125,-0.749237060546875,0.0,-0.1220703125,-0.18310546875,0.4476318359375,-0.8016357421875,0.3980712890625,-294.0,148.0,-151.0,101704.0,-3.1510002613067627,0,0
1.1508240999974078,0.371063232421875,-0.45172119140625,0.31097412109375,-0.74932861328125,-0.06103515625,-0.244140625,-0.1220703125,0.4461669921875,-0.7999267578125,0.3970947265625,-294.0,148.0,-151.0,101704.0,-3.1510002613067627,0,0
1.151081299991347,0.371063232421875,-0.45172119140625,0.31097412109375,-0.74932861328125,0.0,-0.1220703125,-0.1220703125,0.446533203125,-0.8023681640625,0.3984375,-294.0,148.0,-151.0,101704.0,-3.1510002613067627,0,0
1.1511445999931311,0.371063232421875,-0.45172119140625,0.31097412109375,-0.74932861328125,0.30517578125,0.3662109375,-0.244140625,0.445068359375,-0.802490234375,0.398193359375,-294.0,148.0,-151.0,101704.0,-3.1510002613067627,0,0
1.1512031000020215,0.371063232421875,-0.45172119140625,0.31097412109375,-0.74932861328125,0.30517578125,0.3662109375,-0.244140625,0.445068359375,-0.802490234375,0.398193359375,-294.0,148.0,-151.0,101704.0,-3.1510002613067627,0,0
1.151259599995683,0.371063232421875,-0.45172119140625,0.31097412109375,-0.74932861328125,0.06103515625,-0.30517578125,-0.1220703125,0.444580078125,-0.8004150390625,0.39697265625,-294.0,148.0,-151.0,101704.0,-3.1510002613067627,0,0
1.151315800001612,0.371063232421875,-0.45172119140625,0.31097412109375,-0.74932861328125,0.06103515625,-0.1220703125,0.0,0.4449462890625,-0.80029296875,0.398681640625,-294.0,148.0,-151.0,101704.0,-3.1510002613067627,0,0
1.1513713000022108,0.371063232421875,-0.45172119140625,0.31097412109375,-0.74932861328125,-0.1220703125,-0.06103515625,-0.06103515625,0.447998046875,-0.80078125,0.39697265625,-294.0,148.0,-151.0,101704.0,-3.1510002613067627,0,0
1.211714999997639,0.371063232421875,-0.451690673828125,0.31097412109375,-0.74932861328125,0.244140625,0.06103515625,0.06103515625,0.443603515625,-0.80078125,0.398681640625,-294.0,148.0,-151.0,101704.0,-3.1510002613067627,0,0
1.2117845000029774,0.371063232421875,-0.45172119140625,0.31097412109375,-0.74932861328125,-0.06103515625,-0.244140625,-0.1220703125,0.447509765625,-0.8026123046875,0.396240234375,-294.0,148.0,-151.0,101704.0,-3.1510002613067627,0,0
1.2118491000001086,0.371063232421875,-0.45172119140625,0.31097412109375,-0.74932861328125,-0.06103515625,0.18310546875,0.18310546875,0.448974609375,-0.8011474609375,0.3974609375,-294.0,148.0,-151.0,101704.0,-3.1510002613067627,0,0
1.2119071999914013,0.371063232421875,-0.45172119140625,0.31097412109375,-0.74932861328125,0.1220703125,-0.1220703125,0.06103515625,0.4454345703125,-0.798583984375,0.3980712890625,-294.0,148.0,-151.0,101704.0,-3.1510002613067627,0,0
1.2119647999934386,0.371063232421875,-0.45172119140625,0.31097412109375,-0.74932861328125,0.18310546875,-0.06103515625,-0.18310546875,0.4482421875,-0.7999267578125,0.3970947265625,-294.0,148.0,-151.0,101704.0,-3.1510002613067627,0,0
1.212024599997676,0.371063232421875,-0.45172119140625,0.31097412109375,-0.74932861328125,0.0,0.06103515625,-0.18310546875,0.44580078125,-0.8004150390625,0.3963623046875,-294.0,148.0,-151.0,101704.0,-3.1510002613067627,0,0
1.213073599996278,0.371063232421875,-0.45172119140625,0.31097412109375,-0.74932861328125,0.0,0.06103515625,-0.18310546875,0.44580078125,-0.8004150390625,0.3963623046875,-294.0,148.0,-151.0,101704.0,-3.1510002613067627,0,0
1.2131400999933248,0.371063232421875,-0.45172119140625,0.31097412109375,-0.74932861328125,0.18310546875,-0.1220703125,0.0,0.4464111328125,-0.8004150390625,0.398681640625,-294.0,148.0,-151.0,101704.0,-3.1510002613067627,0,0
1.2131995999952778,0.371063232421875,-0.45172119140625,0.310943603515625,-0.74932861328125,0.06103515625,0.0,0.1220703125,0.446044921875,-0.8009033203125,0.4002685546875,-294.0,148.0,-151.0,101704.0,-3.1510002613067627,0,0
1.2132587999949465,0.371063232421875,-0.45172119140625,0.31097412109375,-0.74932861328125,0.244140625,0.0,0.0,0.445556640625,-0.8043212890625,0.400146484375,-294.0,148.0,-151.0,101704.0,-3.1510002613067627,0,0
1.2133153000031598,0.371063232421875,-0.45172119140625,0.31097412109375,-0.74932861328125,0.0,-0.244140625,-0.1220703125,0.4471435546875,-0.80224609375,0.398193359375,-294.0,148.0,-151.0,101704.0,-3.1510002613067627,0,0
1.2133723000006285,0.371063232421875,-0.45172119140625,0.31097412109375,-0.74932861328125,0.18310546875,0.18310546875,0.1220703125,0.446533203125,-0.80078125,0.3968505859375,-294.0,148.0,-151.0,101704.0,-3.1510002613067627,0,0
1.2134286999935284,0.371063232421875,-0.45172119140625,0.31097412109375,-0.74932861328125,-0.30517578125,-0.244140625,-0.18310546875,0.447021484375,-0.801513671875,0.3975830078125,-294.0,148.0,-151.0,101704.0,-3.1520001888275146,0,0
1.2753867999999784,0.37066650390625,-0.451568603515625,0.311187744140625,-0.749542236328125,-0.06103515625,-0.1220703125,0.0,0.4456787109375,-0.79931640625,0.3994140625,-295.0,148.0,-153.0,101704.0,-3.1520001888275146,0,0
1.2754539000015939,0.37066650390625,-0.451568603515625,0.31121826171875,-0.749542236328125,0.1220703125,-0.1220703125,-0.06103515625,0.4468994140625,-0.8006591796875,0.3975830078125,-295.0,148.0,-153.0,101704.0,-3.1520001888275146,0,0
1.275515200002701,0.370635986328125,-0.451568603515625,0.31121826171875,-0.74951171875,0.06103515625,0.1220703125,-0.1220703125,0.4466552734375,-0.802490234375,0.3970947265625,-295.0,148.0,-153.0,101704.0,-3.1520001888275146,0,0
1.2755774999968708,0.370635986328125,-0.451568603515625,0.311187744140625,-0.749542236328125,0.244140625,-0.18310546875,-0.1220703125,0.447509765625,-0.7984619140625,0.39794921875,-295.0,148.0,-153.0,101704.0,-3.1520001888275146,0,0
1.275634399993578,0.370635986328125,-0.451568603515625,0.311187744140625,-0.749542236328125,0.1220703125,0.18310546875,-0.06103515625,0.4468994140625,-0.7991943359375,0.3992919921875,-295.0,148.0,-153.0,101704.0,-3.1520001888275146,0,0
1.275704500003485,0.370635986328125,-0.451568603515625,0.311187744140625,-0.749542236328125,0.06103515625,0.0,-0.244140625,0.446044921875,-0.80078125,0.3973388671875,-295.0,148.0,-153.0,101704.0,-3.1520001888275146,0,0
1.2759189999924274,0.370635986328125,-0.451568603515625,0.311187744140625,-0.749542236328125,-0.18310546875,-0.06103515625,0.0,0.4456787109375,-0.80078125,0.398193359375,-295.0,148.0,-153.0,101704.0,-3.1520001888275146,0,0
1.2760551999963354,0.370635986328125,-0.451568603515625,0.311187744140625,-0.749542236328125,-0.18310546875,-0.06103515625,0.0,0.4456787109375,-0.80078125,0.398193359375,-295.0,148.0,-153.0,101704.0,-3.1520001888275146,0,0
1.2761234999925364,0.370635986328125,-0.451568603515625,0.311187744140625,-0.749542236328125,0.18310546875,-0.06103515625,-0.1220703125,0.443603515625,-0.8006591796875,0.3995361328125,-295.0,148.0,-153.0,101704.0,-3.1520001888275146,0,0
1.276615499999025,0.370635986328125,-0.451568603515625,0.311187744140625,-0.749542236328125,0.0,-0.1220703125,-0.1220703125,0.4454345703125,-0.80126953125,0.39794921875,-295.0,148.0,-153.0,101704.0,-3.1520001888275146,0,0
1.2767004999914207,0.370635986328125,-0.451568603515625,0.311187744140625,-0.749542236328125,0.0,-0.1220703125,-0.1220703125,0.4454345703125,-0.80126953125,0.39794921875,-295.0,148.0,-153.0,101704.0,-3.1520001888275146,0,0
1.3383255999942776,0.37066650390625,-0.451568603515625,0.31121826171875,-0.749542236328125,-0.06103515625,-0.18310546875,0.0,0.443359375,-0.801513671875,0.3970947265625,-295.0,148.0,-153.0,101704.0,-3.1520001888275146,0,0
1.3383920999913244,0.37066650390625,-0.451568603515625,0.31121826171875,-0.749542236328125,0.30517578125,0.1220703125,-0.06103515625,0.4456787109375,-0.8006591796875,0.398193359375,-295.0,148.0,-153.0,101704.0,-3.1520001888275146,0,0
1.3384515999932773,0.370635986328125,-0.451568603515625,0.311187744140625,-0.749542236328125,-0.30517578125,-0.18310546875,-0.06103515625,0.445556640625,-0.802001953125,0.3988037109375,-295.0,148.0,-153.0,101704.0,-3.1520001888275146,0,0
1.3385104999906616,0.370635986328125,-0.451568603515625,0.311187744140625,-0.749542236328125,0.1220703125,0.1220703125,-0.30517578125,0.447509765625,-0.798583984375,0.3975830078125,-295.0,148.0,-153.0,101704.0,-3.1520001888275146,0,0
1.3385725999978604,0.37066650390625,-0.451568603515625,0.311187744140625,-0.749542236328125,-0.06103515625,0.0,0.1220703125,0.4466552734375,-0.80126953125,0.3983154296875,-295.0,148.0,-153.0,101704.0,-3.1500000953674316,0,0
1.338793100003386,0.37066650390625,-0.451568603515625,0.311187744140625,-0.749542236328125,-0.3662109375,0.1220703125,-0.06103515625,0.4447021484375,-0.8009033203125,0.400146484375,-294.0,149.0,-153.0,101704.0,-3.1500000953674316,0,0
1.3388483000017004,0.37066650390625,-0.451568603515625,0.311187744140625,-0.749542236328125,-0.3662109375,0.1220703125,-0.06103515625,0.4447021484375,-0.8009033203125,0.400146484375,-294.0,149.0,-153.0,101704.0,-3.1500000953674316,0,0
1.3389048999961233,0.370361328125,-0.451446533203125,0.311370849609375,-0.74969482421875,0.0,-0.06103515625,-0.1220703125,0.446533203125,-0.801025390625,0.3990478515625,-294.0,149.0,-153.0,101704.0,-3.1500000953674316,0,0
1.338959699991392,0.370361328125,-0.451446533203125,0.311370849609375,-0.74969482421875,-0.1220703125,-0.1220703125,-0.244140625,0.44677734375,-0.7999267578125,0.398681640625,-294.0,149.0,-153.0,101704.0,-3.1500000953674316,0,0
1.3390150000050198,0.370361328125,-0.451446533203125,0.311370849609375,-0.74969482421875,0.06103515625,0.1220703125,-0.18310546875,0.445556640625,-0.8013916015625,0.3983154296875,-294.0,149.0,-153.0,101704.0,-3.1500000953674316,0,0
1.3390695999987656,0.370361328125,-0.451446533203125,0.3114013671875,-0.749664306640625,-0.18310546875,-0.06103515625,-0.3662109375,0.4447021484375,-0.8028564453125,0.3978271484375,-294.0,149.0,-153.0,101704.0,-3.1500000953674316,0,0
1.404081500004395,0.370361328125,-0.451446533203125,0.3114013671875,-0.749664306640625,0.244140625,-0.244140625,-0.18310546875,0.4444580078125,-0.802490234375,0.3983154296875,-294.0,149.0,-153.0,101704.0,-3.1500000953674316,0,0
1.4041502000036417,0.370361328125,-0.451446533203125,0.3114013671875,-0.749664306640625,-0.1220703125,-0.18310546875,0.06103515625,0.447509765625,-0.802490234375,0.3975830078125,-294.0,149.0,-153.0,101704.0,-3.1500000953674316,0,0
1.4042100999940885,0.370361328125,-0.451446533203125,0.3114013671875,-0.749664306640625,0.0,0.1220703125,-0.1220703125,0.4462890625,-0.802490234375,0.3968505859375,-294.0,149.0,-153.0,101704.0,-3.1500000953674316,0,0
1.404267499994603,0.370361328125,-0.451446533203125,0.3114013671875,-0.749664306640625,0.244140625,-0.06103515625,-0.06103515625,0.444091796875,-0.8021240234375,0.3984375,-294.0,149.0,-153.0,101704.0,-3.1500000953674316,0,0
1.4043254999996861,0.370361328125,-0.451446533203125,0.3114013671875,-0.749664306640625,-0.30517578125,0.0,0.06103515625,0.44775390625,-0.801025390625,0.3984375,-294.0,149.0,-153.0,101704.0,-3.1500000953674316,0,0
1.404383000000962,0.370361328125,-0.451446533203125,0.3114013671875,-0.749664306640625,-0.30517578125,0.0,0.06103515625,0.44775390625,-0.801025390625,0.3984375,-294.0,149.0,-153.0,101704.0,-3.1500000953674316,0,0
1.4044407000037609,0.370361328125,-0.451446533203125,0.3114013671875,-0.749664306640625,0.06103515625,-0.06103515625,0.06103515625,0.4486083984375,-0.80029296875,0.399658203125,-294.0,149.0,-153.0,101704.0,-3.1500000953674316,0,0
1.405379299991182,0.370361328125,-0.451446533203125,0.3114013671875,-0.749664306640625,-0.1220703125,-0.244140625,-0.1220703125,0.4464111328125,-0.80126953125,0.4007568359375,-294.0,149.0,-153.0,101704.0,-3.1500000953674316,0,0
1.4054458000027807,0.370361328125,-0.451446533203125,0.3114013671875,-0.749664306640625,0.18310546875,-0.1220703125,-0.18310546875,0.4454345703125,-0.8026123046875,0.3992919921875,-294.0,149.0,-153.0,101704.0,-3.1500000953674316,0,0
1.405504700000165,0.370361328125,-0.451446533203125,0.3114013671875,-0.749664306640625,0.06103515625,-0.30517578125,-0.06103515625,0.4456787109375,-0.8009033203125,0.3973388671875,-294.0,149.0,-153.0,101704.0,-3.1500000953674316,0,0
1.4055623000022024,0.370361328125,-0.451446533203125,0.3114013671875,-0.74969482421875,0.1220703125,0.0,0.06103515625,0.4451904296875,-0.80078125,0.3995361328125,-294.0,149.0,-153.0,101704.0,-3.1500000953674316,0,0
1.4056199000042398,0.370361328125,-0.451446533203125,0.3114013671875,-0.749664306640625,0.06103515625,-0.1220703125,-0.1220703125,0.44677734375,-0.80224609375,0.3980712890625,-294.0,149.0,-153.0,101704.0,-3.1500000953674316,0,0
1.405677699993248,0.370361328125,-0.451446533203125,0.3114013671875,-0.749664306640625,-0.1220703125,-0.18310546875,0.06103515625,0.4459228515625,-0.80126953125,0.3973388671875,-294.0,149.0,-153.0,101704.0,-3.1500000953674316,0,0
1.4725675999943633,0.370147705078125,-0.45135498046875,0.3115234375,-0.749786376953125,0.244140625,0.0,0.1220703125,0.4461669921875,-0.801513671875,0.3983154296875,-294.0,148.0,-152.0,101704.0,-3.1520001888275146,0,0
1.4726386999973329,0.370147705078125,-0.45135498046875,0.3115234375,-0.749786376953125,0.06103515625,-0.18310546875,0.244140625,0.4464111328125,-0.801025390625,0.39794921875,-294.0,148.0,-152.0,101704.0,-3.1520001888275146,0,0
1.4727000999992015,0.370147705078125,-0.45135498046875,0.3115234375,-0.749786376953125,-0.1220703125,0.06103515625,0.0,0.4453125,-0.80126953125,0.39892578125,-294.0,148.0,-152.0,101704.0,-3.1520001888275146,0,0
1.4727606999949785,0.370147705078125,-0.45135498046875,0.3115234375,-0.749786376953125,0.30517578125,-0.244140625,0.0,0.446044921875,-0.799072265625,0.3978271484375,-294.0,148.0,-152.0,101704.0,-3.1520001888275146,0,0
1.4728198999946471,0.370147705078125,-0.45135498046875,0.3115234375,-0.749786376953125,0.06103515625,-0.18310546875,-0.30517578125,0.4459228515625,-0.80078125,0.3988037109375,-294.0,148.0,-152.0,101704.0,-3.1520001888275146,0,0
