Time stamp(sec),adc1,adc2,roll_angular_rate,pitch_angular_rate,yaw_angular_rate,acc_X,acc_Y,acc_Z,mag_X,mag_Y,mag_Z,pressure,altitude
0.016814699993119575,0.371307373046875,-0.451507568359375,0.311309814453125,-0.74920654296875,0.1220703125,-0.06103515625,-0.244140625,0.4444580078125,-0.8006591796875,0.397216796875,-295.0,153.0,-151.0,101700.0,-3.123000144958496,0,0
0.016887799996766262,0.371307373046875,-0.451507568359375,0.311279296875,-0.74920654296875,-0.06103515625,-0.244140625,-0.244140625,0.447265625,-0.8038330078125,0.4019775390625,-295.0,153.0,-151.0,101700.0,-3.123000144958496,0,0
0.01694560000032652,0.371307373046875,-0.451507568359375,0.311279296875,-0.74920654296875,0.0,-0.1220703125,-0.1220703125,0.444580078125,-0.8023681640625,0.400390625,-295.0,153.0,-151.0,101700.0,-3.123000144958496,0,0
0.01700120000168681,0.371307373046875,-0.451507568359375,0.311279296875,-0.74920654296875,0.1220703125,-0.06103515625,0.1220703125,0.445556640625,-0.8023681640625,0.39892578125,-295.0,153.0,-151.0,101700.0,-3.123000144958496,0,0
0.017053999996278435,0.371307373046875,-0.451507568359375,0.311279296875,-0.74920654296875,0.18310546875,-0.06103515625,-0.18310546875,0.4447021484375,-0.803466796875,0.3994140625,-295.0,153.0,-151.0,101700.0,-3.123000144958496,0,0
0.017107299994677305,0.371307373046875,-0.451507568359375,0.311279296875,-0.74920654296875,0.18310546875,-0.06103515625,-0.18310546875,0.4447021484375,-0.803466796875,0.3994140625,-295.0,153.0,-151.0,101700.0,-3.123000144958496,0,0
0.01914609999221284,0.371307373046875,-0.451507568359375,0.311279296875,-0.74920654296875,0.244140625,-0.244140625,-0.244140625,0.4449462890625,-0.802978515625,0.3983154296875,-295.0,153.0,-151.0,101700.0,-3.123000144958496,0,0
0.01920290000271052,0.371307373046875,-0.451507568359375,0.311279296875,-0.74920654296875,0.244140625,-0.244140625,-0.244140625,0.4449462890625,-0.802978515625,0.3983154296875,-296.0,153.0,-152.0,101700.0,-3.123000144958496,0,0
0.01925729999493342,0.371307373046875,-0.451507568359375,0.311279296875,-0.74920654296875,-0.1220703125,-0.06103515625,-0.244140625,0.4454345703125,-0.80224609375,0.3985595703125,-296.0,153.0,-152.0,101700.0,-3.123000144958496,0,0
0.019311099997139536,0.371307373046875,-0.451507568359375,0.311279296875,-0.74920654296875,0.06103515625,0.1220703125,-0.18310546875,0.4456787109375,-0.7999267578125,0.3994140625,-296.0,153.0,-152.0,101700.0,-3.123000144958496,0,0
0.01936330000171438,0.371307373046875,-0.451507568359375,0.311279296875,-0.74920654296875,-0.06103515625,-0.1220703125,0.0,0.447509765625,-0.802734375,0.3984375,-296.0,153.0,-152.0,101700.0,-3.123000144958496,0,0
0.01941719999013003,0.371307373046875,-0.451507568359375,0.311279296875,-0.74920654296875,-0.30517578125,-0.06103515625,-0.06103515625,0.4471435546875,-0.8031005859375,0.4002685546875,-296.0,153.0,-152.0,101700.0,-3.123000144958496,0,0
0.0194704999885289,0.371307373046875,-0.451507568359375,0.311279296875,-0.74920654296875,0.30517578125,0.06103515625,0.1220703125,0.44580078125,-0.79931640625,0.3975830078125,-296.0,153.0,-152.0,101700.0,-3.123000144958496,0,0
0.07153909999760799,0.371307373046875,-0.451507568359375,0.311279296875,-0.74920654296875,0.06103515625,0.1220703125,0.0,0.44677734375,-0.8023681640625,0.398193359375,-296.0,153.0,-152.0,101700.0,-3.123000144958496,0,0
0.07160619999922346,0.371307373046875,-0.451507568359375,0.311279296875,-0.74920654296875,-0.06103515625,-0.18310546875,-0.1220703125,0.442626953125,-0.8023681640625,0.399169921875,-296.0,153.0,-152.0,101700.0,-3.123000144958496,0,0
0.07166469999356195,0.371307373046875,-0.451507568359375,0.311279296875,-0.74920654296875,0.06103515625,-0.244140625,0.18310546875,0.4444580078125,-0.7998046875,0.400146484375,-296.0,153.0,-152.0,101700.0,-3.123000144958496,0,0
0.07171869999729097,0.371307373046875,-0.45147705078125,0.311279296875,-0.74920654296875,0.0,0.06103515625,0.1220703125,0.4434814453125,-0.799560546875,0.4007568359375,-296.0,153.0,-152.0,101700.0,-3.123000144958496,0,0
0.07177189999492839,0.371307373046875,-0.45147705078125,0.311279296875,-0.74920654296875,0.1220703125,0.06103515625,-0.18310546875,0.4434814453125,-0.801513671875,0.4000244140625,-296.0,153.0,-152.0,101700.0,-3.123000144958496,0,0
0.07243609998840839,0.371307373046875,-0.45147705078125,0.311279296875,-0.74920654296875,0.0,0.1220703125,0.0,0.4468994140625,-0.802734375,0.3994140625,-296.0,153.0,-152.0,101700.0,-3.123000144958496,0,0
0.07250059999933,0.371307373046875,-0.45147705078125,0.311279296875,-0.74920654296875,0.18310546875,-0.1220703125,-0.1220703125,0.4464111328125,-0.8021240234375,0.399169921875,-296.0,153.0,-152.0,101700.0,-3.123000144958496,0,0
0.07281359999615233,0.371307373046875,-0.45147705078125,0.311279296875,-0.74920654296875,0.06103515625,0.0,-0.06103515625,0.4456787109375,-0.8026123046875,0.4005126953125,-296.0,153.0,-152.0,101700.0,-3.123000144958496,0,0
0.07287959998939186,0.371307373046875,-0.45147705078125,0.311279296875,-0.749237060546875,-0.1220703125,-0.18310546875,-0.06103515625,0.4447021484375,-0.801513671875,0.400390625,-296.0,153.0,-152.0,101700.0,-3.123000144958496,0,0
0.0729358999960823,0.371307373046875,-0.45147705078125,0.311279296875,-0.749237060546875,-0.1220703125,-0.18310546875,-0.06103515625,0.4447021484375,-0.801513671875,0.400390625,-296.0,153.0,-152.0,101700.0,-3.123000144958496,0,0
0.07298889999219682,0.371337890625,-0.45147705078125,0.311279296875,-0.749237060546875,0.06103515625,0.06103515625,-0.1220703125,0.445068359375,-0.8018798828125,0.399169921875,-296.0,153.0,-152.0,101700.0,-3.123000144958496,0,0
0.13961929999641143,0.371337890625,-0.45147705078125,0.311279296875,-0.749237060546875,-0.244140625,-0.1220703125,-0.06103515625,0.444580078125,-0.8018798828125,0.39990234375,-296.0,153.0,-151.0,101700.0,-3.123000144958496,0,0
0.13968179999210406,0.371337890625,-0.45147705078125,0.311279296875,-0.749237060546875,0.18310546875,0.30517578125,0.06103515625,0.4449462890625,-0.802001953125,0.399169921875,-296.0,153.0,-151.0,101700.0,-3.123000144958496,0,0
0.13973719999194145,0.371337890625,-0.451446533203125,0.311279296875,-0.749237060546875,-0.06103515625,-0.244140625,0.18310546875,0.4451904296875,-0.803466796875,0.398681640625,-296.0,153.0,-151.0,101700.0,-3.123000144958496,0,0
0.13979339999787044,0.371337890625,-0.45147705078125,0.311279296875,-0.749237060546875,-0.1220703125,0.0,-0.06103515625,0.4468994140625,-0.8035888671875,0.39892578125,-296.0,153.0,-151.0,101700.0,-3.123000144958496,0,0
0.13984930000151508,0.371337890625,-0.451446533203125,0.311279296875,-0.749237060546875,-0.18310546875,0.0,0.1220703125,0.4439697265625,-0.800537109375,0.400634765625,-296.0,153.0,-151.0,101700.0,-3.123000144958496,0,0
0.1408682999899611,0.371337890625,-0.451446533203125,0.311279296875,-0.749237060546875,0.06103515625,0.06103515625,0.0,0.4454345703125,-0.802978515625,0.3994140625,-296.0,153.0,-151.0,101700.0,-3.123000144958496,0,0
0.14092669999809004,0.371337890625,-0.451446533203125,0.311279296875,-0.749237060546875,0.06103515625,0.06103515625,0.0,0.4454345703125,-0.802978515625,0.3994140625,-296.0,153.0,-151.0,101700.0,-3.123000144958496,0,0
0.1409817999956431,0.371337890625,-0.451446533203125,0.311279296875,-0.749237060546875,0.06103515625,-0.18310546875,-0.244140625,0.4427490234375,-0.8035888671875,0.3988037109375,-296.0,153.0,-151.0,101700.0,-3.123000144958496,0,0
0.1410349999932805,0.371337890625,-0.451446533203125,0.311279296875,-0.749237060546875,0.06103515625,-0.18310546875,-0.18310546875,0.4429931640625,-0.802490234375,0.4013671875,-296.0,153.0,-151.0,101700.0,-3.123000144958496,0,0
0.14108849999320228,0.371337890625,-0.451416015625,0.311279296875,-0.749237060546875,0.244140625,0.0,-0.06103515625,0.4456787109375,-0.8035888671875,0.3994140625,-296.0,153.0,-151.0,101700.0,-3.123000144958496,0,0
0.14114139998855535,0.371337890625,-0.451416015625,0.311279296875,-0.749237060546875,0.244140625,0.0,-0.06103515625,0.4456787109375,-0.8035888671875,0.3994140625,-296.0,153.0,-151.0,101700.0,-3.123000144958496,0,0
0.20775159999902826,0.371368408203125,-0.451416015625,0.311279296875,-0.749237060546875,0.1220703125,0.0,0.18310546875,0.4439697265625,-0.8021240234375,0.3995361328125,-296.0,153.0,-151.0,101700.0,-3.123000144958496,0,0
0.2078175999922678,0.371368408203125,-0.451416015625,0.311279296875,-0.749237060546875,-0.1220703125,0.1220703125,0.06103515625,0.445068359375,-0.80126953125,0.3994140625,-296.0,153.0,-151.0,101700.0,-3.123000144958496,0,0
0.2078752999950666,0.371368408203125,-0.451416015625,0.311279296875,-0.749237060546875,0.244140625,-0.30517578125,-0.18310546875,0.4454345703125,-0.802978515625,0.3994140625,-296.0,153.0,-151.0,101700.0,-3.123000144958496,0,0
0.20793059999414254,0.371368408203125,-0.451416015625,0.311279296875,-0.749237060546875,0.3662109375,0.06103515625,-0.06103515625,0.4453125,-0.8018798828125,0.399169921875,-296.0,153.0,-151.0,101700.0,-3.123000144958496,0,0
0.20798529998864979,0.371368408203125,-0.451416015625,0.311279296875,-0.749237060546875,0.3662109375,0.06103515625,-0.06103515625,0.4453125,-0.8018798828125,0.399169921875,-296.0,153.0,-151.0,101700.0,-3.123000144958496,0,0
0.20803879998857155,0.371368408203125,-0.451416015625,0.311279296875,-0.749237060546875,0.0,-0.06103515625,-0.30517578125,0.4464111328125,-0.802001953125,0.399658203125,-296.0,153.0,-151.0,101700.0,-3.123000144958496,0,0
0.20809210000152234,0.371368408203125,-0.451416015625,0.311248779296875,-0.749267578125,0.0,-0.244140625,-0.18310546875,0.4454345703125,-0.802734375,0.4005126953125,-296.0,153.0,-151.0,101700.0,-3.123000144958496,0,0
0.20900289999553934,0.371368408203125,-0.451416015625,0.311248779296875,-0.749267578125,0.244140625,0.0,0.18310546875,0.44677734375,-0.8013916015625,0.401123046875,-296.0,153.0,-151.0,101700.0,-3.123000144958496,0,0
0.20905669999774545,0.371368408203125,-0.451416015625,0.311279296875,-0.749237060546875,-0.18310546875,-0.30517578125,-0.06103515625,0.4459228515625,-0.8045654296875,0.3997802734375,-296.0,153.0,-151.0,101700.0,-3.123000144958496,0,0
0.20910909998929128,0.371368408203125,-0.451416015625,0.311279296875,-0.749237060546875,-0.06103515625,0.0,0.06103515625,0.4451904296875,-0.80322265625,0.399169921875,-295.0,151.0,-150.0,101700.0,-3.122000217437744,0,0
0.20916089999082033,0.3714599609375,-0.451446533203125,0.31121826171875,-0.74920654296875,-0.30517578125,-0.1220703125,0.1220703125,0.4454345703125,-0.8021240234375,0.3992919921875,-295.0,151.0,-150.0,101700.0,-3.122000217437744,0,0
0.20921390000148676,0.3714599609375,-0.451446533203125,0.31121826171875,-0.74920654296875,0.244140625,0.0,-0.06103515625,0.4459228515625,-0.803466796875,0.3992919921875,-295.0,151.0,-150.0,101700.0,-3.122000217437744,0,0
0.2092662999930326,0.3714599609375,-0.451446533203125,0.311187744140625,-0.74920654296875,0.42724609375,0.06103515625,0.0,0.4451904296875,-0.80126953125,0.4000244140625,-295.0,151.0,-150.0,101700.0,-3.122000217437744,0,0
0.27663890000258107,0.3714599609375,-0.451446533203125,0.311187744140625,-0.74920654296875,0.1220703125,-0.1220703125,-0.244140625,0.4442138671875,-0.799560546875,0.3975830078125,-295.0,151.0,-150.0,101700.0,-3.122000217437744,0,0
0.27670539999962784,0.3714599609375,-0.451446533203125,0.311187744140625,-0.74920654296875,0.06103515625,0.1220703125,-0.06103515625,0.4453125,-0.7989501953125,0.3983154296875,-295.0,151.0,-150.0,101700.0,-3.122000217437744,0,0
0.2767628000001423,0.3714599609375,-0.451446533203125,0.311187744140625,-0.74920654296875,-0.06103515625,-0.244140625,-0.30517578125,0.445068359375,-0.800537109375,0.3990478515625,-295.0,151.0,-150.0,101700.0,-3.122000217437744,0,0
0.27681789999769535,0.3714599609375,-0.451446533203125,0.311187744140625,-0.74920654296875,0.3662109375,-0.1220703125,0.0,0.446044921875,-0.7991943359375,0.3975830078125,-295.0,151.0,-150.0,101700.0,-3.122000217437744,0,0
0.27687519999744836,0.3714599609375,-0.451446533203125,0.311187744140625,-0.74920654296875,0.0,-0.30517578125,-0.06103515625,0.4482421875,-0.8013916015625,0.39794921875,-295.0,151.0,-150.0,101700.0,-3.122000217437744,0,0
0.27694460000202525,0.3714599609375,-0.451446533203125,0.3111572265625,-0.749237060546875,0.0,0.18310546875,0.244140625,0.4482421875,-0.8028564453125,0.4014892578125,-295.0,151.0,-150.0,101700.0,-3.122000217437744,0,0
0.27699899999424815,0.371429443359375,-0.451446533203125,0.3111572265625,-0.749237060546875,-0.1220703125,0.06103515625,0.244140625,0.44775390625,-0.8028564453125,0.399658203125,-295.0,151.0,-150.0,101700.0,-3.122000217437744,0,0
0.2770535000017844,0.371429443359375,-0.451446533203125,0.3111572265625,-0.749237060546875,-0.30517578125,0.244140625,0.42724609375,0.4447021484375,-0.8018798828125,0.3997802734375,-295.0,151.0,-150.0,101700.0,-3.122000217437744,0,0
0.27710710000246763,0.371429443359375,-0.451446533203125,0.3111572265625,-0.749237060546875,-0.30517578125,0.244140625,0.42724609375,0.4447021484375,-0.8018798828125,0.3997802734375,-295.0,151.0,-150.0,101700.0,-3.122000217437744,0,0
0.2771599999978207,0.371429443359375,-0.451446533203125,0.3111572265625,-0.749237060546875,-0.18310546875,-0.1220703125,0.0,0.4471435546875,-0.8035888671875,0.40087890625,-295.0,151.0,-150.0,101700.0,-3.122000217437744,0,0
0.277212499990128,0.371429443359375,-0.451446533203125,0.3111572265625,-0.749237060546875,0.0,-0.06103515625,-0.1220703125,0.447509765625,-0.8028564453125,0.3985595703125,-295.0,151.0,-150.0,101700.0,-3.122000217437744,0,0
0.32705329998862,0.371429443359375,-0.451446533203125,0.3111572265625,-0.749237060546875,0.0,-0.06103515625,0.0,0.4473876953125,-0.80517578125,0.4012451171875,-295.0,151.0,-150.0,101700.0,-3.122000217437744,0,0
0.32711379999818746,0.3714599609375,-0.451446533203125,0.3111572265625,-0.749237060546875,0.0,-0.06103515625,0.0,0.4473876953125,-0.80517578125,0.4012451171875,-295.0,151.0,-150.0,101700.0,-3.124000072479248,0,0
0.32716879999497905,0.3714599609375,-0.451446533203125,0.3111572265625,-0.749237060546875,0.42724609375,0.0,-0.06103515625,0.44775390625,-0.80322265625,0.400146484375,-295.0,150.0,-150.0,101700.0,-3.124000072479248,0,0
0.3272217999910936,0.3714599609375,-0.451446533203125,0.3111572265625,-0.749237060546875,0.18310546875,-0.06103515625,-0.3662109375,0.4447021484375,-0.80126953125,0.3984375,-295.0,150.0,-150.0,101700.0,-3.124000072479248,0,0
0.3272755999932997,0.371429443359375,-0.451446533203125,0.3111572265625,-0.749237060546875,0.0,-0.18310546875,-0.6103515625,0.443359375,-0.799560546875,0.398193359375,-295.0,150.0,-150.0,101700.0,-3.124000072479248,0,0
0.3295032000023639,0.371429443359375,-0.451446533203125,0.3111572265625,-0.749237060546875,0.0,-0.18310546875,-0.6103515625,0.443359375,-0.799560546875,0.398193359375,-295.0,150.0,-150.0,101700.0,-3.124000072479248,0,0
0.3295627999905264,0.371429443359375,-0.451446533203125,0.311126708984375,-0.749237060546875,0.0,-0.18310546875,-0.54931640625,0.4444580078125,-0.7987060546875,0.3974609375,-295.0,150.0,-150.0,101700.0,-3.124000072479248,0,0
0.3296165999927325,0.371429443359375,-0.451446533203125,0.311126708984375,-0.749237060546875,0.06103515625,-0.1220703125,-0.48828125,0.4454345703125,-0.7972412109375,0.3963623046875,-295.0,150.0,-150.0,101700.0,-3.124000072479248,0,0
0.32966920000035316,0.371429443359375,-0.451446533203125,0.311126708984375,-0.749237060546875,0.0,-0.06103515625,-0.18310546875,0.443359375,-0.8006591796875,0.39697265625,-295.0,150.0,-150.0,101700.0,-3.124000072479248,0,0
0.3297213999903761,0.371429443359375,-0.45147705078125,0.311126708984375,-0.749237060546875,-0.18310546875,0.06103515625,0.244140625,0.450439453125,-0.802978515625,0.3988037109375,-295.0,150.0,-150.0,101700.0,-3.124000072479248,0,0
0.3297743000002811,0.371429443359375,-0.45147705078125,0.311126708984375,-0.749237060546875,-0.1220703125,0.30517578125,0.48828125,0.4461669921875,-0.8009033203125,0.396484375,-295.0,150.0,-150.0,101700.0,-3.124000072479248,0,0
0.39338649999990594,0.371429443359375,-0.45147705078125,0.311126708984375,-0.749237060546875,-0.1220703125,0.30517578125,0.48828125,0.4461669921875,-0.8009033203125,0.396484375,-295.0,150.0,-150.0,101700.0,-3.124000072479248,0,0
0.39345429999229964,0.371429443359375,-0.45147705078125,0.311126708984375,-0.749237060546875,-0.06103515625,0.244140625,0.3662109375,0.4461669921875,-0.804443359375,0.4002685546875,-295.0,150.0,-150.0,101700.0,-3.124000072479248,0,0
0.3935137999942526,0.371429443359375,-0.451446533203125,0.3111572265625,-0.749237060546875,0.06103515625,0.18310546875,0.42724609375,0.4447021484375,-0.8048095703125,0.3995361328125,-295.0,150.0,-150.0,101700.0,-3.124000072479248,0,0
0.39356719999341294,0.371429443359375,-0.451446533203125,0.3111572265625,-0.749237060546875,0.06103515625,0.18310546875,0.42724609375,0.4447021484375,-0.8048095703125,0.3995361328125,-295.0,150.0,-150.0,101700.0,-3.124000072479248,0,0
0.39362319999781903,0.371429443359375,-0.45147705078125,0.3111572265625,-0.749237060546875,0.0,-0.30517578125,-0.244140625,0.446533203125,-0.80029296875,0.395751953125,-295.0,150.0,-150.0,101700.0,-3.124000072479248,0,0
0.3936787999991793,0.371429443359375,-0.45147705078125,0.3111572265625,-0.749237060546875,0.1220703125,-0.18310546875,-0.18310546875,0.44384765625,-0.80029296875,0.3958740234375,-295.0,150.0,-150.0,101700.0,-3.124000072479248,0,0
0.3937298999953782,0.371429443359375,-0.45147705078125,0.3111572265625,-0.74920654296875,-0.06103515625,-0.18310546875,-0.18310546875,0.4451904296875,-0.800537109375,0.398193359375,-295.0,150.0,-150.0,101700.0,-3.124000072479248,0,0
0.39388999999209773,0.371429443359375,-0.45147705078125,0.3111572265625,-0.749237060546875,0.48828125,0.18310546875,0.06103515625,0.4429931640625,-0.802978515625,0.3961181640625,-295.0,150.0,-150.0,101700.0,-3.124000072479248,0,0
0.3939410000020871,0.371429443359375,-0.45147705078125,0.3111572265625,-0.749237060546875,0.06103515625,-0.06103515625,-0.1220703125,0.4434814453125,-0.7982177734375,0.39892578125,-295.0,150.0,-150.0,101700.0,-3.124000072479248,0,0
0.3939914999937173,0.371429443359375,-0.45147705078125,0.3111572265625,-0.749237060546875,0.18310546875,-0.30517578125,0.244140625,0.4434814453125,-0.8017578125,0.398681640625,-295.0,150.0,-150.0,101700.0,-3.124000072479248,0,0
0.3940437999990536,0.371429443359375,-0.45147705078125,0.3111572265625,-0.749237060546875,0.06103515625,-0.18310546875,-0.06103515625,0.44580078125,-0.80126953125,0.3990478515625,-295.0,150.0,-150.0,101700.0,-3.123000144958496,0,0
0.3940961999905994,0.371429443359375,-0.45147705078125,0.3111572265625,-0.74920654296875,-0.1220703125,-0.30517578125,-0.06103515625,0.4454345703125,-0.8018798828125,0.3975830078125,-296.0,151.0,-149.0,101700.0,-3.123000144958496,0,0
0.39414669999678154,0.371429443359375,-0.45147705078125,0.3111572265625,-0.74920654296875,0.06103515625,0.06103515625,0.06103515625,0.4451904296875,-0.802490234375,0.3974609375,-296.0,151.0,-149.0,101700.0,-3.123000144958496,0,0
0.4574867999908747,0.371429443359375,-0.45147705078125,0.3111572265625,-0.74920654296875,0.0,0.1220703125,0.06103515625,0.447998046875,-0.8048095703125,0.3988037109375,-296.0,151.0,-149.0,101700.0,-3.123000144958496,0,0
0.4575588000006974,0.371429443359375,-0.45147705078125,0.3111572265625,-0.74920654296875,0.0,-0.1220703125,0.1220703125,0.446533203125,-0.80322265625,0.39794921875,-296.0,151.0,-149.0,101700.0,-3.123000144958496,0,0
0.4576161000004504,0.371429443359375,-0.45147705078125,0.3111572265625,-0.74920654296875,0.30517578125,0.0,-0.1220703125,0.4444580078125,-0.802978515625,0.396728515625,-296.0,151.0,-149.0,101700.0,-3.123000144958496,0,0
0.4581082999939099,0.371429443359375,-0.451507568359375,0.311187744140625,-0.74920654296875,0.0,0.0,-0.18310546875,0.4459228515625,-0.802978515625,0.3970947265625,-296.0,151.0,-149.0,101700.0,-3.123000144958496,0,0
0.45817699999315664,0.371429443359375,-0.451507568359375,0.311187744140625,-0.74920654296875,0.1220703125,-0.1220703125,-0.244140625,0.4432373046875,-0.8001708984375,0.3966064453125,-296.0,151.0,-149.0,101700.0,-3.123000144958496,0,0
0.4583310000016354,0.371429443359375,-0.451507568359375,0.311187744140625,-0.74920654296875,0.30517578125,0.1220703125,-0.3662109375,0.4456787109375,-0.8001708984375,0.396484375,-296.0,151.0,-149.0,101700.0,-3.123000144958496,0,0
0.45843329999479465,0.371429443359375,-0.451507568359375,0.311187744140625,-0.74920654296875,0.0,-0.18310546875,-0.06103515625,0.445556640625,-0.80126953125,0.3974609375,-296.0,151.0,-149.0,101700.0,-3.123000144958496,0,0
0.4585476999927778,0.371429443359375,-0.451507568359375,0.311187744140625,-0.74920654296875,0.0,-0.18310546875,-0.06103515625,0.445556640625,-0.80126953125,0.3974609375,-296.0,151.0,-149.0,101700.0,-3.123000144958496,0,0
0.4586066999909235,0.371429443359375,-0.451507568359375,0.311187744140625,-0.74920654296875,-0.1220703125,-0.1220703125,0.0,0.44775390625,-0.8028564453125,0.3978271484375,-296.0,151.0,-149.0,101700.0,-3.123000144958496,0,0
0.458831600000849,0.371429443359375,-0.451507568359375,0.311187744140625,-0.74920654296875,-0.06103515625,-0.1220703125,0.1220703125,0.446044921875,-0.8001708984375,0.397216796875,-296.0,151.0,-149.0,101700.0,-3.123000144958496,0,0
0.45889169999281876,0.371429443359375,-0.451507568359375,0.311187744140625,-0.74920654296875,0.30517578125,0.0,0.18310546875,0.44677734375,-0.8016357421875,0.39697265625,-296.0,151.0,-149.0,101700.0,-3.123000144958496,0,0
0.5268999999971129,0.371429443359375,-0.451507568359375,0.311187744140625,-0.74920654296875,0.0,-0.06103515625,0.0,0.4447021484375,-0.8013916015625,0.3968505859375,-296.0,151.0,-149.0,101700.0,-3.123000144958496,0,0
0.526981099988916,0.371429443359375,-0.451507568359375,0.311187744140625,-0.74920654296875,-0.1220703125,-0.18310546875,0.06103515625,0.4459228515625,-0.8013916015625,0.398193359375,-296.0,151.0,-149.0,101700.0,-3.123000144958496,0,0
0.5270416999992449,0.371429443359375,-0.451507568359375,0.311187744140625,-0.74920654296875,0.244140625,-0.244140625,0.0,0.4466552734375,-0.802734375,0.399169921875,-296.0,151.0,-149.0,101700.0,-3.123000144958496,0,0
0.5270966999960365,0.371429443359375,-0.451507568359375,0.311187744140625,-0.749176025390625,0.91552734375,0.18310546875,0.0,0.4444580078125,-0.8013916015625,0.39794921875,-296.0,151.0,-149.0,101700.0,-3.123000144958496,0,0
0.5271503999974811,0.371429443359375,-0.451507568359375,0.311187744140625,-0.749176025390625,0.91552734375,0.18310546875,0.0,0.4444580078125,-0.8013916015625,0.39794921875,-296.0,151.0,-149.0,101700.0,-3.123000144958496,0,0
0.5273959999904037,0.371429443359375,-0.451507568359375,0.311187744140625,-0.74920654296875,0.18310546875,0.0,-0.06103515625,0.4434814453125,-0.8013916015625,0.3984375,-296.0,152.0,-150.0,101700.0,-3.123000144958496,0,0
0.5275255000015022,0.371429443359375,-0.451507568359375,0.311187744140625,-0.74920654296875,0.18310546875,-0.06103515625,-0.3662109375,0.44580078125,-0.799072265625,0.39990234375,-296.0,152.0,-150.0,101700.0,-3.123000144958496,0,0
0.5275869999895804,0.371429443359375,-0.451507568359375,0.311187744140625,-0.74920654296875,0.06103515625,0.0,0.18310546875,0.4429931640625,-0.8016357421875,0.398193359375,-296.0,152.0,-150.0,101700.0,-3.123000144958496,0,0
0.5276415999978781,0.371429443359375,-0.451507568359375,0.311187744140625,-0.74920654296875,0.18310546875,0.1220703125,-0.06103515625,0.4454345703125,-0.8021240234375,0.3975830078125,-296.0,152.0,-150.0,101700.0,-3.123000144958496,0,0
0.5292208999890136,0.371429443359375,-0.451507568359375,0.311187744140625,-0.74920654296875,0.1220703125,-0.18310546875,-0.18310546875,0.445556640625,-0.8016357421875,0.3984375,-296.0,152.0,-150.0,101700.0,-3.123000144958496,0,0
0.5293327999970643,0.371429443359375,-0.451507568359375,0.311187744140625,-0.74920654296875,0.244140625,-0.18310546875,0.1220703125,0.4447021484375,-0.80078125,0.3975830078125,-296.0,152.0,-150.0,101700.0,-3.123000144958496,0,0
0.6131485999940196,0.371429443359375,-0.451507568359375,0.311187744140625,-0.749176025390625,-0.06103515625,0.0,0.1220703125,0.443359375,-0.8006591796875,0.39599609375,-296.0,152.0,-150.0,101700.0,-3.123000144958496,0,0
0.613215899997158,0.371429443359375,-0.451507568359375,0.311187744140625,-0.749176025390625,-0.06103515625,0.06103515625,-0.06103515625,0.445556640625,-0.801025390625,0.39892578125,-296.0,152.0,-150.0,101700.0,-3.123000144958496,0,0
0.6132733999984339,0.371429443359375,-0.451507568359375,0.311187744140625,-0.749176025390625,-0.06103515625,0.06103515625,-0.06103515625,0.445556640625,-0.801025390625,0.39892578125,-296.0,152.0,-150.0,101700.0,-3.123000144958496,0,0
0.6133287999982713,0.371429443359375,-0.451507568359375,0.311187744140625,-0.749176025390625,-0.244140625,-0.1220703125,0.18310546875,0.44482421875,-0.80078125,0.39697265625,-296.0,152.0,-150.0,101700.0,-3.123000144958496,0,0
0.6133842999988701,0.371429443359375,-0.451507568359375,0.311187744140625,-0.749176025390625,-0.18310546875,0.0,0.1220703125,0.4439697265625,-0.80126953125,0.398681640625,-296.0,152.0,-150.0,101700.0,-3.123000144958496,0,0
0.6134374999965075,0.371429443359375,-0.451507568359375,0.31121826171875,-0.749176025390625,0.0,0.18310546875,0.06103515625,0.4447021484375,-0.803466796875,0.397216796875,-296.0,152.0,-150.0,101700.0,-3.123000144958496,0,0
0.6134899000026053,0.371429443359375,-0.451507568359375,0.31121826171875,-0.749176025390625,0.06103515625,0.0,0.06103515625,0.443359375,-0.8037109375,0.396728515625,-296.0,152.0,-150.0,101700.0,-3.123000144958496,0,0
0.6219739999942249,0.371429443359375,-0.4515380859375,0.31121826171875,-0.749176025390625,0.30517578125,-0.18310546875,-0.1220703125,0.4461669921875,-0.8004150390625,0.3973388671875,-296.0,152.0,-150.0,101700.0,-3.123000144958496,0,0
0.6220392999966862,0.371429443359375,-0.4515380859375,0.31121826171875,-0.749176025390625,0.1220703125,0.0,0.0,0.4444580078125,-0.801513671875,0.396240234375,-296.0,152.0,-150.0,101700.0,-3.123000144958496,0,0
0.6220954000018537,0.371429443359375,-0.4515380859375,0.31121826171875,-0.749176025390625,0.06103515625,-0.06103515625,-0.1220703125,0.4468994140625,-0.802734375,0.39697265625,-296.0,152.0,-150.0,101700.0,-3.123000144958496,0,0
0.6221525000000838,0.371429443359375,-0.4515380859375,0.31121826171875,-0.749176025390625,-0.18310546875,0.0,-0.18310546875,0.4453125,-0.8009033203125,0.39892578125,-296.0,152.0,-150.0,101700.0,-3.123000144958496,0,0
0.6222083999891765,0.371429443359375,-0.4515380859375,0.31121826171875,-0.749176025390625,0.0,-0.06103515625,0.0,0.44384765625,-0.8021240234375,0.3975830078125,-296.0,152.0,-150.0,101700.0,-3.123000144958496,0,0
0.6222623999929056,0.371429443359375,-0.4515380859375,0.31121826171875,-0.749176025390625,0.0,-0.06103515625,0.0,0.44384765625,-0.8021240234375,0.3975830078125,-296.0,152.0,-150.0,101700.0,-3.123000144958496,0,0
0.6569524999940768,0.371429443359375,-0.4515380859375,0.31121826171875,-0.7491455078125,0.1220703125,-0.06103515625,-0.30517578125,0.4454345703125,-0.802734375,0.396728515625,-296.0,153.0,-151.0,101700.0,-3.124000072479248,0,0
0.6570734999986598,0.371429443359375,-0.4515380859375,0.31121826171875,-0.7491455078125,0.1220703125,-0.1220703125,-0.06103515625,0.446533203125,-0.80322265625,0.3984375,-296.0,153.0,-151.0,101700.0,-3.124000072479248,0,0
0.6571344999974826,0.371429443359375,-0.4515380859375,0.311248779296875,-0.7491455078125,0.1220703125,0.06103515625,-0.18310546875,0.445556640625,-0.8021240234375,0.397216796875,-296.0,153.0,-151.0,101700.0,-3.124000072479248,0,0
0.65719209999952,0.371429443359375,-0.4515380859375,0.311248779296875,-0.7491455078125,-0.18310546875,-0.1220703125,-0.30517578125,0.44287109375,-0.802978515625,0.396728515625,-296.0,153.0,-151.0,101700.0,-3.124000072479248,0,0
0.6572499999892898,0.371429443359375,-0.4515380859375,0.311248779296875,-0.7491455078125,0.0,-0.06103515625,-0.18310546875,0.4456787109375,-0.8013916015625,0.395751953125,-296.0,153.0,-151.0,101700.0,-3.124000072479248,0,0
0.6578106999950251,0.37139892578125,-0.451568603515625,0.311248779296875,-0.7491455078125,-0.06103515625,-0.06103515625,0.06103515625,0.4466552734375,-0.8023681640625,0.3966064453125,-296.0,153.0,-151.0,101700.0,-3.124000072479248,0,0
0.657870199996978,0.37139892578125,-0.451568603515625,0.311248779296875,-0.7491455078125,-0.06103515625,-0.06103515625,0.06103515625,0.4466552734375,-0.8023681640625,0.3966064453125,-296.0,153.0,-151.0,101700.0,-3.124000072479248,0,0
0.6579269999929238,0.37139892578125,-0.451568603515625,0.311248779296875,-0.7491455078125,0.30517578125,-0.1220703125,0.0,0.4482421875,-0.8017578125,0.39892578125,-296.0,153.0,-151.0,101700.0,-3.124000072479248,0,0
0.6579840999911539,0.37139892578125,-0.451568603515625,0.311248779296875,-0.7491455078125,-0.06103515625,0.0,-0.1220703125,0.4462890625,-0.80126953125,0.3975830078125,-296.0,153.0,-151.0,101700.0,-3.124000072479248,0,0
0.6580412999901455,0.37139892578125,-0.451568603515625,0.311248779296875,-0.7491455078125,0.244140625,-0.18310546875,-0.18310546875,0.4432373046875,-0.802734375,0.3956298828125,-296.0,153.0,-151.0,101700.0,-3.124000072479248,0,0
0.6580960999999661,0.37139892578125,-0.451568603515625,0.311248779296875,-0.7491455078125,0.0,-0.244140625,-0.06103515625,0.44482421875,-0.802001953125,0.396240234375,-296.0,153.0,-151.0,101700.0,-3.124000072479248,0,0
0.7085437999921851,0.37139892578125,-0.451568603515625,0.311248779296875,-0.749114990234375,0.06103515625,-0.244140625,0.0,0.4454345703125,-0.802490234375,0.396240234375,-296.0,153.0,-151.0,101700.0,-3.124000072479248,0,0
0.7086097999999765,0.37139892578125,-0.451568603515625,0.311248779296875,-0.749114990234375,0.244140625,-0.1220703125,0.0,0.4464111328125,-0.8028564453125,0.3970947265625,-296.0,153.0,-151.0,101700.0,-3.124000072479248,0,0
0.7086722999956692,0.37139892578125,-0.451568603515625,0.311248779296875,-0.749114990234375,0.06103515625,-0.18310546875,0.06103515625,0.4449462890625,-0.8013916015625,0.398681640625,-296.0,153.0,-151.0,101700.0,-3.124000072479248,0,0
0.7087296999961836,0.37139892578125,-0.451568603515625,0.311248779296875,-0.749114990234375,0.06103515625,-0.18310546875,0.06103515625,0.4449462890625,-0.8013916015625,0.398681640625,-296.0,153.0,-151.0,101700.0,-3.124000072479248,0,0
0.7087873999989824,0.37139892578125,-0.45159912109375,0.311279296875,-0.749114990234375,0.30517578125,-0.1220703125,0.06103515625,0.4444580078125,-0.8017578125,0.395751953125,-296.0,153.0,-151.0,101700.0,-3.124000072479248,0,0
0.7106426999962423,0.37139892578125,-0.45159912109375,0.311279296875,-0.749114990234375,0.30517578125,-0.1220703125,0.06103515625,0.4444580078125,-0.8017578125,0.395751953125,-296.0,154.0,-151.0,101700.0,-3.122000217437744,0,0
0.710710300001665,0.37139892578125,-0.45159912109375,0.311279296875,-0.749114990234375,0.06103515625,-0.06103515625,-0.244140625,0.444580078125,-0.8006591796875,0.3975830078125,-296.0,154.0,-151.0,101700.0,-3.122000217437744,0,0
0.7107678999891505,0.37139892578125,-0.45159912109375,0.311248779296875,-0.749114990234375,0.42724609375,-0.42724609375,0.0,0.445556640625,-0.80078125,0.3975830078125,-296.0,154.0,-151.0,101700.0,-3.122000217437744,0,0
0.7108297999948263,0.37139892578125,-0.45159912109375,0.311279296875,-0.749114990234375,-0.06103515625,-0.18310546875,-0.42724609375,0.4468994140625,-0.8016357421875,0.3988037109375,-296.0,154.0,-151.0,101700.0,-3.122000217437744,0,0
0.7108873999968637,0.37139892578125,-0.45159912109375,0.311279296875,-0.749114990234375,-0.06103515625,0.18310546875,0.0,0.4462890625,-0.80126953125,0.396484375,-296.0,154.0,-151.0,101700.0,-3.122000217437744,0,0
0.7109445999958552,0.37139892578125,-0.45159912109375,0.311279296875,-0.749114990234375,-0.1220703125,-0.244140625,-0.06103515625,0.44677734375,-0.8018798828125,0.398193359375,-296.0,154.0,-151.0,101700.0,-3.122000217437744,0,0
0.7111902999895392,0.37139892578125,-0.45159912109375,0.311279296875,-0.749114990234375,0.06103515625,0.06103515625,-0.1220703125,0.4454345703125,-0.801025390625,0.3973388671875,-296.0,154.0,-151.0,101700.0,-3.122000217437744,0,0
0.7863756000006106,0.37139892578125,-0.45159912109375,0.311279296875,-0.749114990234375,0.06103515625,0.06103515625,-0.1220703125,0.4454345703125,-0.801025390625,0.3973388671875,-296.0,154.0,-151.0,101700.0,-3.122000217437744,0,0
0.786439599993173,0.37139892578125,-0.451629638671875,0.311279296875,-0.749114990234375,-0.06103515625,-0.244140625,0.1220703125,0.4439697265625,-0.8018798828125,0.3958740234375,-296.0,154.0,-151.0,101700.0,-3.122000217437744,0,0
0.786497099994449,0.37139892578125,-0.451629638671875,0.311279296875,-0.749114990234375,0.0,-0.06103515625,0.0,0.4468994140625,-0.8018798828125,0.396728515625,-296.0,154.0,-151.0,101700.0,-3.122000217437744,0,0
0.7865515000012238,0.37139892578125,-0.451629638671875,0.311279296875,-0.749114990234375,0.0,0.0,-0.06103515625,0.4454345703125,-0.801025390625,0.397216796875,-296.0,154.0,-151.0,101700.0,-3.122000217437744,0,0
0.786607100002584,0.371368408203125,-0.451629638671875,0.311279296875,-0.749114990234375,0.18310546875,0.06103515625,0.06103515625,0.4451904296875,-0.801513671875,0.3974609375,-296.0,154.0,-151.0,101700.0,-3.122000217437744,0,0
0.7866594999941299,0.371368408203125,-0.451629638671875,0.311279296875,-0.749114990234375,0.18310546875,0.0,-0.18310546875,0.4473876953125,-0.8037109375,0.396728515625,-296.0,154.0,-151.0,101700.0,-3.122000217437744,0,0
0.78680849999364,0.371368408203125,-0.451629638671875,0.311279296875,-0.749114990234375,0.18310546875,0.06103515625,-0.1220703125,0.4468994140625,-0.8023681640625,0.3980712890625,-296.0,154.0,-151.0,101700.0,-3.122000217437744,0,0
0.786860299995169,0.371368408203125,-0.451629638671875,0.311279296875,-0.749114990234375,-0.244140625,0.06103515625,-0.1220703125,0.4449462890625,-0.80078125,0.3966064453125,-296.0,154.0,-151.0,101700.0,-3.122000217437744,0,0
0.7869120999966981,0.371368408203125,-0.451629638671875,0.311279296875,-0.74908447265625,0.1220703125,-0.18310546875,-0.06103515625,0.4444580078125,-0.8023681640625,0.3975830078125,-296.0,154.0,-151.0,101700.0,-3.122000217437744,0,0
0.7869637999974657,0.371368408203125,-0.451629638671875,0.311279296875,-0.74908447265625,0.0,-0.1220703125,-0.06103515625,0.4439697265625,-0.80322265625,0.3980712890625,-296.0,154.0,-151.0,101700.0,-3.122000217437744,0,0
0.7870150999951875,0.371368408203125,-0.451629638671875,0.311279296875,-0.74908447265625,0.0,-0.1220703125,-0.06103515625,0.4439697265625,-0.80322265625,0.3980712890625,-296.0,154.0,-151.0,101700.0,-3.122000217437744,0,0
0.7870715000026394,0.371368408203125,-0.45166015625,0.311279296875,-0.74908447265625,0.0,0.0,-0.06103515625,0.4462890625,-0.80126953125,0.3951416015625,-296.0,154.0,-151.0,101700.0,-3.122000217437744,0,0
0.8401747999887448,0.371368408203125,-0.45166015625,0.311309814453125,-0.74908447265625,-0.18310546875,0.0,-0.244140625,0.4447021484375,-0.80078125,0.397216796875,-295.0,154.0,-150.0,101700.0,-3.124000072479248,0,0
0.8402371999982279,0.37158203125,-0.451751708984375,0.311187744140625,-0.74896240234375,-0.54931640625,0.06103515625,-0.06103515625,0.444580078125,-0.8035888671875,0.3953857421875,-295.0,154.0,-150.0,101700.0,-3.124000072479248,0,0
0.8402940999949351,0.37158203125,-0.451751708984375,0.311187744140625,-0.74896240234375,0.18310546875,0.30517578125,-0.18310546875,0.445068359375,-0.8009033203125,0.3956298828125,-295.0,154.0,-150.0,101700.0,-3.124000072479248,0,0
0.8403466000017943,0.37158203125,-0.451751708984375,0.311187744140625,-0.74896240234375,-0.06103515625,-0.1220703125,-0.1220703125,0.444580078125,-0.8011474609375,0.39599609375,-295.0,154.0,-150.0,101700.0,-3.124000072479248,0,0
0.840396999992663,0.371551513671875,-0.451751708984375,0.311187744140625,-0.74896240234375,-0.1220703125,-0.30517578125,-0.06103515625,0.446044921875,-0.80029296875,0.3956298828125,-295.0,154.0,-150.0,101700.0,-3.124000072479248,0,0
0.8424904999992577,0.371551513671875,-0.451751708984375,0.311187744140625,-0.74896240234375,-0.1220703125,-0.30517578125,-0.06103515625,0.446044921875,-0.80029296875,0.3956298828125,-295.0,154.0,-150.0,101700.0,-3.124000072479248,0,0
0.8425497999996878,0.371551513671875,-0.4517822265625,0.311187744140625,-0.74896240234375,-0.06103515625,0.0,0.1220703125,0.444580078125,-0.8011474609375,0.395751953125,-295.0,154.0,-150.0,101700.0,-3.124000072479248,0,0
0.8426019999897107,0.371551513671875,-0.4517822265625,0.311187744140625,-0.74896240234375,-0.30517578125,-0.06103515625,0.06103515625,0.4459228515625,-0.7994384765625,0.396484375,-295.0,154.0,-150.0,101700.0,-3.124000072479248,0,0
0.8426562999957241,0.371551513671875,-0.4517822265625,0.31121826171875,-0.74896240234375,-0.18310546875,-0.30517578125,-0.30517578125,0.4432373046875,-0.8037109375,0.3956298828125,-295.0,154.0,-150.0,101700.0,-3.124000072479248,0,0
0.8427057999942917,0.371551513671875,-0.4517822265625,0.31121826171875,-0.748931884765625,0.1220703125,0.244140625,0.1220703125,0.4451904296875,-0.8023681640625,0.39404296875,-295.0,154.0,-150.0,101700.0,-3.124000072479248,0,0
0.8427594999957364,0.371551513671875,-0.4517822265625,0.31121826171875,-0.748931884765625,0.1220703125,-0.06103515625,-0.18310546875,0.444580078125,-0.8009033203125,0.3968505859375,-295.0,154.0,-150.0,101700.0,-3.124000072479248,0,0
0.9026103999931365,0.371551513671875,-0.451812744140625,0.31121826171875,-0.748931884765625,0.18310546875,0.0,0.06103515625,0.44482421875,-0.801025390625,0.3951416015625,-295.0,154.0,-150.0,101700.0,-3.124000072479248,0,0
0.9026750999910291,0.371551513671875,-0.451812744140625,0.31121826171875,-0.748931884765625,0.0,-0.06103515625,0.06103515625,0.4462890625,-0.8043212890625,0.396484375,-295.0,154.0,-150.0,101700.0,-3.124000072479248,0,0
0.9027327999938279,0.371551513671875,-0.451812744140625,0.31121826171875,-0.748931884765625,0.0,-0.06103515625,0.06103515625,0.4462890625,-0.8043212890625,0.396484375,-295.0,154.0,-150.0,101700.0,-3.124000072479248,0,0
0.9027888999989955,0.371551513671875,-0.451812744140625,0.311248779296875,-0.748931884765625,0.06103515625,-0.18310546875,-0.3662109375,0.4466552734375,-0.8011474609375,0.39501953125,-295.0,154.0,-150.0,101700.0,-3.124000072479248,0,0
0.902842999988934,0.371551513671875,-0.45184326171875,0.311248779296875,-0.7489013671875,0.30517578125,0.06103515625,-0.1220703125,0.445068359375,-0.8028564453125,0.3951416015625,-295.0,154.0,-150.0,101700.0,-3.124000072479248,0,0
0.9029098999890266,0.371551513671875,-0.45184326171875,0.311248779296875,-0.7489013671875,0.06103515625,-0.06103515625,-0.3662109375,0.442626953125,-0.7998046875,0.3953857421875,-295.0,154.0,-150.0,101700.0,-3.124000072479248,0,0
0.9029627999989316,0.371551513671875,-0.45184326171875,0.311248779296875,-0.7489013671875,0.3662109375,-0.06103515625,-0.18310546875,0.4461669921875,-0.8017578125,0.396484375,-295.0,154.0,-150.0,101700.0,-3.124000072479248,0,0
0.9030155999935232,0.371551513671875,-0.45184326171875,0.311248779296875,-0.7489013671875,0.3662109375,-0.06103515625,-0.18310546875,0.4461669921875,-0.8017578125,0.396484375,-296.0,153.0,-150.0,101700.0,-3.120000123977661,0,0
0.903067999999621,0.371551513671875,-0.45184326171875,0.311248779296875,-0.7489013671875,0.06103515625,-0.18310546875,0.244140625,0.4459228515625,-0.8031005859375,0.3956298828125,-296.0,153.0,-150.0,101700.0,-3.120000123977661,0,0
0.9031195999996271,0.371551513671875,-0.45184326171875,0.311248779296875,-0.7489013671875,0.0,-0.42724609375,0.0,0.4453125,-0.805419921875,0.3963623046875,-296.0,153.0,-150.0,101700.0,-3.120000123977661,0,0
0.9031716999888886,0.37152099609375,-0.451873779296875,0.311279296875,-0.7489013671875,0.244140625,0.06103515625,0.06103515625,0.4456787109375,-0.801025390625,0.395263671875,-296.0,153.0,-150.0,101700.0,-3.120000123977661,0,0
0.903226900001755,0.37152099609375,-0.451873779296875,0.311279296875,-0.7489013671875,0.244140625,0.06103515625,0.06103515625,0.4456787109375,-0.801025390625,0.395263671875,-296.0,153.0,-150.0,101700.0,-3.120000123977661,0,0
0.9684144999919226,0.37152099609375,-0.451873779296875,0.311279296875,-0.748870849609375,-0.1220703125,-0.1220703125,0.1220703125,0.44482421875,-0.8018798828125,0.3946533203125,-296.0,153.0,-150.0,101700.0,-3.120000123977661,0,0
0.9684772999898996,0.37152099609375,-0.451873779296875,0.311279296875,-0.748870849609375,0.244140625,0.06103515625,0.1220703125,0.4434814453125,-0.8018798828125,0.3956298828125,-296.0,153.0,-150.0,101700.0,-3.120000123977661,0,0
0.9699835999927018,0.37152099609375,-0.451873779296875,0.311309814453125,-0.748870849609375,0.18310546875,0.0,0.244140625,0.446044921875,-0.8021240234375,0.3961181640625,-296.0,153.0,-150.0,101700.0,-3.120000123977661,0,0
0.9700428999931319,0.37152099609375,-0.451873779296875,0.311309814453125,-0.748870849609375,-0.1220703125,0.1220703125,0.06103515625,0.4454345703125,-0.8037109375,0.3966064453125,-296.0,153.0,-150.0,101700.0,-3.120000123977661,0,0
0.970111899994663,0.37152099609375,-0.451873779296875,0.311309814453125,-0.748870849609375,0.30517578125,0.06103515625,0.06103515625,0.44384765625,-0.8018798828125,0.394287109375,-296.0,153.0,-150.0,101700.0,-3.120000123977661,0,0
0.9702742999943439,0.37152099609375,-0.451873779296875,0.311309814453125,-0.748870849609375,0.30517578125,0.06103515625,0.06103515625,0.44384765625,-0.8018798828125,0.394287109375,-296.0,153.0,-150.0,101700.0,-3.120000123977661,0,0
0.9703336999955354,0.37152099609375,-0.451904296875,0.311309814453125,-0.74884033203125,-0.1220703125,-0.06103515625,-0.1220703125,0.444580078125,-0.8017578125,0.3956298828125,-296.0,153.0,-150.0,101700.0,-3.120000123977661,0,0
0.9704040999931749,0.37152099609375,-0.451904296875,0.311309814453125,-0.74884033203125,0.244140625,0.0,-0.18310546875,0.4447021484375,-0.802001953125,0.395751953125,-296.0,153.0,-150.0,101700.0,-3.120000123977661,0,0
1.0403977999958443,0.37152099609375,-0.451904296875,0.31134033203125,-0.74884033203125,0.244140625,-0.18310546875,-0.06103515625,0.4462890625,-0.8021240234375,0.3983154296875,-296.0,153.0,-150.0,101700.0,-3.120000123977661,0,0
1.0404872999934014,0.37152099609375,-0.451904296875,0.31134033203125,-0.74884033203125,-0.244140625,-0.1220703125,0.0,0.4453125,-0.80322265625,0.3951416015625,-297.0,152.0,-150.0,101700.0,-3.123000144958496,0,0
1.0405465999938315,0.37152099609375,-0.451934814453125,0.31134033203125,-0.74884033203125,0.06103515625,-0.06103515625,-0.06103515625,0.4459228515625,-0.800537109375,0.3961181640625,-297.0,152.0,-150.0,101700.0,-3.123000144958496,0,0
1.0406371999997646,0.37152099609375,-0.451934814453125,0.311309814453125,-0.74884033203125,-0.1220703125,-0.06103515625,0.1220703125,0.4471435546875,-0.799560546875,0.3968505859375,-297.0,152.0,-150.0,101700.0,-3.123000144958496,0,0
1.0407189999968978,0.37152099609375,-0.451934814453125,0.311309814453125,-0.74884033203125,-0.1220703125,-0.06103515625,0.1220703125,0.4471435546875,-0.799560546875,0.3968505859375,-297.0,152.0,-150.0,101700.0,-3.123000144958496,0,0
1.0409241000015754,0.37152099609375,-0.451934814453125,0.311309814453125,-0.74884033203125,0.244140625,-0.1220703125,0.1220703125,0.4451904296875,-0.801513671875,0.39599609375,-297.0,152.0,-150.0,101700.0,-3.123000144958496,0,0
1.0409809999982826,0.37152099609375,-0.451934814453125,0.311309814453125,-0.74884033203125,-0.30517578125,-0.06103515625,-0.244140625,0.445556640625,-0.802734375,0.3961181640625,-297.0,152.0,-150.0,101700.0,-3.123000144958496,0,0
1.0410351999889826,0.37152099609375,-0.451934814453125,0.31134033203125,-0.74884033203125,0.06103515625,0.0,-0.06103515625,0.4459228515625,-0.8017578125,0.39453125,-297.0,152.0,-150.0,101700.0,-3.123000144958496,0,0
1.0410888999904273,0.37152099609375,-0.451934814453125,0.31134033203125,-0.74884033203125,0.1220703125,0.06103515625,-0.06103515625,0.447021484375,-0.801513671875,0.3958740234375,-297.0,152.0,-150.0,101700.0,-3.123000144958496,0,0
1.0411418000003323,0.371490478515625,-0.45196533203125,0.31134033203125,-0.748809814453125,0.0,0.0,-0.06103515625,0.447998046875,-0.80029296875,0.3935546875,-297.0,152.0,-150.0,101700.0,-3.123000144958496,0,0
1.0411954000010155,0.371490478515625,-0.45196533203125,0.31134033203125,-0.748809814453125,0.244140625,-0.06103515625,-0.18310546875,0.446044921875,-0.8013916015625,0.3958740234375,-297.0,152.0,-150.0,101700.0,-3.123000144958496,0,0
1.0412495999917155,0.371490478515625,-0.45196533203125,0.31134033203125,-0.748809814453125,-0.1220703125,0.1220703125,-0.1220703125,0.4459228515625,-0.802001953125,0.3970947265625,-297.0,152.0,-150.0,101700.0,-3.123000144958496,0,0
1.0931538000004366,0.371490478515625,-0.45196533203125,0.31134033203125,-0.748809814453125,0.06103515625,-0.18310546875,0.06103515625,0.4451904296875,-0.80126953125,0.396484375,-297.0,152.0,-150.0,101700.0,-3.123000144958496,0,0
1.093215599990799,0.371490478515625,-0.45196533203125,0.31134033203125,-0.748809814453125,0.06103515625,0.0,-0.1220703125,0.444580078125,-0.8011474609375,0.3968505859375,-297.0,152.0,-150.0,101700.0,-3.123000144958496,0,0
1.0932691999914823,0.371490478515625,-0.45196533203125,0.31134033203125,-0.748809814453125,0.3662109375,-0.06103515625,-0.1220703125,0.4447021484375,-0.7996826171875,0.39697265625,-297.0,152.0,-150.0,101700.0,-3.123000144958496,0,0
1.0933216999983415,0.371490478515625,-0.45196533203125,0.31134033203125,-0.748809814453125,0.06103515625,-0.06103515625,-0.06103515625,0.443359375,-0.8013916015625,0.3963623046875,-297.0,152.0,-150.0,101700.0,-3.123000144958496,0,0
1.093387699991581,0.371490478515625,-0.45196533203125,0.31134033203125,-0.748809814453125,0.06103515625,-0.06103515625,-0.06103515625,0.4434814453125,-0.8018798828125,0.39794921875,-297.0,152.0,-150.0,101700.0,-3.123000144958496,0,0
1.0934415999945486,0.371490478515625,-0.45196533203125,0.31134033203125,-0.748809814453125,-0.244140625,0.0,-0.1220703125,0.444091796875,-0.803466796875,0.396240234375,-297.0,152.0,-150.0,101700.0,-3.123000144958496,0,0
1.0934961000020849,0.371490478515625,-0.45196533203125,0.31134033203125,-0.748809814453125,0.0,0.0,-0.1220703125,0.4456787109375,-0.8011474609375,0.39599609375,-297.0,152.0,-150.0,101700.0,-3.123000144958496,0,0
1.0935476000013296,0.371490478515625,-0.451995849609375,0.31134033203125,-0.748809814453125,0.1220703125,0.1220703125,0.0,0.446044921875,-0.8017578125,0.39599609375,-297.0,152.0,-150.0,101700.0,-3.123000144958496,0,0
1.093598599996767,0.371490478515625,-0.451995849609375,0.31134033203125,-0.748809814453125,0.1220703125,0.1220703125,0.0,0.446044921875,-0.8017578125,0.39599609375,-297.0,153.0,-151.0,101700.0,-3.121000051498413,0,0
1.0936502999975346,0.371490478515625,-0.451995849609375,0.31134033203125,-0.748809814453125,0.1220703125,0.1220703125,0.0,0.446044921875,-0.8017578125,0.39599609375,-297.0,153.0,-151.0,101700.0,-3.121000051498413,0,0
1.0937023000005865,0.37139892578125,-0.45196533203125,0.3114013671875,-0.74884033203125,0.244140625,-0.1220703125,0.1220703125,0.4459228515625,-0.800048828125,0.3944091796875,-297.0,153.0,-151.0,101700.0,-3.121000051498413,0,0
1.1729802999907406,0.37139892578125,-0.45196533203125,0.3114013671875,-0.74884033203125,-0.1220703125,-0.1220703125,0.06103515625,0.4443359375,-0.800048828125,0.395263671875,-297.0,153.0,-151.0,101700.0,-3.121000051498413,0,0
1.1730581000010716,0.37139892578125,-0.45196533203125,0.311431884765625,-0.74884033203125,0.0,-0.244140625,0.0,0.4442138671875,-0.802978515625,0.396728515625,-297.0,153.0,-151.0,101700.0,-3.121000051498413,0,0
1.1731251000019256,0.37139892578125,-0.45196533203125,0.311431884765625,-0.74884033203125,-0.1220703125,-0.1220703125,0.0,0.4443359375,-0.80126953125,0.3955078125,-297.0,153.0,-151.0,101700.0,-3.121000051498413,0,0
1.173183599996264,0.37139892578125,-0.45196533203125,0.311431884765625,-0.74884033203125,0.30517578125,0.18310546875,-0.18310546875,0.444580078125,-0.80078125,0.39501953125,-297.0,153.0,-151.0,101700.0,-3.121000051498413,0,0
1.1733273999998346,0.371368408203125,-0.45196533203125,0.3114013671875,-0.74884033203125,-0.06103515625,-0.30517578125,-0.06103515625,0.4471435546875,-0.7978515625,0.3953857421875,-297.0,153.0,-151.0,101700.0,-3.121000051498413,0,0
1.1734133999998448,0.371368408203125,-0.45196533203125,0.3114013671875,-0.74884033203125,0.0,0.0,-0.30517578125,0.446044921875,-0.800537109375,0.3961181640625,-297.0,153.0,-151.0,101700.0,-3.121000051498413,0,0
1.1736072999919998,0.371368408203125,-0.45196533203125,0.311431884765625,-0.74884033203125,0.18310546875,0.0,0.1220703125,0.4449462890625,-0.8011474609375,0.39599609375,-297.0,153.0,-151.0,101700.0,-3.121000051498413,0,0
1.1736698000022443,0.371368408203125,-0.45196533203125,0.311431884765625,-0.74884033203125,0.18310546875,0.0,0.1220703125,0.4449462890625,-0.8011474609375,0.39599609375,-297.0,153.0,-151.0,101700.0,-3.121000051498413,0,0
1.1737283999973442,0.371368408203125,-0.451995849609375,0.311431884765625,-0.74884033203125,0.1220703125,-0.06103515625,-0.1220703125,0.4454345703125,-0.8028564453125,0.3941650390625,-297.0,153.0,-151.0,101700.0,-3.121000051498413,0,0
1.1737887999915984,0.371368408203125,-0.451995849609375,0.311431884765625,-0.74884033203125,0.30517578125,-0.06103515625,-0.18310546875,0.44384765625,-0.8001708984375,0.3961181640625,-297.0,153.0,-151.0,101700.0,-3.121000051498413,0,0
1.1738467999966815,0.371368408203125,-0.451995849609375,0.311431884765625,-0.74884033203125,-0.244140625,-0.06103515625,0.0,0.4449462890625,-0.802734375,0.396484375,-297.0,153.0,-151.0,101700.0,-3.121000051498413,0,0
1.1739309999975376,0.371368408203125,-0.451995849609375,0.311431884765625,-0.74884033203125,0.244140625,0.18310546875,-0.06103515625,0.4456787109375,-0.801025390625,0.3973388671875,-297.0,153.0,-151.0,101700.0,-3.121000051498413,0,0
1.1739962999999989,0.371368408203125,-0.451995849609375,0.311431884765625,-0.74884033203125,-0.06103515625,0.0,-0.06103515625,0.44775390625,-0.8001708984375,0.394775390625,-297.0,153.0,-151.0,101700.0,-3.121000051498413,0,0
1.221010599998408,0.371368408203125,-0.451995849609375,0.311431884765625,-0.748809814453125,-0.244140625,0.0,-0.1220703125,0.443359375,-0.8018798828125,0.3968505859375,-297.0,153.0,-151.0,101700.0,-3.121000051498413,0,0
1.221087500001886,0.371368408203125,-0.451995849609375,0.31146240234375,-0.748809814453125,0.18310546875,-0.18310546875,-0.1220703125,0.4451904296875,-0.802001953125,0.3958740234375,-297.0,153.0,-151.0,101700.0,-3.121000051498413,0,0
1.2211512999929255,0.371368408203125,-0.451995849609375,0.31146240234375,-0.748809814453125,0.18310546875,-0.18310546875,-0.1220703125,0.4451904296875,-0.802001953125,0.3958740234375,-297.0,153.0,-151.0,101700.0,-3.121000051498413,0,0
1.2212105999933556,0.371368408203125,-0.451995849609375,0.31146240234375,-0.748809814453125,0.0,0.0,-0.18310546875,0.4453125,-0.8028564453125,0.3966064453125,-297.0,154.0,-151.0,101700.0,-3.121000051498413,0,0
1.2217144999885932,0.371368408203125,-0.451995849609375,0.31146240234375,-0.748809814453125,0.244140625,0.1220703125,-0.1220703125,0.44482421875,-0.8021240234375,0.394775390625,-297.0,154.0,-151.0,101700.0,-3.121000051498413,0,0
1.22178609999537,0.371368408203125,-0.451995849609375,0.31146240234375,-0.748809814453125,0.0,-0.06103515625,-0.18310546875,0.4437255859375,-0.802978515625,0.395263671875,-297.0,154.0,-151.0,101700.0,-3.121000051498413,0,0
1.2218600999913178,0.371368408203125,-0.4520263671875,0.31146240234375,-0.748809814453125,0.06103515625,0.06103515625,-0.06103515625,0.4456787109375,-0.8004150390625,0.3955078125,-297.0,154.0,-151.0,101700.0,-3.121000051498413,0,0
1.221919199990225,0.371368408203125,-0.4520263671875,0.31146240234375,-0.748809814453125,0.0,-0.1220703125,0.0,0.4471435546875,-0.80322265625,0.3948974609375,-297.0,154.0,-151.0,101700.0,-3.121000051498413,0,0
1.2219782999891322,0.371368408203125,-0.4520263671875,0.31146240234375,-0.748809814453125,-0.06103515625,0.06103515625,-0.18310546875,0.4453125,-0.8013916015625,0.39599609375,-297.0,154.0,-151.0,101700.0,-3.121000051498413,0,0
1.2220354000019142,0.371368408203125,-0.4520263671875,0.31146240234375,-0.748779296875,0.244140625,-0.1220703125,0.0,0.4462890625,-0.8016357421875,0.395751953125,-297.0,154.0,-151.0,101700.0,-3.121000051498413,0,0
1.2220953999931226,0.371368408203125,-0.4520263671875,0.31146240234375,-0.748779296875,0.18310546875,-0.244140625,-0.244140625,0.4453125,-0.8033447265625,0.3956298828125,-297.0,154.0,-151.0,101700.0,-3.121000051498413,0,0
1.2930288999923505,0.371337890625,-0.452056884765625,0.31146240234375,-0.748779296875,-0.30517578125,-0.30517578125,-0.18310546875,0.447021484375,-0.8016357421875,0.3956298828125,-297.0,154.0,-151.0,101700.0,-3.121000051498413,0,0
1.2930984999984503,0.371337890625,-0.452056884765625,0.31146240234375,-0.748779296875,-0.06103515625,-0.244140625,0.0,0.447265625,-0.8017578125,0.3970947265625,-297.0,154.0,-151.0,101700.0,-3.121000051498413,0,0
1.2931557999982033,0.371337890625,-0.452056884765625,0.31146240234375,-0.748779296875,0.0,-0.06103515625,0.06103515625,0.444580078125,-0.8004150390625,0.3978271484375,-297.0,154.0,-151.0,101700.0,-3.121000051498413,0,0
1.2932100999896647,0.371337890625,-0.452056884765625,0.31146240234375,-0.748779296875,-0.06103515625,0.0,-0.06103515625,0.4432373046875,-0.80224609375,0.396484375,-297.0,154.0,-151.0,101700.0,-3.121000051498413,0,0
1.293263499988825,0.371337890625,-0.452056884765625,0.31146240234375,-0.748779296875,0.1220703125,-0.06103515625,-0.1220703125,0.4437255859375,-0.801025390625,0.396728515625,-297.0,154.0,-151.0,101700.0,-3.121000051498413,0,0
1.2933766999922227,0.371337890625,-0.4520263671875,0.31146240234375,-0.748779296875,0.0,-0.06103515625,0.06103515625,0.44482421875,-0.8017578125,0.396728515625,-297.0,154.0,-151.0,101700.0,-3.121000051498413,0,0
1.293432499995106,0.371368408203125,-0.4520263671875,0.31146240234375,-0.748779296875,0.0,-0.3662109375,0.0,0.445068359375,-0.802001953125,0.3985595703125,-297.0,154.0,-151.0,101700.0,-3.121000051498413,0,0
1.2934843999973964,0.371368408203125,-0.4520263671875,0.31146240234375,-0.748779296875,0.06103515625,0.18310546875,0.06103515625,0.4447021484375,-0.7999267578125,0.3966064453125,-297.0,154.0,-151.0,101700.0,-3.121000051498413,0,0
1.2935375999950338,0.371368408203125,-0.4520263671875,0.31146240234375,-0.748779296875,0.06103515625,0.18310546875,0.06103515625,0.4447021484375,-0.7999267578125,0.3966064453125,-297.0,154.0,-151.0,101700.0,-3.121000051498413,0,0
1.2935910999949556,0.371368408203125,-0.4520263671875,0.31146240234375,-0.748779296875,-0.18310546875,0.0,0.0,0.4449462890625,-0.800537109375,0.398193359375,-297.0,154.0,-151.0,101700.0,-3.121000051498413,0,0
1.293642999997246,0.371337890625,-0.452056884765625,0.31146240234375,-0.748779296875,-0.18310546875,0.0,0.0,0.4449462890625,-0.800537109375,0.398193359375,-297.0,154.0,-152.0,101700.0,-3.121000051498413,0,0
1.355721200001426,0.371337890625,-0.4520263671875,0.31146240234375,-0.748779296875,0.244140625,0.0,-0.18310546875,0.44677734375,-0.7994384765625,0.3956298828125,-297.0,154.0,-152.0,101700.0,-3.121000051498413,0,0
1.3557880000007572,0.371337890625,-0.452056884765625,0.31146240234375,-0.748779296875,0.0,-0.18310546875,-0.18310546875,0.4451904296875,-0.8011474609375,0.396728515625,-297.0,154.0,-152.0,101700.0,-3.121000051498413,0,0
1.3558472000004258,0.371337890625,-0.452056884765625,0.31146240234375,-0.748779296875,0.1220703125,0.3662109375,-0.30517578125,0.4468994140625,-0.801025390625,0.395751953125,-297.0,154.0,-152.0,101700.0,-3.121000051498413,0,0
1.3559034999925643,0.371337890625,-0.452056884765625,0.31146240234375,-0.748779296875,0.18310546875,0.18310546875,0.1220703125,0.4449462890625,-0.8009033203125,0.3951416015625,-297.0,154.0,-152.0,101700.0,-3.121000051498413,0,0
1.3559589999931632,0.371337890625,-0.452056884765625,0.31146240234375,-0.748779296875,0.06103515625,0.0,-0.1220703125,0.445556640625,-0.8023681640625,0.3958740234375,-297.0,154.0,-152.0,101700.0,-3.121000051498413,0,0
1.356014699995285,0.371337890625,-0.452056884765625,0.31146240234375,-0.748779296875,0.06103515625,-0.1220703125,-0.06103515625,0.444091796875,-0.8016357421875,0.39599609375,-297.0,154.0,-152.0,101700.0,-3.121000051498413,0,0
1.356087199994363,0.371337890625,-0.452056884765625,0.31146240234375,-0.748779296875,0.06103515625,-0.1220703125,-0.06103515625,0.444091796875,-0.8016357421875,0.39599609375,-297.0,154.0,-152.0,101700.0,-3.121000051498413,0,0
1.3561399999889545,0.371337890625,-0.452056884765625,0.31146240234375,-0.748779296875,0.0,0.1220703125,-0.1220703125,0.4476318359375,-0.80029296875,0.39697265625,-297.0,154.0,-152.0,101700.0,-3.121000051498413,0,0
1.3561941999942064,0.371337890625,-0.452056884765625,0.31146240234375,-0.748779296875,-0.1220703125,-0.244140625,-0.1220703125,0.447509765625,-0.801513671875,0.3978271484375,-297.0,154.0,-152.0,101700.0,-3.121000051498413,0,0
1.3562488999887137,0.371337890625,-0.452056884765625,0.31146240234375,-0.748779296875,-0.1220703125,-0.244140625,-0.1220703125,0.447509765625,-0.801513671875,0.3978271484375,-297.0,154.0,-152.0,101700.0,-3.123000144958496,0,0
1.3563029999932041,0.371337890625,-0.452056884765625,0.31146240234375,-0.748779296875,0.0,0.06103515625,-0.06103515625,0.4456787109375,-0.80224609375,0.3956298828125,-297.0,154.0,-152.0,101700.0,-3.123000144958496,0,0
1.3563577000022633,0.371337890625,-0.452056884765625,0.31146240234375,-0.748779296875,0.1220703125,-0.18310546875,-0.244140625,0.44677734375,-0.801513671875,0.396728515625,-297.0,154.0,-152.0,101700.0,-3.123000144958496,0,0
1.3564114999899175,0.371337890625,-0.45208740234375,0.31146240234375,-0.748779296875,0.06103515625,-0.1220703125,-0.1220703125,0.44677734375,-0.8023681640625,0.396240234375,-297.0,154.0,-152.0,101700.0,-3.123000144958496,0,0
1.417138699995121,0.371337890625,-0.452056884765625,0.31146240234375,-0.748779296875,0.18310546875,-0.244140625,-0.18310546875,0.4437255859375,-0.8026123046875,0.3970947265625,-297.0,154.0,-152.0,101700.0,-3.123000144958496,0,0
1.4172035999945365,0.371337890625,-0.452056884765625,0.31146240234375,-0.748779296875,0.18310546875,-0.244140625,-0.18310546875,0.4437255859375,-0.8026123046875,0.3970947265625,-297.0,154.0,-152.0,101700.0,-3.123000144958496,0,0
1.4172639999887906,0.371337890625,-0.452056884765625,0.31146240234375,-0.748779296875,0.0,0.06103515625,-0.1220703125,0.4453125,-0.8028564453125,0.3983154296875,-297.0,154.0,-152.0,101700.0,-3.123000144958496,0,0
1.4173239999945508,0.371337890625,-0.452056884765625,0.31146240234375,-0.748779296875,-0.06103515625,0.0,0.06103515625,0.443115234375,-0.8016357421875,0.3961181640625,-297.0,154.0,-152.0,101700.0,-3.123000144958496,0,0
1.4173814999958267,0.371337890625,-0.452056884765625,0.31146240234375,-0.748779296875,0.1220703125,-0.42724609375,0.1220703125,0.447265625,-0.8021240234375,0.3975830078125,-297.0,154.0,-153.0,101700.0,-3.123000144958496,0,0
1.4201456000009784,0.371337890625,-0.452056884765625,0.31146240234375,-0.748779296875,-0.18310546875,-0.244140625,-0.18310546875,0.4473876953125,-0.8009033203125,0.3968505859375,-297.0,154.0,-153.0,101700.0,-3.123000144958496,0,0
1.4202153999940492,0.371337890625,-0.452056884765625,0.31146240234375,-0.748779296875,0.244140625,-0.06103515625,-0.244140625,0.446044921875,-0.8031005859375,0.3975830078125,-297.0,154.0,-153.0,101700.0,-3.123000144958496,0,0
1.420276599994395,0.371337890625,-0.452056884765625,0.31146240234375,-0.748779296875,0.1220703125,-0.18310546875,-0.06103515625,0.445556640625,-0.80224609375,0.3992919921875,-297.0,154.0,-153.0,101700.0,-3.123000144958496,0,0
1.4203367000009166,0.371337890625,-0.452056884765625,0.31146240234375,-0.748779296875,-0.1220703125,-0.18310546875,-0.06103515625,0.4461669921875,-0.8001708984375,0.3980712890625,-297.0,154.0,-153.0,101700.0,-3.123000144958496,0,0
1.4203935999976238,0.371337890625,-0.452056884765625,0.31146240234375,-0.748779296875,0.3662109375,0.1220703125,0.0,0.4443359375,-0.8016357421875,0.395751953125,-297.0,154.0,-153.0,101700.0,-3.123000144958496,0,0
1.4204510999988997,0.371337890625,-0.452056884765625,0.31146240234375,-0.748779296875,0.3662109375,0.1220703125,0.0,0.4443359375,-0.8016357421875,0.395751953125,-297.0,154.0,-153.0,101700.0,-3.123000144958496,0,0
