Time stamp(sec),quaternion_0,quaternion_1,quaternion_2,quaternion_3,roll_angular_rate,pitch_angular_rate,yaw_angular_rate,acc_X,acc_Y,acc_Z,mag_X,mag_Y,mag_Z,pressure,altitude
1881.744018,-0.810516357421875,0.030609130859375,0.046234130859375,0.58306884765625,-0.06103515625,0.42724609375,-0.1220703125,0.10888671875,0.0072021484375,0.9970703125,-305.0,88.0,-5.0,101942.0,-5.125000476837158,0,0
1881.750996,-0.810516357421875,0.030609130859375,0.046234130859375,0.58306884765625,0.1220703125,0.48828125,0.06103515625,0.109619140625,0.00390625,0.9954833984375,-305.0,88.0,-5.0,101942.0,-5.125000476837158,0,0
1881.757996,-0.810516357421875,0.030609130859375,0.046234130859375,0.58306884765625,-0.06103515625,0.30517578125,0.1220703125,0.108642578125,0.0042724609375,0.9991455078125,-305.0,88.0,-5.0,101942.0,-5.124000072479248,0,0
1881.765021,-0.810516357421875,0.030609130859375,0.046234130859375,0.58306884765625,0.06103515625,0.244140625,-0.1220703125,0.111083984375,0.0028076171875,0.99755859375,-305.0,87.0,-4.0,101942.0,-5.124000072479248,0,0
1881.772001,-0.809906005859375,0.030670166015625,0.04620361328125,0.583892822265625,0.06103515625,0.06103515625,0.06103515625,0.112060546875,0.0047607421875,0.9976806640625,-305.0,87.0,-4.0,101942.0,-5.124000072479248,0,0
1881.778032,-0.809906005859375,0.030670166015625,0.04620361328125,0.583892822265625,0.06103515625,0.06103515625,0.06103515625,0.112060546875,0.0047607421875,0.9976806640625,-305.0,87.0,-4.0,101942.0,-5.124000072479248,0,0
1881.785016,-0.809906005859375,0.030670166015625,0.04620361328125,0.583892822265625,-0.1220703125,0.06103515625,-0.244140625,0.107421875,0.0052490234375,0.9959716796875,-305.0,87.0,-4.0,101942.0,-5.124000072479248,0,0
1881.792001,-0.809906005859375,0.030670166015625,0.04620361328125,0.583892822265625,-0.30517578125,0.48828125,0.06103515625,0.1112060546875,0.0064697265625,0.99658203125,-305.0,87.0,-4.0,101942.0,-5.124000072479248,0,0
1881.799018,-0.809906005859375,0.030670166015625,0.04620361328125,0.583892822265625,0.06103515625,0.1220703125,0.18310546875,0.1136474609375,0.0045166015625,0.9976806640625,-305.0,87.0,-4.0,101942.0,-5.124000072479248,0,0
1881.805999,-0.809906005859375,0.030670166015625,0.04620361328125,0.583892822265625,0.06103515625,0.18310546875,0.1220703125,0.1134033203125,0.0035400390625,0.997314453125,-305.0,87.0,-4.0,101942.0,-5.124000072479248,0,0
1881.812999,-0.809906005859375,0.030670166015625,0.04620361328125,0.583892822265625,-0.244140625,0.30517578125,-0.06103515625,0.112548828125,0.0032958984375,0.9974365234375,-305.0,87.0,-4.0,101942.0,-5.124000072479248,0,0
1881.834018,-0.809906005859375,0.03070068359375,0.04620361328125,0.583892822265625,0.0,0.3662109375,0.06103515625,0.1112060546875,0.003662109375,0.997802734375,-305.0,87.0,-4.0,101942.0,-5.124000072479248,0,0
1881.840996,-0.809906005859375,0.03070068359375,0.04620361328125,0.583892822265625,-0.1220703125,0.244140625,-0.18310546875,0.113525390625,0.0032958984375,0.996826171875,-305.0,87.0,-4.0,101942.0,-5.124000072479248,0,0
1881.847996,-0.809906005859375,0.03070068359375,0.04620361328125,0.583892822265625,-0.06103515625,0.3662109375,0.18310546875,0.1104736328125,0.003662109375,0.99658203125,-305.0,87.0,-4.0,101942.0,-5.124000072479248,0,0
1881.855021,-0.809906005859375,0.03070068359375,0.04620361328125,0.583892822265625,0.0,0.18310546875,-0.18310546875,0.110107421875,0.0025634765625,0.9949951171875,-305.0,87.0,-4.0,101942.0,-5.124000072479248,0,0
1881.862001,-0.809906005859375,0.03070068359375,0.04620361328125,0.583892822265625,0.1220703125,0.3662109375,-0.18310546875,0.1114501953125,0.0052490234375,0.9970703125,-305.0,85.0,-4.0,101942.0,-5.124000072479248,0,0
1881.868037,-0.809906005859375,0.03070068359375,0.04620361328125,0.583892822265625,0.1220703125,0.3662109375,-0.18310546875,0.1114501953125,0.0052490234375,0.9970703125,-305.0,85.0,-4.0,101942.0,-5.124000072479248,0,0
1881.875017,-0.80926513671875,0.030731201171875,0.046173095703125,0.58477783203125,0.18310546875,0.06103515625,-0.06103515625,0.1116943359375,0.00439453125,0.997314453125,-305.0,85.0,-4.0,101942.0,-5.124000072479248,0,0
1881.882001,-0.80926513671875,0.030731201171875,0.046173095703125,0.58477783203125,0.1220703125,0.18310546875,-0.1220703125,0.10986328125,0.0037841796875,0.998291015625,-305.0,85.0,-4.0,101942.0,-5.124000072479248,0,0
1881.889018,-0.80926513671875,0.030731201171875,0.046173095703125,0.58477783203125,0.1220703125,0.42724609375,0.0,0.111572265625,0.0037841796875,0.9981689453125,-305.0,85.0,-4.0,101942.0,-5.124000072479248,0,0
1881.895995,-0.80926513671875,0.030731201171875,0.046173095703125,0.58477783203125,0.18310546875,0.30517578125,0.0,0.1107177734375,0.00390625,0.9986572265625,-305.0,85.0,-4.0,101942.0,-5.124000072479248,0,0
1881.902994,-0.80926513671875,0.030731201171875,0.046173095703125,0.58477783203125,-0.1220703125,0.48828125,-0.244140625,0.111328125,0.00439453125,0.9969482421875,-305.0,85.0,-4.0,101942.0,-5.124000072479248,0,0
1881.910019,-0.80926513671875,0.030731201171875,0.046173095703125,0.58477783203125,0.0,0.1220703125,0.06103515625,0.11083984375,0.005126953125,0.9970703125,-305.0,85.0,-4.0,101942.0,-5.124000072479248,0,0
1881.916998,-0.80926513671875,0.030731201171875,0.046173095703125,0.58477783203125,0.06103515625,0.3662109375,0.06103515625,0.1103515625,0.0037841796875,0.9969482421875,-305.0,85.0,-4.0,101942.0,-5.124000072479248,0,0
1881.924018,-0.80926513671875,0.030731201171875,0.046173095703125,0.58477783203125,-0.06103515625,0.18310546875,-0.06103515625,0.1109619140625,0.00537109375,0.9984130859375,-305.0,85.0,-4.0,101942.0,-5.124000072479248,0,0
1881.930996,-0.80926513671875,0.030731201171875,0.046173095703125,0.58477783203125,0.18310546875,0.18310546875,0.0,0.110595703125,0.0052490234375,0.997314453125,-305.0,85.0,-4.0,101942.0,-5.124000072479248,0,0
1881.937996,-0.80926513671875,0.030731201171875,0.046173095703125,0.58477783203125,-0.1220703125,0.06103515625,0.0,0.1109619140625,0.0040283203125,0.9990234375,-305.0,85.0,-4.0,101942.0,-5.124000072479248,0,0
1881.945021,-0.80926513671875,0.03070068359375,0.046173095703125,0.58477783203125,-0.1220703125,0.18310546875,-0.06103515625,0.1114501953125,0.005126953125,0.997802734375,-305.0,85.0,-4.0,101942.0,-5.124000072479248,0,0
1881.952001,-0.80926513671875,0.03070068359375,0.04620361328125,0.58477783203125,0.1220703125,0.3662109375,0.06103515625,0.111083984375,0.0052490234375,0.9967041015625,-305.0,85.0,-4.0,101942.0,-5.124000072479248,0,0
1881.959015,-0.80926513671875,0.03070068359375,0.04620361328125,0.58477783203125,0.1220703125,0.42724609375,-0.1220703125,0.1123046875,0.0052490234375,0.9967041015625,-305.0,86.0,-4.0,101942.0,-5.124000072479248,0,0
1881.965047,-0.80926513671875,0.03070068359375,0.04620361328125,0.58477783203125,0.1220703125,0.42724609375,-0.1220703125,0.1123046875,0.0052490234375,0.9967041015625,-305.0,86.0,-4.0,101942.0,-5.124000072479248,0,0
1881.972001,-0.808746337890625,0.030731201171875,0.046173095703125,0.58551025390625,0.0,0.3662109375,0.0,0.11181640625,0.003662109375,0.995849609375,-305.0,86.0,-4.0,101942.0,-5.124000072479248,0,0
1881.979018,-0.808746337890625,0.030731201171875,0.046173095703125,0.58551025390625,0.0,0.30517578125,-0.1220703125,0.1109619140625,0.0045166015625,0.996826171875,-305.0,86.0,-4.0,101942.0,-5.124000072479248,0,0
1881.985995,-0.808746337890625,0.030731201171875,0.046173095703125,0.58551025390625,0.0,0.1220703125,0.0,0.1121826171875,0.0029296875,0.997314453125,-305.0,86.0,-4.0,101942.0,-5.124000072479248,0,0
1882.006998,-0.808746337890625,0.030731201171875,0.046173095703125,0.58551025390625,-0.06103515625,0.244140625,0.3662109375,0.114013671875,0.0050048828125,0.99609375,-305.0,86.0,-4.0,101942.0,-5.124000072479248,0,0
1882.014018,-0.808746337890625,0.030731201171875,0.046173095703125,0.58551025390625,-0.06103515625,0.3662109375,0.0,0.1112060546875,0.005615234375,0.99609375,-305.0,86.0,-4.0,101942.0,-5.124000072479248,0,0
1882.020996,-0.808746337890625,0.030731201171875,0.046173095703125,0.58551025390625,-0.18310546875,0.18310546875,0.06103515625,0.1092529296875,0.005859375,0.99755859375,-305.0,86.0,-4.0,101942.0,-5.124000072479248,0,0
1882.027996,-0.808746337890625,0.030731201171875,0.046173095703125,0.58551025390625,-0.1220703125,0.1220703125,0.06103515625,0.1114501953125,0.0059814453125,0.9971923828125,-305.0,86.0,-4.0,101942.0,-5.124000072479248,0,0
1882.035021,-0.808746337890625,0.030731201171875,0.046173095703125,0.58551025390625,0.1220703125,0.18310546875,-0.1220703125,0.10888671875,0.0032958984375,0.997314453125,-305.0,86.0,-4.0,101942.0,-5.124000072479248,0,0
1882.042001,-0.808746337890625,0.030731201171875,0.046173095703125,0.58551025390625,0.0,0.3662109375,0.0,0.109130859375,0.0074462890625,0.9974365234375,-305.0,86.0,-4.0,101942.0,-5.124000072479248,0,0
1882.049015,-0.808746337890625,0.030731201171875,0.046173095703125,0.58551025390625,-0.06103515625,0.3662109375,-0.18310546875,0.1104736328125,0.004638671875,0.9957275390625,-305.0,86.0,-4.0,101942.0,-5.124000072479248,0,0
1882.055047,-0.808746337890625,0.030731201171875,0.046173095703125,0.58551025390625,-0.06103515625,0.3662109375,-0.18310546875,0.1104736328125,0.004638671875,0.9957275390625,-305.0,86.0,-4.0,101942.0,-5.124000072479248,0,0
1882.062001,-0.808746337890625,0.030731201171875,0.046173095703125,0.58551025390625,-0.06103515625,0.30517578125,0.06103515625,0.110595703125,0.0025634765625,0.9970703125,-306.0,87.0,-4.0,101942.0,-5.124000072479248,0,0
1882.069018,-0.8082275390625,0.03076171875,0.046142578125,0.586212158203125,0.0,0.3662109375,0.18310546875,0.1104736328125,0.00732421875,0.9967041015625,-306.0,87.0,-4.0,101942.0,-5.124000072479248,0,0
1882.075995,-0.8082275390625,0.03076171875,0.046142578125,0.586212158203125,-0.1220703125,0.18310546875,-0.1220703125,0.111572265625,0.0037841796875,0.9981689453125,-306.0,87.0,-4.0,101942.0,-5.124000072479248,0,0
1882.096998,-0.8082275390625,0.03076171875,0.046142578125,0.586212158203125,0.0,0.48828125,-0.06103515625,0.1112060546875,0.0047607421875,0.998291015625,-306.0,87.0,-4.0,101942.0,-5.124000072479248,0,0
1882.104018,-0.8082275390625,0.03076171875,0.046173095703125,0.586212158203125,0.1220703125,0.67138671875,0.06103515625,0.114013671875,0.005859375,0.9981689453125,-306.0,87.0,-4.0,101942.0,-5.124000072479248,0,0
1882.110996,-0.8082275390625,0.03076171875,0.046173095703125,0.586212158203125,0.1220703125,0.67138671875,0.06103515625,0.114013671875,0.005859375,0.9981689453125,-306.0,87.0,-4.0,101942.0,-5.125000476837158,0,0
1882.117996,-0.8082275390625,0.03076171875,0.046142578125,0.586212158203125,-0.1220703125,0.06103515625,0.1220703125,0.1094970703125,0.00390625,0.99609375,-306.0,87.0,-4.0,101942.0,-5.125000476837158,0,0
1882.125021,-0.8082275390625,0.03076171875,0.046142578125,0.586212158203125,0.06103515625,0.3662109375,-0.244140625,0.1109619140625,0.0040283203125,0.9976806640625,-306.0,87.0,-4.0,101942.0,-5.125000476837158,0,0
1882.132001,-0.8082275390625,0.03076171875,0.046142578125,0.586212158203125,-0.06103515625,0.3662109375,0.06103515625,0.1109619140625,0.0076904296875,0.9976806640625,-306.0,87.0,-4.0,101942.0,-5.125000476837158,0,0
1882.139015,-0.8082275390625,0.03076171875,0.046173095703125,0.586212158203125,-0.06103515625,0.1220703125,0.18310546875,0.112060546875,0.00439453125,0.9952392578125,-306.0,87.0,-4.0,101942.0,-5.125000476837158,0,0
1882.145999,-0.8082275390625,0.03076171875,0.046142578125,0.586212158203125,-0.1220703125,0.3662109375,0.18310546875,0.111328125,0.006591796875,0.998779296875,-306.0,87.0,-4.0,101942.0,-5.125000476837158,0,0
1882.152032,-0.8082275390625,0.03076171875,0.046142578125,0.586212158203125,-0.1220703125,0.3662109375,0.18310546875,0.111328125,0.006591796875,0.998779296875,-306.0,87.0,-4.0,101942.0,-5.125000476837158,0,0
1882.159018,-0.8082275390625,0.03076171875,0.046142578125,0.586212158203125,0.1220703125,0.18310546875,0.18310546875,0.1102294921875,0.004150390625,0.99560546875,-306.0,87.0,-4.0,101942.0,-5.125000476837158,0,0
1882.165999,-0.80767822265625,0.030792236328125,0.046112060546875,0.58697509765625,-0.1220703125,0.244140625,-0.06103515625,0.109375,0.0057373046875,0.9970703125,-306.0,85.0,-3.0,101942.0,-5.125000476837158,0,0
1882.172999,-0.80767822265625,0.030792236328125,0.046112060546875,0.58697509765625,0.0,0.244140625,0.18310546875,0.1107177734375,0.004150390625,0.997802734375,-306.0,85.0,-3.0,101942.0,-5.125000476837158,0,0
1882.18002,-0.80767822265625,0.030792236328125,0.046112060546875,0.58697509765625,-0.06103515625,0.30517578125,0.06103515625,0.1104736328125,0.00537109375,0.9976806640625,-306.0,85.0,-3.0,101942.0,-5.125000476837158,0,0
1882.186998,-0.80767822265625,0.030792236328125,0.046142578125,0.58697509765625,0.1220703125,0.30517578125,0.244140625,0.1119384765625,0.0057373046875,0.9954833984375,-306.0,85.0,-3.0,101942.0,-5.125000476837158,0,0
1882.194018,-0.80767822265625,0.030792236328125,0.046142578125,0.58697509765625,-0.06103515625,0.06103515625,0.18310546875,0.1099853515625,0.0050048828125,0.9954833984375,-306.0,85.0,-3.0,101942.0,-5.125000476837158,0,0
1882.200996,-0.80767822265625,0.030792236328125,0.046142578125,0.58697509765625,0.06103515625,0.42724609375,0.18310546875,0.111328125,0.00537109375,0.9971923828125,-306.0,85.0,-3.0,101942.0,-5.125000476837158,0,0
1882.207996,-0.80767822265625,0.030792236328125,0.046142578125,0.58697509765625,0.0,0.3662109375,0.1220703125,0.1099853515625,0.0052490234375,0.9964599609375,-306.0,85.0,-3.0,101942.0,-5.125000476837158,0,0
1882.215021,-0.80767822265625,0.030792236328125,0.046142578125,0.58697509765625,0.18310546875,0.30517578125,-0.06103515625,0.109619140625,0.0025634765625,0.9990234375,-306.0,85.0,-3.0,101942.0,-5.124000072479248,0,0
1882.222001,-0.80767822265625,0.030792236328125,0.046142578125,0.58697509765625,-0.1220703125,0.18310546875,0.06103515625,0.111083984375,0.0035400390625,0.9971923828125,-306.0,85.0,-3.0,101942.0,-5.124000072479248,0,0
1882.229015,-0.80767822265625,0.030792236328125,0.046142578125,0.58697509765625,0.06103515625,0.18310546875,0.1220703125,0.1099853515625,0.004150390625,0.9976806640625,-306.0,85.0,-3.0,101942.0,-5.124000072479248,0,0
1882.235994,-0.80767822265625,0.030792236328125,0.046142578125,0.58697509765625,0.18310546875,0.244140625,0.0,0.1112060546875,0.00341796875,0.9969482421875,-306.0,85.0,-3.0,101942.0,-5.124000072479248,0,0
1882.242026,-0.80767822265625,0.030792236328125,0.046142578125,0.58697509765625,0.18310546875,0.244140625,0.0,0.1112060546875,0.00341796875,0.9969482421875,-306.0,85.0,-3.0,101942.0,-5.124000072479248,0,0
1882.249018,-0.80767822265625,0.030792236328125,0.046112060546875,0.58697509765625,0.0,0.244140625,-0.1220703125,0.1099853515625,0.006103515625,0.9971923828125,-306.0,85.0,-3.0,101942.0,-5.124000072479248,0,0
1882.270019,-0.80712890625,0.03082275390625,0.046112060546875,0.587738037109375,-0.18310546875,0.1220703125,-0.06103515625,0.11083984375,0.005859375,0.998291015625,-305.0,85.0,-3.0,101942.0,-5.124000072479248,0,0
1882.276998,-0.80712890625,0.03082275390625,0.046112060546875,0.587738037109375,0.1220703125,0.1220703125,0.06103515625,0.111572265625,0.0054931640625,0.9981689453125,-305.0,85.0,-3.0,101942.0,-5.124000072479248,0,0
1882.284018,-0.80712890625,0.03082275390625,0.046112060546875,0.587738037109375,0.18310546875,0.30517578125,0.06103515625,0.109130859375,0.002685546875,0.9969482421875,-305.0,85.0,-3.0,101942.0,-5.124000072479248,0,0
1882.290996,-0.80712890625,0.030792236328125,0.046112060546875,0.587738037109375,0.1220703125,0.1220703125,0.1220703125,0.1104736328125,0.004150390625,0.9986572265625,-305.0,85.0,-3.0,101942.0,-5.124000072479248,0,0
1882.297996,-0.80712890625,0.030792236328125,0.046112060546875,0.587738037109375,-0.06103515625,0.18310546875,0.0,0.110595703125,0.0047607421875,0.9990234375,-305.0,85.0,-3.0,101942.0,-5.124000072479248,0,0
1882.305021,-0.80712890625,0.030792236328125,0.046112060546875,0.587738037109375,0.0,0.244140625,0.244140625,0.1102294921875,0.00244140625,0.9981689453125,-305.0,85.0,-3.0,101942.0,-5.124000072479248,0,0
1882.312001,-0.80712890625,0.030792236328125,0.046112060546875,0.587738037109375,0.06103515625,0.48828125,0.06103515625,0.1114501953125,0.00634765625,0.9971923828125,-305.0,85.0,-3.0,101942.0,-5.12600040435791,0,0
1882.319015,-0.80712890625,0.030792236328125,0.046112060546875,0.587738037109375,-0.244140625,0.06103515625,0.30517578125,0.111083984375,0.004150390625,0.99658203125,-305.0,85.0,-3.0,101942.0,-5.12600040435791,0,0
1882.325994,-0.80712890625,0.030792236328125,0.046112060546875,0.587738037109375,-0.18310546875,0.18310546875,0.06103515625,0.11328125,0.0042724609375,0.996826171875,-305.0,85.0,-3.0,101942.0,-5.12600040435791,0,0
1882.332998,-0.80712890625,0.030792236328125,0.046112060546875,0.587738037109375,0.0,0.30517578125,0.06103515625,0.1092529296875,0.0062255859375,0.9969482421875,-305.0,85.0,-3.0,101942.0,-5.12600040435791,0,0
1882.339026,-0.80712890625,0.030792236328125,0.046112060546875,0.587738037109375,0.0,0.30517578125,0.06103515625,0.1092529296875,0.0062255859375,0.9969482421875,-305.0,85.0,-3.0,101942.0,-5.12600040435791,0,0
1882.360019,-0.80712890625,0.030792236328125,0.046112060546875,0.587738037109375,-0.18310546875,0.30517578125,-0.06103515625,0.112060546875,0.0042724609375,0.9957275390625,-305.0,85.0,-3.0,101942.0,-5.12600040435791,0,0
1882.366998,-0.806640625,0.03082275390625,0.046112060546875,0.58837890625,-0.3662109375,0.67138671875,-0.1220703125,0.114990234375,0.00439453125,0.99755859375,-304.0,85.0,-3.0,101942.0,-5.12600040435791,0,0
1882.374018,-0.806640625,0.03082275390625,0.046112060546875,0.58837890625,-0.1220703125,0.42724609375,0.06103515625,0.1094970703125,0.004638671875,0.998291015625,-304.0,85.0,-3.0,101942.0,-5.12600040435791,0,0
1882.380996,-0.806640625,0.03082275390625,0.046112060546875,0.58837890625,-0.06103515625,0.3662109375,0.0,0.113037109375,0.0018310546875,0.996337890625,-304.0,85.0,-3.0,101942.0,-5.12600040435791,0,0
1882.387996,-0.806640625,0.03082275390625,0.04608154296875,0.58837890625,0.0,0.1220703125,-0.1220703125,0.1119384765625,0.0052490234375,0.996337890625,-304.0,85.0,-3.0,101942.0,-5.12600040435791,0,0
1882.395021,-0.806640625,0.03082275390625,0.04608154296875,0.58837890625,-0.1220703125,0.18310546875,-0.244140625,0.1097412109375,0.0037841796875,0.9959716796875,-304.0,85.0,-3.0,101942.0,-5.12600040435791,0,0
1882.402001,-0.806640625,0.03082275390625,0.04608154296875,0.58837890625,-0.06103515625,0.42724609375,0.06103515625,0.111083984375,0.0040283203125,0.9970703125,-304.0,85.0,-3.0,101942.0,-5.12600040435791,0,0
1882.409015,-0.806640625,0.03082275390625,0.04608154296875,0.58837890625,0.1220703125,0.1220703125,0.244140625,0.1103515625,0.005126953125,0.998291015625,-304.0,85.0,-3.0,101942.0,-5.124000072479248,0,0
1882.415999,-0.806640625,0.03082275390625,0.04608154296875,0.58837890625,0.30517578125,0.18310546875,0.30517578125,0.111328125,0.00439453125,0.997802734375,-304.0,85.0,-3.0,101942.0,-5.124000072479248,0,0
1882.422998,-0.806640625,0.03082275390625,0.04608154296875,0.58837890625,-0.06103515625,0.244140625,0.1220703125,0.10986328125,0.00390625,0.99609375,-304.0,85.0,-3.0,101942.0,-5.124000072479248,0,0
1882.429031,-0.806640625,0.03082275390625,0.04608154296875,0.58837890625,-0.06103515625,0.244140625,0.1220703125,0.10986328125,0.00390625,0.99609375,-304.0,85.0,-3.0,101942.0,-5.124000072479248,0,0
1882.435999,-0.806640625,0.03082275390625,0.04608154296875,0.58837890625,0.0,0.3662109375,-0.1220703125,0.110595703125,0.0054931640625,0.996826171875,-304.0,85.0,-3.0,101942.0,-5.124000072479248,0,0
1882.442999,-0.806640625,0.03082275390625,0.04608154296875,0.58837890625,-0.06103515625,0.3662109375,0.0,0.109619140625,0.0045166015625,0.9976806640625,-304.0,85.0,-3.0,101942.0,-5.124000072479248,0,0
1882.45002,-0.806640625,0.03082275390625,0.04608154296875,0.58837890625,0.244140625,0.0,0.06103515625,0.1114501953125,0.0045166015625,0.998046875,-304.0,85.0,-3.0,101942.0,-5.124000072479248,0,0
1882.456998,-0.806640625,0.03082275390625,0.04608154296875,0.58837890625,0.0,0.18310546875,-0.1220703125,0.112548828125,0.0040283203125,0.997314453125,-304.0,85.0,-3.0,101942.0,-5.124000072479248,0,0
1882.464018,-0.806182861328125,0.030853271484375,0.046051025390625,0.589019775390625,-0.1220703125,0.3662109375,0.1220703125,0.1119384765625,0.0050048828125,0.99658203125,-305.0,85.0,-4.0,101942.0,-5.124000072479248,0,0
1882.470996,-0.806182861328125,0.030853271484375,0.046051025390625,0.589019775390625,0.06103515625,0.1220703125,0.18310546875,0.11083984375,0.0050048828125,0.9971923828125,-305.0,85.0,-4.0,101942.0,-5.124000072479248,0,0
1882.477996,-0.806182861328125,0.030853271484375,0.046051025390625,0.589019775390625,-0.244140625,0.244140625,0.1220703125,0.1090087890625,0.00341796875,0.99755859375,-305.0,85.0,-4.0,101942.0,-5.124000072479248,0,0
1882.485021,-0.806182861328125,0.030853271484375,0.046051025390625,0.589019775390625,0.06103515625,0.30517578125,-0.06103515625,0.1119384765625,0.005615234375,0.99658203125,-305.0,85.0,-4.0,101942.0,-5.124000072479248,0,0
1882.492001,-0.806182861328125,0.030853271484375,0.04608154296875,0.589019775390625,0.06103515625,0.244140625,-0.1220703125,0.1119384765625,0.0064697265625,0.9969482421875,-305.0,85.0,-4.0,101942.0,-5.124000072479248,0,0
1882.499015,-0.806182861328125,0.030853271484375,0.046051025390625,0.589019775390625,-0.06103515625,0.3662109375,0.1220703125,0.1099853515625,0.00341796875,0.997314453125,-305.0,85.0,-4.0,101942.0,-5.124000072479248,0,0
1882.505994,-0.806182861328125,0.030853271484375,0.046051025390625,0.589019775390625,0.18310546875,0.54931640625,-0.06103515625,0.109619140625,0.0029296875,0.9962158203125,-305.0,85.0,-4.0,101942.0,-5.12600040435791,0,0
1882.512998,-0.806182861328125,0.030853271484375,0.046051025390625,0.589019775390625,0.0,0.244140625,0.18310546875,0.111328125,0.0023193359375,0.9971923828125,-305.0,85.0,-4.0,101942.0,-5.12600040435791,0,0
1882.532994,-0.806182861328125,0.030853271484375,0.046051025390625,0.589019775390625,0.06103515625,0.30517578125,0.1220703125,0.11181640625,0.0057373046875,0.9952392578125,-305.0,85.0,-4.0,101942.0,-5.12600040435791,0,0
1882.540019,-0.806182861328125,0.030853271484375,0.046051025390625,0.589019775390625,-0.06103515625,0.1220703125,0.06103515625,0.1102294921875,0.0067138671875,0.998291015625,-305.0,85.0,-4.0,101942.0,-5.12600040435791,0,0
1882.546998,-0.806182861328125,0.030853271484375,0.046051025390625,0.589019775390625,0.0,0.3662109375,0.0,0.109619140625,0.0048828125,0.9957275390625,-305.0,85.0,-4.0,101942.0,-5.12600040435791,0,0
1882.554018,-0.806182861328125,0.030853271484375,0.046051025390625,0.589019775390625,-0.18310546875,0.18310546875,0.1220703125,0.1126708984375,0.0029296875,0.9970703125,-305.0,85.0,-4.0,101942.0,-5.12600040435791,0,0
1882.560996,-0.806182861328125,0.030853271484375,0.046051025390625,0.589019775390625,-0.06103515625,0.42724609375,-0.1220703125,0.1099853515625,0.004638671875,0.998291015625,-304.0,87.0,-3.0,101942.0,-5.12600040435791,0,0
1882.567996,-0.80584716796875,0.0308837890625,0.0460205078125,0.5894775390625,0.0,0.48828125,0.18310546875,0.109130859375,0.007080078125,0.996337890625,-304.0,87.0,-3.0,101942.0,-5.12600040435791,0,0
1882.575021,-0.80584716796875,0.0308837890625,0.0460205078125,0.5894775390625,0.1220703125,0.1220703125,0.0,0.1102294921875,0.0028076171875,0.99658203125,-304.0,87.0,-3.0,101942.0,-5.12600040435791,0,0
1882.582001,-0.80584716796875,0.0308837890625,0.046051025390625,0.5894775390625,-0.06103515625,0.244140625,0.1220703125,0.1126708984375,0.004150390625,0.9969482421875,-304.0,87.0,-3.0,101942.0,-5.12600040435791,0,0
1882.589015,-0.80584716796875,0.0308837890625,0.0460205078125,0.5894775390625,0.244140625,0.06103515625,0.18310546875,0.1092529296875,0.005615234375,0.997802734375,-304.0,87.0,-3.0,101942.0,-5.12600040435791,0,0
1882.595994,-0.80584716796875,0.030853271484375,0.0460205078125,0.5894775390625,0.06103515625,0.18310546875,0.18310546875,0.1094970703125,0.00634765625,0.9962158203125,-304.0,87.0,-3.0,101942.0,-5.12600040435791,0,0
1882.602998,-0.80584716796875,0.0308837890625,0.0460205078125,0.5894775390625,0.0,0.244140625,-0.18310546875,0.112548828125,0.0032958984375,0.9954833984375,-304.0,87.0,-3.0,101942.0,-5.12600040435791,0,0
1882.622994,-0.80584716796875,0.0308837890625,0.046051025390625,0.5894775390625,-0.06103515625,-0.1220703125,0.1220703125,0.112060546875,0.0045166015625,0.995361328125,-304.0,87.0,-3.0,101942.0,-5.124000072479248,0,0
1882.630019,-0.80584716796875,0.0308837890625,0.046051025390625,0.5894775390625,-0.06103515625,0.244140625,0.0,0.1114501953125,0.00537109375,0.9984130859375,-304.0,87.0,-3.0,101942.0,-5.124000072479248,0,0
1882.636998,-0.80584716796875,0.0308837890625,0.046051025390625,0.5894775390625,-0.06103515625,0.244140625,-0.06103515625,0.1083984375,0.0050048828125,0.9984130859375,-304.0,87.0,-3.0,101942.0,-5.124000072479248,0,0
1882.644018,-0.80584716796875,0.0308837890625,0.046051025390625,0.5894775390625,-0.06103515625,0.54931640625,-0.06103515625,0.1123046875,0.0057373046875,0.999267578125,-304.0,87.0,-3.0,101942.0,-5.124000072479248,0,0
1882.650996,-0.80584716796875,0.0308837890625,0.046051025390625,0.5894775390625,-0.06103515625,0.1220703125,0.0,0.112548828125,0.0018310546875,0.9976806640625,-304.0,87.0,-3.0,101942.0,-5.124000072479248,0,0
1882.657996,-0.80584716796875,0.0308837890625,0.046051025390625,0.5894775390625,0.244140625,0.1220703125,0.06103515625,0.1103515625,0.004150390625,0.9971923828125,-304.0,86.0,-3.0,101942.0,-5.124000072479248,0,0
1882.665021,-0.80548095703125,0.0308837890625,0.0460205078125,0.589996337890625,0.0,0.1220703125,0.06103515625,0.1112060546875,0.0048828125,0.9974365234375,-304.0,86.0,-3.0,101942.0,-5.124000072479248,0,0
1882.672001,-0.80548095703125,0.0308837890625,0.0460205078125,0.589996337890625,0.18310546875,0.30517578125,0.1220703125,0.110595703125,0.0047607421875,0.9976806640625,-304.0,86.0,-3.0,101942.0,-5.124000072479248,0,0
1882.679015,-0.80548095703125,0.0308837890625,0.0460205078125,0.589996337890625,-0.1220703125,0.30517578125,0.06103515625,0.112548828125,0.005126953125,0.9969482421875,-304.0,86.0,-3.0,101942.0,-5.124000072479248,0,0
1882.685995,-0.80548095703125,0.0308837890625,0.0460205078125,0.589996337890625,0.0,0.1220703125,0.1220703125,0.109130859375,0.0059814453125,0.9962158203125,-304.0,86.0,-3.0,101942.0,-5.124000072479248,0,0
1882.692998,-0.80548095703125,0.0308837890625,0.0460205078125,0.589996337890625,0.1220703125,0.244140625,-0.06103515625,0.1114501953125,0.0040283203125,0.9971923828125,-304.0,86.0,-3.0,101942.0,-5.124000072479248,0,0
1882.700023,-0.80548095703125,0.0308837890625,0.0460205078125,0.589996337890625,-0.18310546875,0.48828125,0.06103515625,0.111572265625,0.004638671875,0.997314453125,-304.0,86.0,-3.0,101942.0,-5.124000072479248,0,0
1882.707002,-0.80548095703125,0.0308837890625,0.0460205078125,0.589996337890625,-0.1220703125,0.1220703125,0.1220703125,0.111083984375,0.004150390625,0.9969482421875,-304.0,86.0,-3.0,101942.0,-5.125000476837158,0,0
1882.713035,-0.80548095703125,0.0308837890625,0.0460205078125,0.589996337890625,-0.1220703125,0.1220703125,0.1220703125,0.111083984375,0.004150390625,0.9969482421875,-304.0,86.0,-3.0,101942.0,-5.125000476837158,0,0
1882.72002,-0.80548095703125,0.0308837890625,0.0460205078125,0.589996337890625,-0.06103515625,0.18310546875,-0.1220703125,0.1109619140625,0.0064697265625,0.99658203125,-304.0,86.0,-3.0,101942.0,-5.125000476837158,0,0
1882.726998,-0.80548095703125,0.0308837890625,0.0460205078125,0.589996337890625,0.1220703125,0.42724609375,0.244140625,0.1102294921875,0.0032958984375,0.99658203125,-304.0,86.0,-3.0,101942.0,-5.125000476837158,0,0
1882.734018,-0.80548095703125,0.0308837890625,0.0460205078125,0.589996337890625,-0.1220703125,0.18310546875,0.06103515625,0.10986328125,0.0042724609375,0.9974365234375,-304.0,86.0,-3.0,101942.0,-5.125000476837158,0,0
1882.740996,-0.80548095703125,0.0308837890625,0.0460205078125,0.589996337890625,0.244140625,0.18310546875,-0.1220703125,0.1124267578125,0.0052490234375,0.997314453125,-304.0,86.0,-3.0,101942.0,-5.125000476837158,0,0
1882.747996,-0.80548095703125,0.0308837890625,0.0460205078125,0.589996337890625,-0.18310546875,0.42724609375,0.0,0.1126708984375,0.0050048828125,0.9976806640625,-304.0,86.0,-3.0,101942.0,-5.125000476837158,0,0
1882.755021,-0.80548095703125,0.0308837890625,0.0460205078125,0.589996337890625,0.06103515625,0.18310546875,0.1220703125,0.1103515625,0.00390625,0.9991455078125,-304.0,86.0,-3.0,101942.0,-5.125000476837158,0,0
1882.762001,-0.80548095703125,0.0308837890625,0.045989990234375,0.589996337890625,0.06103515625,0.244140625,-0.244140625,0.1077880859375,0.0045166015625,0.9970703125,-304.0,88.0,-4.0,101942.0,-5.125000476837158,0,0
1882.769015,-0.805206298828125,0.0308837890625,0.045989990234375,0.590362548828125,-0.06103515625,0.18310546875,-0.06103515625,0.1112060546875,0.005126953125,0.9984130859375,-304.0,88.0,-4.0,101942.0,-5.125000476837158,0,0
1882.775999,-0.805206298828125,0.0308837890625,0.045989990234375,0.590362548828125,0.18310546875,0.30517578125,0.1220703125,0.1094970703125,0.0072021484375,0.995849609375,-304.0,88.0,-4.0,101942.0,-5.125000476837158,0,0
1882.797002,-0.805206298828125,0.0308837890625,0.045989990234375,0.590362548828125,-0.18310546875,0.06103515625,0.06103515625,0.1107177734375,0.0040283203125,0.996826171875,-304.0,88.0,-4.0,101942.0,-5.125000476837158,0,0
1882.80303,-0.805206298828125,0.0308837890625,0.045989990234375,0.590362548828125,-0.18310546875,0.06103515625,0.06103515625,0.1107177734375,0.0040283203125,0.996826171875,-304.0,88.0,-4.0,101942.0,-5.125000476837158,0,0
1882.810019,-0.805206298828125,0.0308837890625,0.045989990234375,0.590362548828125,0.18310546875,0.1220703125,-0.06103515625,0.111328125,0.005126953125,0.99853515625,-304.0,88.0,-4.0,101942.0,-5.124000072479248,0,0
1882.816998,-0.805206298828125,0.0308837890625,0.045989990234375,0.590362548828125,0.06103515625,0.18310546875,-0.1220703125,0.111328125,0.005126953125,0.9974365234375,-304.0,88.0,-4.0,101942.0,-5.124000072479248,0,0
1882.824018,-0.805206298828125,0.0308837890625,0.045989990234375,0.590362548828125,0.244140625,0.30517578125,0.06103515625,0.111572265625,0.00439453125,0.998291015625,-304.0,88.0,-4.0,101942.0,-5.124000072479248,0,0
1882.830996,-0.805206298828125,0.0308837890625,0.045989990234375,0.590362548828125,-0.06103515625,0.18310546875,-0.18310546875,0.1104736328125,0.001953125,0.998046875,-304.0,88.0,-4.0,101942.0,-5.124000072479248,0,0
1882.837996,-0.805206298828125,0.0308837890625,0.04595947265625,0.590362548828125,0.1220703125,0.30517578125,-0.244140625,0.1099853515625,0.005615234375,0.9967041015625,-304.0,88.0,-4.0,101942.0,-5.124000072479248,0,0
1882.845021,-0.805206298828125,0.0308837890625,0.04595947265625,0.590362548828125,-0.1220703125,0.30517578125,-0.06103515625,0.1107177734375,0.0045166015625,0.9962158203125,-304.0,88.0,-4.0,101942.0,-5.124000072479248,0,0
1882.852001,-0.805206298828125,0.030853271484375,0.04595947265625,0.590362548828125,0.1220703125,0.42724609375,0.18310546875,0.1099853515625,0.0072021484375,0.996337890625,-304.0,88.0,-4.0,101942.0,-5.124000072479248,0,0
1882.859015,-0.805206298828125,0.0308837890625,0.04595947265625,0.590362548828125,-0.1220703125,0.30517578125,0.06103515625,0.111083984375,0.0029296875,0.998046875,-305.0,89.0,-3.0,101942.0,-5.124000072479248,0,0
1882.880018,-0.805023193359375,0.030914306640625,0.04595947265625,0.59063720703125,-0.244140625,0.1220703125,0.0,0.1090087890625,0.0047607421875,0.9976806640625,-305.0,89.0,-3.0,101942.0,-5.124000072479248,0,0
1882.887002,-0.805023193359375,0.030914306640625,0.04595947265625,0.59063720703125,-0.1220703125,0.06103515625,0.30517578125,0.111083984375,0.00390625,0.9981689453125,-305.0,89.0,-3.0,101942.0,-5.124000072479248,0,0
1882.89303,-0.805023193359375,0.030914306640625,0.04595947265625,0.59063720703125,-0.1220703125,0.06103515625,0.30517578125,0.111083984375,0.00390625,0.9981689453125,-305.0,89.0,-3.0,101942.0,-5.124000072479248,0,0
1882.900019,-0.805023193359375,0.030914306640625,0.045928955078125,0.59063720703125,0.0,0.30517578125,0.0,0.11083984375,0.001953125,0.9949951171875,-305.0,89.0,-3.0,101942.0,-5.124000072479248,0,0
1882.906998,-0.805023193359375,0.030914306640625,0.045928955078125,0.59063720703125,0.18310546875,0.30517578125,0.0,0.1107177734375,0.0035400390625,0.996826171875,-305.0,89.0,-3.0,101942.0,-5.124000072479248,0,0
1882.914018,-0.805023193359375,0.030914306640625,0.045928955078125,0.59063720703125,-0.18310546875,0.1220703125,0.0,0.1092529296875,0.0020751953125,0.996826171875,-305.0,89.0,-3.0,101942.0,-5.124000072479248,0,0
1882.920996,-0.805023193359375,0.030914306640625,0.045928955078125,0.59063720703125,-0.18310546875,0.30517578125,0.0,0.1099853515625,0.0032958984375,0.9962158203125,-305.0,89.0,-3.0,101942.0,-5.124000072479248,0,0
1882.927996,-0.805023193359375,0.030914306640625,0.0458984375,0.59063720703125,-0.06103515625,0.18310546875,0.18310546875,0.1099853515625,0.004150390625,0.9974365234375,-305.0,89.0,-3.0,101942.0,-5.124000072479248,0,0
1882.935021,-0.805023193359375,0.030914306640625,0.0458984375,0.59063720703125,0.0,0.18310546875,0.0,0.110107421875,0.0048828125,0.99853515625,-305.0,89.0,-3.0,101942.0,-5.124000072479248,0,0
1882.942001,-0.805023193359375,0.030914306640625,0.0458984375,0.59063720703125,-0.1220703125,0.0,-0.244140625,0.1103515625,0.0057373046875,0.998779296875,-305.0,89.0,-3.0,101942.0,-5.124000072479248,0,0
1882.949015,-0.805023193359375,0.030914306640625,0.0458984375,0.59063720703125,0.30517578125,0.1220703125,-0.1220703125,0.1104736328125,0.002197265625,0.9959716796875,-305.0,89.0,-3.0,101942.0,-5.124000072479248,0,0
1882.955994,-0.805023193359375,0.0308837890625,0.0458984375,0.59063720703125,0.0,0.30517578125,0.1220703125,0.11083984375,0.005126953125,0.998291015625,-305.0,89.0,-3.0,101942.0,-5.124000072479248,0,0
1882.962998,-0.805023193359375,0.0308837890625,0.0458984375,0.59063720703125,-0.1220703125,0.18310546875,0.0,0.111328125,0.00390625,0.9967041015625,-305.0,89.0,-4.0,101942.0,-5.124000072479248,0,0
1882.970018,-0.804840087890625,0.030914306640625,0.0458984375,0.59088134765625,0.0,0.244140625,0.18310546875,0.111572265625,0.0037841796875,0.99658203125,-305.0,89.0,-4.0,101942.0,-5.124000072479248,0,0
1882.977002,-0.804840087890625,0.030914306640625,0.0458984375,0.59088134765625,0.0,0.18310546875,0.1220703125,0.1102294921875,0.00439453125,0.9993896484375,-305.0,89.0,-4.0,101942.0,-5.124000072479248,0,0
1882.984018,-0.804840087890625,0.030914306640625,0.0458984375,0.59088134765625,0.1220703125,0.42724609375,0.06103515625,0.1107177734375,0.0052490234375,0.998046875,-305.0,89.0,-4.0,101942.0,-5.124000072479248,0,0
1882.990049,-0.804840087890625,0.030914306640625,0.0458984375,0.59088134765625,0.1220703125,0.42724609375,0.06103515625,0.1107177734375,0.0052490234375,0.998046875,-305.0,89.0,-4.0,101942.0,-5.124000072479248,0,0
1882.996998,-0.804840087890625,0.030914306640625,0.0458984375,0.59088134765625,0.06103515625,0.30517578125,0.244140625,0.1112060546875,0.0047607421875,0.9967041015625,-305.0,89.0,-4.0,101942.0,-5.124000072479248,0,0
1883.004018,-0.804840087890625,0.030914306640625,0.0458984375,0.59088134765625,-0.18310546875,0.3662109375,0.0,0.110107421875,0.0052490234375,0.9971923828125,-305.0,89.0,-4.0,101942.0,-5.124000072479248,0,0
1883.010996,-0.804840087890625,0.030914306640625,0.0458984375,0.59088134765625,0.0,0.1220703125,-0.06103515625,0.1134033203125,0.005126953125,0.996337890625,-305.0,89.0,-4.0,101942.0,-5.12600040435791,0,0
1883.017996,-0.804840087890625,0.030914306640625,0.0458984375,0.59088134765625,-0.06103515625,0.06103515625,-0.1220703125,0.110107421875,0.0040283203125,0.9970703125,-305.0,89.0,-4.0,101942.0,-5.12600040435791,0,0
1883.025021,-0.804840087890625,0.030914306640625,0.0458984375,0.59088134765625,0.06103515625,0.244140625,-0.244140625,0.1103515625,0.0059814453125,1.0001220703125,-305.0,89.0,-4.0,101942.0,-5.12600040435791,0,0
1883.032001,-0.804840087890625,0.0308837890625,0.0458984375,0.59088134765625,-0.06103515625,0.30517578125,-0.1220703125,0.108154296875,0.00537109375,0.9962158203125,-305.0,89.0,-4.0,101942.0,-5.12600040435791,0,0
1883.039015,-0.804840087890625,0.030914306640625,0.0458984375,0.59088134765625,-0.06103515625,0.244140625,0.3662109375,0.112060546875,0.004638671875,0.9986572265625,-305.0,89.0,-4.0,101942.0,-5.12600040435791,0,0
1883.060023,-0.804840087890625,0.0308837890625,0.045928955078125,0.59088134765625,-0.18310546875,0.30517578125,-0.244140625,0.111328125,0.005859375,0.9969482421875,-305.0,88.0,-3.0,101942.0,-5.12600040435791,0,0
1883.067002,-0.804595947265625,0.030914306640625,0.0458984375,0.591217041015625,0.18310546875,0.18310546875,0.18310546875,0.111328125,0.00390625,0.9976806640625,-305.0,88.0,-3.0,101942.0,-5.12600040435791,0,0
1883.074018,-0.804595947265625,0.030914306640625,0.0458984375,0.591217041015625,-0.1220703125,0.3662109375,0.0,0.109619140625,0.004638671875,0.9967041015625,-305.0,88.0,-3.0,101942.0,-5.12600040435791,0,0
1883.080049,-0.804595947265625,0.030914306640625,0.0458984375,0.591217041015625,-0.1220703125,0.3662109375,0.0,0.109619140625,0.004638671875,0.9967041015625,-305.0,88.0,-3.0,101942.0,-5.12600040435791,0,0
1883.086998,-0.804595947265625,0.030914306640625,0.0458984375,0.591217041015625,0.06103515625,0.30517578125,-0.06103515625,0.1090087890625,0.001953125,0.9984130859375,-305.0,88.0,-3.0,101942.0,-5.12600040435791,0,0
1883.094018,-0.804595947265625,0.030914306640625,0.045867919921875,0.591217041015625,0.0,0.244140625,-0.06103515625,0.109619140625,0.0048828125,0.998779296875,-305.0,88.0,-3.0,101942.0,-5.12600040435791,0,0
1883.100996,-0.804595947265625,0.030914306640625,0.045867919921875,0.591217041015625,0.0,0.1220703125,0.0,0.109375,0.0057373046875,0.9971923828125,-305.0,88.0,-3.0,101942.0,-5.12600040435791,0,0
1883.107996,-0.804595947265625,0.030914306640625,0.045867919921875,0.591217041015625,0.06103515625,0.42724609375,0.06103515625,0.110595703125,0.004638671875,0.9969482421875,-305.0,88.0,-3.0,101941.0,-5.123000144958496,0,0
1883.115021,-0.804595947265625,0.030914306640625,0.0458984375,0.591217041015625,0.30517578125,0.30517578125,-0.1220703125,0.1121826171875,0.004638671875,0.998046875,-305.0,88.0,-3.0,101941.0,-5.123000144958496,0,0
1883.122001,-0.804595947265625,0.030914306640625,0.0458984375,0.591217041015625,-0.18310546875,0.30517578125,0.0,0.11181640625,0.0057373046875,0.998779296875,-305.0,88.0,-3.0,101941.0,-5.123000144958496,0,0
1883.142998,-0.804595947265625,0.030914306640625,0.0458984375,0.591217041015625,-0.42724609375,0.30517578125,0.0,0.110595703125,0.003173828125,0.99755859375,-305.0,88.0,-3.0,101941.0,-5.123000144958496,0,0
1883.150018,-0.804595947265625,0.030914306640625,0.0458984375,0.591217041015625,0.1220703125,0.3662109375,-0.06103515625,0.109375,0.0042724609375,0.9969482421875,-305.0,88.0,-3.0,101941.0,-5.123000144958496,0,0
1883.157002,-0.804595947265625,0.030914306640625,0.0458984375,0.591217041015625,0.18310546875,0.244140625,-0.1220703125,0.1104736328125,0.0040283203125,0.9969482421875,-305.0,88.0,-3.0,101941.0,-5.123000144958496,0,0
1883.164018,-0.804595947265625,0.030914306640625,0.0458984375,0.591217041015625,0.06103515625,0.1220703125,0.06103515625,0.11328125,0.00634765625,0.996826171875,-305.0,88.0,-3.0,101941.0,-5.123000144958496,0,0
1883.170996,-0.804412841796875,0.030914306640625,0.0458984375,0.591461181640625,0.18310546875,0.3662109375,0.06103515625,0.11083984375,0.006103515625,0.9981689453125,-305.0,88.0,-3.0,101941.0,-5.123000144958496,0,0
1883.177028,-0.804412841796875,0.030914306640625,0.0458984375,0.591461181640625,0.18310546875,0.3662109375,0.06103515625,0.11083984375,0.006103515625,0.9981689453125,-305.0,88.0,-3.0,101941.0,-5.123000144958496,0,0
1883.184018,-0.804412841796875,0.030914306640625,0.0458984375,0.591461181640625,-0.1220703125,0.06103515625,0.244140625,0.1121826171875,0.006103515625,0.998291015625,-305.0,88.0,-3.0,101941.0,-5.123000144958496,0,0
1883.190996,-0.804412841796875,0.030914306640625,0.0458984375,0.591461181640625,-0.18310546875,0.244140625,0.244140625,0.11083984375,0.004638671875,0.998291015625,-305.0,88.0,-3.0,101941.0,-5.123000144958496,0,0
1883.197996,-0.804412841796875,0.030914306640625,0.0458984375,0.591461181640625,-0.244140625,0.3662109375,-0.244140625,0.1112060546875,0.0057373046875,0.999267578125,-305.0,88.0,-3.0,101941.0,-5.123000144958496,0,0
1883.205021,-0.804412841796875,0.030914306640625,0.0458984375,0.591461181640625,0.0,0.42724609375,0.06103515625,0.111083984375,0.00244140625,0.997314453125,-305.0,88.0,-3.0,101941.0,-5.123000144958496,0,0
1883.212001,-0.804412841796875,0.030914306640625,0.0458984375,0.591461181640625,0.1220703125,0.30517578125,0.06103515625,0.1090087890625,0.00341796875,0.998046875,-305.0,88.0,-3.0,101942.0,-5.124000072479248,0,0
1883.219015,-0.804412841796875,0.030914306640625,0.0458984375,0.591461181640625,0.0,0.244140625,0.18310546875,0.1104736328125,0.0050048828125,0.99560546875,-305.0,88.0,-3.0,101942.0,-5.124000072479248,0,0
1883.225994,-0.804412841796875,0.030914306640625,0.0458984375,0.591461181640625,0.1220703125,0.1220703125,0.0,0.11181640625,0.0050048828125,0.9979248046875,-305.0,88.0,-3.0,101942.0,-5.124000072479248,0,0
1883.232998,-0.804412841796875,0.030914306640625,0.045867919921875,0.591461181640625,-0.18310546875,0.18310546875,0.18310546875,0.110595703125,0.0023193359375,0.9991455078125,-305.0,88.0,-3.0,101942.0,-5.124000072479248,0,0
1883.240018,-0.804412841796875,0.030914306640625,0.045867919921875,0.591461181640625,-0.244140625,0.0,-0.244140625,0.1102294921875,0.0035400390625,0.9967041015625,-305.0,88.0,-3.0,101942.0,-5.124000072479248,0,0
1883.247002,-0.804412841796875,0.030914306640625,0.045867919921875,0.591461181640625,0.1220703125,0.18310546875,-0.06103515625,0.1129150390625,0.00390625,0.9979248046875,-305.0,88.0,-3.0,101942.0,-5.124000072479248,0,0
1883.254018,-0.804412841796875,0.030914306640625,0.045867919921875,0.591461181640625,0.0,0.06103515625,0.1220703125,0.1099853515625,0.0018310546875,0.9986572265625,-305.0,88.0,-3.0,101942.0,-5.124000072479248,0,0
1883.260996,-0.804412841796875,0.030914306640625,0.045867919921875,0.591461181640625,0.18310546875,0.30517578125,0.0,0.109130859375,0.0047607421875,0.99658203125,-306.0,88.0,-3.0,101942.0,-5.124000072479248,0,0
1883.267028,-0.804412841796875,0.030914306640625,0.045867919921875,0.591461181640625,0.18310546875,0.30517578125,0.0,0.109130859375,0.0047607421875,0.99658203125,-306.0,88.0,-3.0,101942.0,-5.124000072479248,0,0
1883.274018,-0.804168701171875,0.03094482421875,0.04583740234375,0.591796875,-0.1220703125,0.18310546875,0.0,0.1104736328125,0.0023193359375,0.998779296875,-306.0,88.0,-3.0,101942.0,-5.124000072479248,0,0
1883.280996,-0.804168701171875,0.03094482421875,0.04583740234375,0.591796875,-0.3662109375,0.30517578125,0.0,0.1112060546875,0.0042724609375,0.998046875,-306.0,88.0,-3.0,101942.0,-5.124000072479248,0,0
1883.287996,-0.804168701171875,0.03094482421875,0.045867919921875,0.591796875,0.1220703125,0.18310546875,-0.06103515625,0.1121826171875,0.0032958984375,0.998046875,-306.0,88.0,-3.0,101942.0,-5.124000072479248,0,0
1883.295021,-0.804168701171875,0.03094482421875,0.045867919921875,0.591796875,0.18310546875,0.1220703125,0.06103515625,0.110107421875,0.004638671875,0.9993896484375,-306.0,88.0,-3.0,101942.0,-5.124000072479248,0,0
1883.315999,-0.804168701171875,0.030975341796875,0.04583740234375,0.591766357421875,0.06103515625,0.1220703125,-0.18310546875,0.112060546875,0.00439453125,0.998046875,-306.0,88.0,-3.0,101941.0,-5.123000144958496,0,0
1883.322998,-0.804168701171875,0.030975341796875,0.045867919921875,0.591766357421875,0.06103515625,0.30517578125,0.1220703125,0.11181640625,0.00341796875,0.997314453125,-306.0,88.0,-3.0,101941.0,-5.123000144958496,0,0
1883.330023,-0.804168701171875,0.03094482421875,0.045867919921875,0.591796875,0.06103515625,0.42724609375,0.0,0.109619140625,0.005615234375,0.9984130859375,-306.0,88.0,-3.0,101941.0,-5.123000144958496,0,0
1883.337002,-0.804168701171875,0.03094482421875,0.045867919921875,0.591796875,-0.1220703125,0.18310546875,0.06103515625,0.1114501953125,0.0048828125,0.99951171875,-306.0,88.0,-3.0,101941.0,-5.123000144958496,0,0
1883.344018,-0.804168701171875,0.03094482421875,0.045867919921875,0.591796875,-0.18310546875,0.3662109375,0.1220703125,0.110595703125,0.005615234375,0.996826171875,-306.0,88.0,-3.0,101941.0,-5.123000144958496,0,0
1883.350996,-0.804168701171875,0.03094482421875,0.04583740234375,0.591796875,-0.06103515625,0.3662109375,0.18310546875,0.10986328125,0.004150390625,0.9971923828125,-306.0,88.0,-3.0,101941.0,-5.123000144958496,0,0
1883.357996,-0.804168701171875,0.03094482421875,0.045867919921875,0.591796875,0.18310546875,0.1220703125,-0.244140625,0.110595703125,0.0054931640625,0.9990234375,-307.0,88.0,-4.0,101941.0,-5.123000144958496,0,0
1883.364029,-0.804168701171875,0.03094482421875,0.045867919921875,0.591796875,0.18310546875,0.1220703125,-0.244140625,0.110595703125,0.0054931640625,0.9990234375,-307.0,88.0,-4.0,101941.0,-5.123000144958496,0,0
1883.370996,-0.803924560546875,0.03094482421875,0.04583740234375,0.59210205078125,-0.1220703125,0.244140625,0.18310546875,0.1112060546875,0.004638671875,0.9998779296875,-307.0,88.0,-4.0,101941.0,-5.123000144958496,0,0
1883.377996,-0.803924560546875,0.030975341796875,0.04583740234375,0.59210205078125,0.06103515625,0.3662109375,0.18310546875,0.1104736328125,0.0037841796875,0.999267578125,-307.0,88.0,-4.0,101941.0,-5.123000144958496,0,0
1883.385021,-0.803924560546875,0.030975341796875,0.04583740234375,0.59210205078125,0.0,0.1220703125,0.18310546875,0.111328125,0.00439453125,0.9976806640625,-307.0,88.0,-4.0,101941.0,-5.123000144958496,0,0
1883.405994,-0.803924560546875,0.030975341796875,0.04583740234375,0.59210205078125,0.06103515625,0.1220703125,0.30517578125,0.1109619140625,0.00439453125,0.999755859375,-307.0,88.0,-4.0,101941.0,-5.123000144958496,0,0
1883.412998,-0.803924560546875,0.030975341796875,0.04583740234375,0.59210205078125,0.1220703125,0.42724609375,0.06103515625,0.1114501953125,0.003662109375,0.9998779296875,-307.0,88.0,-4.0,101941.0,-5.123000144958496,0,0
1883.420018,-0.803924560546875,0.030975341796875,0.04583740234375,0.59210205078125,0.0,0.06103515625,0.244140625,0.1109619140625,0.0030517578125,0.998779296875,-307.0,88.0,-4.0,101941.0,-5.123000144958496,0,0
1883.427002,-0.803924560546875,0.030975341796875,0.04583740234375,0.59210205078125,-0.1220703125,0.244140625,0.1220703125,0.111328125,0.005859375,0.9998779296875,-307.0,88.0,-4.0,101941.0,-5.123000144958496,0,0
1883.434018,-0.803924560546875,0.030975341796875,0.04583740234375,0.59210205078125,0.06103515625,0.1220703125,-0.1220703125,0.1103515625,0.005126953125,0.9979248046875,-307.0,88.0,-4.0,101941.0,-5.123000144958496,0,0
1883.440996,-0.803924560546875,0.030975341796875,0.04583740234375,0.59210205078125,0.244140625,0.3662109375,0.0,0.1097412109375,0.002685546875,0.9984130859375,-307.0,88.0,-4.0,101941.0,-5.123000144958496,0,0
1883.447995,-0.803924560546875,0.030975341796875,0.045806884765625,0.59210205078125,-0.1220703125,0.48828125,-0.06103515625,0.110107421875,0.004638671875,0.9993896484375,-307.0,88.0,-4.0,101941.0,-5.123000144958496,0,0
1883.454028,-0.803924560546875,0.030975341796875,0.045806884765625,0.59210205078125,-0.1220703125,0.48828125,-0.06103515625,0.110107421875,0.004638671875,0.9993896484375,-307.0,88.0,-4.0,101941.0,-5.123000144958496,0,0
1883.460996,-0.803924560546875,0.030975341796875,0.045806884765625,0.59210205078125,-0.1220703125,0.42724609375,-0.06103515625,0.1097412109375,0.00634765625,0.9974365234375,-307.0,88.0,-4.0,101941.0,-5.123000144958496,0,0
1883.467996,-0.8037109375,0.031005859375,0.045806884765625,0.5924072265625,-0.06103515625,0.244140625,-0.42724609375,0.1116943359375,0.0032958984375,0.9981689453125,-307.0,88.0,-4.0,101941.0,-5.123000144958496,0,0
1883.475021,-0.8037109375,0.030975341796875,0.0457763671875,0.5924072265625,0.0,0.6103515625,0.0,0.1075439453125,0.0062255859375,0.9990234375,-307.0,88.0,-4.0,101941.0,-5.123000144958496,0,0
1883.482001,-0.8037109375,0.030975341796875,0.0457763671875,0.5924072265625,-0.06103515625,0.18310546875,-0.1220703125,0.111083984375,0.0035400390625,0.9998779296875,-307.0,88.0,-4.0,101941.0,-5.123000144958496,0,0
1883.489015,-0.8037109375,0.030975341796875,0.0457763671875,0.5924072265625,0.06103515625,0.0,0.1220703125,0.10986328125,0.00537109375,0.998291015625,-307.0,88.0,-4.0,101941.0,-5.123000144958496,0,0
1883.495994,-0.8037109375,0.030975341796875,0.045806884765625,0.5924072265625,0.06103515625,0.244140625,0.0,0.1103515625,0.004638671875,0.9974365234375,-307.0,88.0,-4.0,101941.0,-5.123000144958496,0,0
1883.502998,-0.8037109375,0.030975341796875,0.045806884765625,0.5924072265625,-0.1220703125,0.06103515625,-0.244140625,0.108642578125,0.004150390625,1.0,-307.0,88.0,-4.0,101941.0,-5.123000144958496,0,0
1883.510018,-0.8037109375,0.030975341796875,0.045806884765625,0.5924072265625,0.0,0.18310546875,0.06103515625,0.111083984375,0.008056640625,0.9990234375,-307.0,88.0,-4.0,101941.0,-5.123000144958496,0,0
1883.517002,-0.8037109375,0.030975341796875,0.045806884765625,0.5924072265625,0.18310546875,0.30517578125,-0.18310546875,0.1103515625,0.0045166015625,0.9990234375,-307.0,88.0,-4.0,101941.0,-5.123000144958496,0,0
1883.524018,-0.8037109375,0.03094482421875,0.045806884765625,0.5924072265625,0.1220703125,0.3662109375,0.0,0.1097412109375,0.005859375,1.0,-307.0,88.0,-4.0,101941.0,-5.123000144958496,0,0
1883.530996,-0.8037109375,0.03094482421875,0.045806884765625,0.5924072265625,-0.06103515625,0.18310546875,0.1220703125,0.1119384765625,0.0048828125,0.9986572265625,-307.0,88.0,-4.0,101941.0,-5.123000144958496,0,0
1883.537995,-0.8037109375,0.030975341796875,0.045806884765625,0.5924072265625,0.06103515625,0.48828125,0.06103515625,0.113037109375,0.0057373046875,0.9984130859375,-307.0,88.0,-4.0,101941.0,-5.123000144958496,0,0
1883.545016,-0.8037109375,0.03094482421875,0.045806884765625,0.5924072265625,0.06103515625,0.1220703125,0.0,0.1092529296875,0.0047607421875,0.9969482421875,-307.0,88.0,-4.0,101941.0,-5.123000144958496,0,0
1883.551048,-0.8037109375,0.03094482421875,0.045806884765625,0.5924072265625,0.06103515625,0.1220703125,0.0,0.1092529296875,0.0047607421875,0.9969482421875,-307.0,88.0,-4.0,101941.0,-5.123000144958496,0,0
1883.557996,-0.8037109375,0.03094482421875,0.045806884765625,0.5924072265625,-0.1220703125,0.30517578125,0.30517578125,0.1107177734375,0.0045166015625,0.9979248046875,-308.0,88.0,-4.0,101941.0,-5.123000144958496,0,0
1883.579015,-0.803466796875,0.030975341796875,0.0457763671875,0.592742919921875,0.0,0.244140625,0.18310546875,0.10986328125,0.0045166015625,0.9979248046875,-308.0,88.0,-4.0,101941.0,-5.123000144958496,0,0
1883.585999,-0.803466796875,0.030975341796875,0.0457763671875,0.592742919921875,0.18310546875,0.244140625,0.30517578125,0.110595703125,0.0040283203125,0.998291015625,-308.0,88.0,-4.0,101941.0,-5.123000144958496,0,0
1883.592998,-0.803466796875,0.030975341796875,0.0457763671875,0.592742919921875,0.0,-0.06103515625,-0.244140625,0.10986328125,0.00537109375,0.998046875,-308.0,88.0,-4.0,101941.0,-5.123000144958496,0,0
1883.600023,-0.803466796875,0.030975341796875,0.0457763671875,0.592742919921875,0.06103515625,0.18310546875,0.06103515625,0.110107421875,0.00146484375,0.9974365234375,-308.0,88.0,-4.0,101941.0,-5.123000144958496,0,0
1883.607002,-0.803466796875,0.030975341796875,0.0457763671875,0.592742919921875,-0.06103515625,0.30517578125,0.06103515625,0.1094970703125,0.0035400390625,1.00048828125,-308.0,88.0,-4.0,101941.0,-5.123000144958496,0,0
1883.614018,-0.803466796875,0.03094482421875,0.0457763671875,0.592742919921875,-0.06103515625,0.18310546875,-0.06103515625,0.111083984375,0.0042724609375,0.9991455078125,-308.0,88.0,-4.0,101941.0,-5.123000144958496,0,0
1883.620996,-0.803466796875,0.030975341796875,0.0457763671875,0.592742919921875,-0.18310546875,0.18310546875,0.06103515625,0.1142578125,0.0032958984375,0.9989013671875,-308.0,88.0,-4.0,101941.0,-5.123000144958496,0,0
1883.627996,-0.803466796875,0.030975341796875,0.0457763671875,0.592742919921875,-0.18310546875,0.3662109375,-0.30517578125,0.109619140625,0.0045166015625,0.9989013671875,-308.0,88.0,-4.0,101941.0,-5.123000144958496,0,0
1883.63502,-0.803466796875,0.030975341796875,0.0457763671875,0.592742919921875,-0.1220703125,0.18310546875,-0.1220703125,0.111328125,0.00634765625,1.000244140625,-308.0,88.0,-4.0,101941.0,-5.123000144958496,0,0
1883.641053,-0.803466796875,0.030975341796875,0.0457763671875,0.592742919921875,-0.1220703125,0.18310546875,-0.1220703125,0.111328125,0.00634765625,1.000244140625,-308.0,88.0,-4.0,101941.0,-5.123000144958496,0,0
1883.647996,-0.803466796875,0.030975341796875,0.0457763671875,0.592742919921875,0.0,0.3662109375,0.0,0.112060546875,0.0054931640625,0.997802734375,-308.0,88.0,-4.0,101941.0,-5.123000144958496,0,0
1883.669015,-0.80328369140625,0.031005859375,0.0457763671875,0.592987060546875,-0.18310546875,0.30517578125,0.06103515625,0.1126708984375,0.004638671875,0.998291015625,-309.0,89.0,-4.0,101941.0,-5.122000217437744,0,0
1883.675999,-0.80328369140625,0.031005859375,0.0457763671875,0.592987060546875,0.18310546875,0.30517578125,0.1220703125,0.109375,0.004150390625,0.9979248046875,-309.0,89.0,-4.0,101941.0,-5.122000217437744,0,0
1883.682998,-0.80328369140625,0.031005859375,0.0457763671875,0.592987060546875,-0.1220703125,0.244140625,-0.1220703125,0.110107421875,0.0028076171875,0.998779296875,-309.0,89.0,-4.0,101941.0,-5.122000217437744,0,0
1883.690018,-0.80328369140625,0.031005859375,0.0457763671875,0.592987060546875,-0.1220703125,0.06103515625,0.06103515625,0.111083984375,0.0048828125,0.99755859375,-309.0,89.0,-4.0,101941.0,-5.122000217437744,0,0
1883.697002,-0.80328369140625,0.031005859375,0.0457763671875,0.592987060546875,0.1220703125,0.244140625,0.0,0.1123046875,0.0025634765625,0.9974365234375,-309.0,89.0,-4.0,101941.0,-5.122000217437744,0,0
1883.704018,-0.80328369140625,0.031005859375,0.0457763671875,0.592987060546875,-0.1220703125,0.1220703125,0.06103515625,0.112060546875,0.004150390625,0.99951171875,-309.0,89.0,-4.0,101941.0,-5.122000217437744,0,0
1883.710996,-0.80328369140625,0.031005859375,0.0457763671875,0.592987060546875,-0.06103515625,0.244140625,0.06103515625,0.1099853515625,0.0040283203125,0.9990234375,-309.0,89.0,-4.0,101941.0,-5.122000217437744,0,0
1883.717995,-0.80328369140625,0.031005859375,0.045806884765625,0.592987060546875,0.0,0.3662109375,0.30517578125,0.1123046875,0.005615234375,0.99853515625,-309.0,89.0,-4.0,101941.0,-5.122000217437744,0,0
1883.72502,-0.80328369140625,0.031005859375,0.045806884765625,0.592987060546875,-0.18310546875,0.3662109375,0.06103515625,0.112060546875,0.004150390625,0.9974365234375,-309.0,89.0,-4.0,101941.0,-5.122000217437744,0,0
1883.732004,-0.80328369140625,0.031005859375,0.045806884765625,0.592987060546875,-0.18310546875,0.244140625,-0.06103515625,0.11083984375,0.005615234375,0.999755859375,-309.0,89.0,-4.0,101941.0,-5.122000217437744,0,0
1883.738037,-0.80328369140625,0.031005859375,0.045806884765625,0.592987060546875,-0.18310546875,0.244140625,-0.06103515625,0.11083984375,0.005615234375,0.999755859375,-309.0,89.0,-4.0,101941.0,-5.122000217437744,0,0
1883.745021,-0.80328369140625,0.030975341796875,0.045806884765625,0.592987060546875,0.06103515625,0.0,-0.06103515625,0.1123046875,0.0047607421875,0.998779296875,-309.0,89.0,-4.0,101941.0,-5.122000217437744,0,0
1883.752001,-0.80328369140625,0.030975341796875,0.045806884765625,0.592987060546875,0.1220703125,0.3662109375,-0.06103515625,0.109619140625,0.005615234375,0.998046875,-309.0,89.0,-4.0,101941.0,-5.122000217437744,0,0
1883.759015,-0.80328369140625,0.030975341796875,0.0457763671875,0.592987060546875,0.1220703125,0.30517578125,0.0,0.10791015625,0.003662109375,0.9990234375,-310.0,88.0,-5.0,101941.0,-5.122000217437744,0,0
1883.765994,-0.80303955078125,0.030975341796875,0.0457763671875,0.593292236328125,-0.3662109375,0.48828125,-0.1220703125,0.109130859375,0.0062255859375,0.997314453125,-310.0,88.0,-5.0,101941.0,-5.122000217437744,0,0
1883.772998,-0.80303955078125,0.030975341796875,0.0457763671875,0.593292236328125,0.0,0.30517578125,0.0,0.109375,0.0035400390625,0.997802734375,-310.0,88.0,-5.0,101941.0,-5.122000217437744,0,0
1883.780018,-0.80303955078125,0.030975341796875,0.0457763671875,0.593292236328125,0.18310546875,0.244140625,0.0,0.109619140625,0.0035400390625,0.99853515625,-310.0,88.0,-5.0,101941.0,-5.122000217437744,0,0
1883.787002,-0.80303955078125,0.030975341796875,0.045745849609375,0.593292236328125,0.0,0.18310546875,-0.1220703125,0.110595703125,0.004150390625,0.999267578125,-310.0,88.0,-5.0,101941.0,-5.122000217437744,0,0
1883.794018,-0.80303955078125,0.030975341796875,0.045745849609375,0.593292236328125,0.0,0.18310546875,0.0,0.108642578125,0.005615234375,0.99755859375,-310.0,88.0,-5.0,101941.0,-5.122000217437744,0,0
1883.800996,-0.80303955078125,0.030975341796875,0.045745849609375,0.593292236328125,0.06103515625,0.244140625,-0.1220703125,0.1123046875,0.0045166015625,0.9981689453125,-310.0,88.0,-5.0,101941.0,-5.122000217437744,0,0
1883.807995,-0.80303955078125,0.030975341796875,0.045745849609375,0.593292236328125,0.0,0.06103515625,0.06103515625,0.1131591796875,0.0023193359375,0.9996337890625,-310.0,88.0,-5.0,101941.0,-5.122000217437744,0,0
1883.815016,-0.80303955078125,0.030975341796875,0.0457763671875,0.593292236328125,-0.1220703125,0.06103515625,0.0,0.1114501953125,0.0040283203125,1.0006103515625,-310.0,88.0,-5.0,101941.0,-5.122000217437744,0,0
1883.822004,-0.80303955078125,0.030975341796875,0.0457763671875,0.593292236328125,0.0,0.3662109375,0.06103515625,0.111083984375,0.00439453125,0.9974365234375,-310.0,88.0,-5.0,101941.0,-5.122000217437744,0,0
1883.842001,-0.80303955078125,0.030975341796875,0.045745849609375,0.593292236328125,0.06103515625,0.244140625,-0.06103515625,0.110595703125,0.005615234375,0.9989013671875,-310.0,88.0,-5.0,101941.0,-5.122000217437744,0,0
1883.849015,-0.80303955078125,0.030975341796875,0.045745849609375,0.593292236328125,0.1220703125,0.244140625,0.0,0.109375,0.00390625,0.9993896484375,-310.0,88.0,-5.0,101941.0,-5.122000217437744,0,0
1883.855994,-0.80303955078125,0.030975341796875,0.045745849609375,0.593292236328125,-0.06103515625,0.06103515625,-0.1220703125,0.1109619140625,0.0029296875,0.9974365234375,-310.0,88.0,-5.0,101941.0,-5.122000217437744,0,0
1883.862998,-0.80303955078125,0.030975341796875,0.045745849609375,0.593292236328125,0.1220703125,0.18310546875,0.18310546875,0.1104736328125,0.0037841796875,0.999267578125,-310.0,88.0,-5.0,101941.0,-5.121000289916992,0,0
1883.870018,-0.802825927734375,0.030975341796875,0.045745849609375,0.5936279296875,-0.06103515625,0.244140625,0.1220703125,0.1116943359375,0.0057373046875,0.9993896484375,-310.0,88.0,-5.0,101941.0,-5.121000289916992,0,0
1883.877002,-0.802825927734375,0.030975341796875,0.045745849609375,0.5936279296875,0.1220703125,0.244140625,-0.06103515625,0.110107421875,0.004150390625,0.9981689453125,-310.0,88.0,-5.0,101941.0,-5.121000289916992,0,0
1883.884018,-0.802825927734375,0.030975341796875,0.045745849609375,0.5936279296875,0.1220703125,0.30517578125,-0.06103515625,0.110595703125,0.0064697265625,0.9984130859375,-310.0,88.0,-5.0,101941.0,-5.121000289916992,0,0
1883.890996,-0.802825927734375,0.030975341796875,0.045745849609375,0.5936279296875,0.06103515625,0.3662109375,0.06103515625,0.1116943359375,0.005615234375,0.9974365234375,-310.0,88.0,-5.0,101941.0,-5.121000289916992,0,0
1883.897996,-0.802825927734375,0.030975341796875,0.045745849609375,0.5936279296875,-0.1220703125,0.1220703125,0.0,0.1109619140625,0.0030517578125,0.999267578125,-310.0,88.0,-5.0,101941.0,-5.121000289916992,0,0
1883.90502,-0.802825927734375,0.030975341796875,0.045745849609375,0.5936279296875,0.1220703125,0.1220703125,-0.06103515625,0.1114501953125,0.00537109375,0.9981689453125,-310.0,88.0,-5.0,101941.0,-5.121000289916992,0,0
1883.912004,-0.802825927734375,0.030975341796875,0.045745849609375,0.5936279296875,-0.06103515625,0.1220703125,-0.1220703125,0.11083984375,0.00341796875,0.9990234375,-310.0,88.0,-5.0,101941.0,-5.121000289916992,0,0
