Time stamp(sec),quaternion_0,quaternion_1,quaternion_2,quaternion_3,roll_angular_rate,pitch_angular_rate,yaw_angular_rate,acc_X,acc_Y,acc_Z,mag_X,mag_Y,mag_Z,pressure,altitude
19.574996,0.838836669921875,-0.4241943359375,-0.27728271484375,-0.198699951171875,-0.1220703125,-0.18310546875,-0.06103515625,0.6343994140625,-0.6009521484375,0.486328125,-198.0,269.0,6.0,102285.0,-7.969000339508057,0,0
19.579993,0.838836669921875,-0.4241943359375,-0.27728271484375,-0.198699951171875,0.18310546875,0.0,-0.06103515625,0.633056640625,-0.6015625,0.4859619140625,-198.0,269.0,6.0,102285.0,-7.969000339508057,0,0
19.584993,0.838836669921875,-0.4241943359375,-0.27728271484375,-0.198699951171875,0.1220703125,0.0,-0.06103515625,0.6336669921875,-0.60302734375,0.4871826171875,-198.0,269.0,6.0,102285.0,-7.969000339508057,0,0
19.589994,0.838836669921875,-0.424163818359375,-0.27728271484375,-0.198699951171875,0.0,-0.1220703125,-0.06103515625,0.6329345703125,-0.5994873046875,0.489013671875,-198.0,269.0,6.0,102285.0,-7.969000339508057,0,0
19.594995,0.838836669921875,-0.4241943359375,-0.27728271484375,-0.198699951171875,0.30517578125,-0.30517578125,-0.18310546875,0.6357421875,-0.60009765625,0.4854736328125,-198.0,269.0,6.0,102285.0,-7.969000339508057,0,0
19.599992,0.838836669921875,-0.4241943359375,-0.27728271484375,-0.198699951171875,0.48828125,0.0,-0.244140625,0.634521484375,-0.6026611328125,0.485595703125,-198.0,269.0,6.0,102285.0,-7.969000339508057,0,0
19.604993,0.838836669921875,-0.4241943359375,-0.27728271484375,-0.198699951171875,0.1220703125,-0.1220703125,-0.30517578125,0.63330078125,-0.6009521484375,0.488037109375,-198.0,269.0,6.0,102285.0,-7.969000339508057,0,0
19.609993,0.838836669921875,-0.424163818359375,-0.27728271484375,-0.198699951171875,0.18310546875,0.0,-0.06103515625,0.6334228515625,-0.602294921875,0.4881591796875,-198.0,269.0,6.0,102285.0,-7.969000339508057,0,0
19.614022,0.838836669921875,-0.424163818359375,-0.27728271484375,-0.198699951171875,0.18310546875,0.0,-0.06103515625,0.6334228515625,-0.602294921875,0.4881591796875,-198.0,269.0,6.0,102285.0,-7.969000339508057,0,0
19.618993,0.838836669921875,-0.424163818359375,-0.27728271484375,-0.198699951171875,0.0,-0.244140625,-0.18310546875,0.6356201171875,-0.5999755859375,0.486572265625,-198.0,269.0,6.0,102285.0,-7.969000339508057,0,0
19.623994,0.838836669921875,-0.424163818359375,-0.27728271484375,-0.198699951171875,0.06103515625,-0.30517578125,-0.06103515625,0.63525390625,-0.60009765625,0.4864501953125,-198.0,269.0,6.0,102285.0,-7.969000339508057,0,0
19.628996,0.838836669921875,-0.424163818359375,-0.27728271484375,-0.198699951171875,0.0,-0.30517578125,-0.42724609375,0.6337890625,-0.599365234375,0.4854736328125,-198.0,269.0,6.0,102285.0,-7.969000339508057,0,0
19.633993,0.838836669921875,-0.424163818359375,-0.27728271484375,-0.198699951171875,0.244140625,-0.244140625,-0.18310546875,0.6339111328125,-0.601318359375,0.4857177734375,-198.0,269.0,6.0,102285.0,-7.969000339508057,0,0
19.638993,0.838836669921875,-0.4241943359375,-0.27728271484375,-0.198699951171875,0.0,-0.06103515625,-0.1220703125,0.633544921875,-0.6024169921875,0.48681640625,-198.0,269.0,6.0,102285.0,-7.969000339508057,0,0
19.643994,0.838836669921875,-0.4241943359375,-0.27728271484375,-0.198699951171875,-0.06103515625,-0.18310546875,-0.18310546875,0.6334228515625,-0.60205078125,0.4853515625,-198.0,269.0,6.0,102285.0,-7.969000339508057,0,0
19.648995,0.838836669921875,-0.4241943359375,-0.27728271484375,-0.198699951171875,0.06103515625,-0.48828125,-0.18310546875,0.6336669921875,-0.601318359375,0.48779296875,-198.0,269.0,6.0,102285.0,-7.969000339508057,0,0
19.653992,0.838836669921875,-0.4241943359375,-0.27728271484375,-0.198699951171875,-0.1220703125,0.0,-0.18310546875,0.63427734375,-0.6016845703125,0.4874267578125,-198.0,269.0,6.0,102285.0,-7.969000339508057,0,0
19.658993,0.838836669921875,-0.424163818359375,-0.27728271484375,-0.198699951171875,0.1220703125,-0.06103515625,-0.30517578125,0.6351318359375,-0.601806640625,0.4876708984375,-198.0,269.0,6.0,102285.0,-7.969000339508057,0,0
19.663993,0.8388671875,-0.42413330078125,-0.27734375,-0.198577880859375,0.18310546875,-0.06103515625,-0.1220703125,0.6356201171875,-0.60009765625,0.4862060546875,-199.0,270.0,5.0,102285.0,-7.969000339508057,0,0
19.668994,0.8388671875,-0.42413330078125,-0.27734375,-0.198577880859375,0.1220703125,0.18310546875,-0.06103515625,0.6361083984375,-0.6002197265625,0.486083984375,-199.0,270.0,5.0,102285.0,-7.969000339508057,0,0
19.673996,0.8388671875,-0.42413330078125,-0.27734375,-0.1986083984375,0.1220703125,-0.18310546875,-0.30517578125,0.6357421875,-0.599609375,0.4854736328125,-199.0,270.0,5.0,102285.0,-7.969000339508057,0,0
19.678027,0.8388671875,-0.42413330078125,-0.27734375,-0.1986083984375,0.1220703125,-0.18310546875,-0.30517578125,0.6357421875,-0.599609375,0.4854736328125,-199.0,270.0,5.0,102285.0,-7.969000339508057,0,0
19.682996,0.8388671875,-0.42413330078125,-0.277374267578125,-0.1986083984375,0.1220703125,-0.18310546875,-0.18310546875,0.6365966796875,-0.6005859375,0.487548828125,-199.0,270.0,5.0,102285.0,-7.969000339508057,0,0
19.697995,0.8388671875,-0.42413330078125,-0.277374267578125,-0.1986083984375,0.0,-0.244140625,-0.1220703125,0.63623046875,-0.6007080078125,0.4871826171875,-199.0,270.0,5.0,102285.0,-7.969000339508057,0,0
19.702997,0.8388671875,-0.42413330078125,-0.277374267578125,-0.1986083984375,0.30517578125,-0.06103515625,-0.244140625,0.6334228515625,-0.601806640625,0.486328125,-199.0,270.0,5.0,102285.0,-7.969000339508057,0,0
19.707997,0.8388671875,-0.42413330078125,-0.277374267578125,-0.1986083984375,-0.06103515625,-0.244140625,-0.30517578125,0.635498046875,-0.60205078125,0.485595703125,-199.0,270.0,5.0,102286.0,-7.9710001945495605,0,0
19.712994,0.8388671875,-0.42413330078125,-0.277374267578125,-0.1986083984375,0.18310546875,-0.1220703125,0.0,0.6336669921875,-0.6009521484375,0.4874267578125,-199.0,270.0,5.0,102286.0,-7.9710001945495605,0,0
19.717994,0.8388671875,-0.42413330078125,-0.277374267578125,-0.1986083984375,0.1220703125,-0.244140625,-0.1220703125,0.6353759765625,-0.6007080078125,0.4862060546875,-199.0,270.0,5.0,102286.0,-7.9710001945495605,0,0
19.722994,0.8388671875,-0.424102783203125,-0.277374267578125,-0.1986083984375,0.1220703125,-0.244140625,-0.1220703125,0.6353759765625,-0.6007080078125,0.4862060546875,-199.0,270.0,5.0,102286.0,-7.9710001945495605,0,0
19.727997,0.8388671875,-0.42413330078125,-0.277374267578125,-0.1986083984375,-0.1220703125,-0.244140625,-0.1220703125,0.6341552734375,-0.6015625,0.4849853515625,-199.0,270.0,5.0,102286.0,-7.9710001945495605,0,0
19.732994,0.8388671875,-0.42413330078125,-0.277374267578125,-0.1986083984375,0.244140625,-0.1220703125,-0.244140625,0.63134765625,-0.601318359375,0.48681640625,-199.0,270.0,5.0,102286.0,-7.9710001945495605,0,0
19.737994,0.8388671875,-0.42413330078125,-0.277374267578125,-0.1986083984375,-0.1220703125,-0.1220703125,-0.1220703125,0.6343994140625,-0.6019287109375,0.48681640625,-199.0,270.0,5.0,102286.0,-7.9710001945495605,0,0
19.742995,0.8388671875,-0.42413330078125,-0.277374267578125,-0.1986083984375,0.244140625,0.06103515625,-0.18310546875,0.632568359375,-0.6019287109375,0.48779296875,-199.0,270.0,5.0,102286.0,-7.9710001945495605,0,0
19.747025,0.8388671875,-0.42413330078125,-0.277374267578125,-0.1986083984375,0.244140625,0.06103515625,-0.18310546875,0.632568359375,-0.6019287109375,0.48779296875,-199.0,270.0,5.0,102286.0,-7.9710001945495605,0,0
19.761992,0.838897705078125,-0.424072265625,-0.277435302734375,-0.198486328125,0.0,0.06103515625,-0.18310546875,0.6348876953125,-0.60107421875,0.4864501953125,-199.0,270.0,5.0,102286.0,-7.9710001945495605,0,0
19.766993,0.838897705078125,-0.424072265625,-0.277435302734375,-0.198486328125,0.18310546875,-0.244140625,-0.30517578125,0.6346435546875,-0.6011962890625,0.4866943359375,-199.0,270.0,5.0,102286.0,-7.9710001945495605,0,0
19.771993,0.838897705078125,-0.424072265625,-0.277435302734375,-0.198486328125,-0.06103515625,-0.18310546875,-0.1220703125,0.6353759765625,-0.599853515625,0.4874267578125,-199.0,270.0,5.0,102286.0,-7.9710001945495605,0,0
19.776994,0.838897705078125,-0.424072265625,-0.277435302734375,-0.198486328125,0.3662109375,-0.06103515625,-0.244140625,0.6348876953125,-0.60107421875,0.4879150390625,-199.0,270.0,5.0,102286.0,-7.9710001945495605,0,0
19.781996,0.838897705078125,-0.424072265625,-0.277435302734375,-0.198486328125,0.0,-0.06103515625,-0.3662109375,0.634765625,-0.604736328125,0.488525390625,-199.0,270.0,5.0,102286.0,-7.9710001945495605,0,0
19.786993,0.838897705078125,-0.424072265625,-0.277435302734375,-0.198486328125,0.06103515625,-0.30517578125,-0.1220703125,0.6319580078125,-0.6025390625,0.48876953125,-199.0,270.0,5.0,102286.0,-7.9710001945495605,0,0
19.791993,0.838897705078125,-0.424072265625,-0.277435302734375,-0.198486328125,0.30517578125,-0.244140625,-0.30517578125,0.6326904296875,-0.6036376953125,0.4852294921875,-199.0,270.0,5.0,102286.0,-7.9710001945495605,0,0
19.796994,0.838897705078125,-0.424072265625,-0.277435302734375,-0.198486328125,0.18310546875,-0.1220703125,0.1220703125,0.6318359375,-0.6002197265625,0.4853515625,-199.0,270.0,5.0,102286.0,-7.9710001945495605,0,0
19.801995,0.838897705078125,-0.424072265625,-0.277435302734375,-0.198486328125,0.244140625,-0.06103515625,-0.06103515625,0.6351318359375,-0.6021728515625,0.48583984375,-199.0,270.0,5.0,102286.0,-7.9710001945495605,0,0
19.806993,0.838897705078125,-0.424072265625,-0.277435302734375,-0.198486328125,0.1220703125,-0.42724609375,-0.30517578125,0.633544921875,-0.6021728515625,0.4869384765625,-199.0,270.0,5.0,102285.0,-7.967000484466553,0,0
19.811021,0.838897705078125,-0.424072265625,-0.277435302734375,-0.198486328125,0.1220703125,-0.42724609375,-0.30517578125,0.633544921875,-0.6021728515625,0.4869384765625,-199.0,270.0,5.0,102285.0,-7.967000484466553,0,0
19.825993,0.838897705078125,-0.424072265625,-0.277435302734375,-0.198486328125,0.0,-0.1220703125,-0.06103515625,0.6318359375,-0.601806640625,0.4864501953125,-199.0,270.0,5.0,102285.0,-7.967000484466553,0,0
19.830994,0.838897705078125,-0.424072265625,-0.277435302734375,-0.198486328125,-0.244140625,0.0,-0.244140625,0.631591796875,-0.6011962890625,0.486572265625,-199.0,270.0,5.0,102285.0,-7.967000484466553,0,0
19.835996,0.838897705078125,-0.424072265625,-0.27740478515625,-0.198486328125,-0.244140625,-0.30517578125,-0.18310546875,0.6336669921875,-0.6019287109375,0.487060546875,-199.0,270.0,5.0,102285.0,-7.967000484466553,0,0
19.840993,0.838897705078125,-0.424072265625,-0.277435302734375,-0.198486328125,0.244140625,-0.18310546875,-0.244140625,0.635498046875,-0.6015625,0.4864501953125,-199.0,270.0,5.0,102285.0,-7.967000484466553,0,0
19.845993,0.838897705078125,-0.424072265625,-0.27740478515625,-0.198486328125,0.1220703125,0.0,-0.06103515625,0.633056640625,-0.6015625,0.48583984375,-199.0,270.0,5.0,102285.0,-7.967000484466553,0,0
19.850994,0.838897705078125,-0.424072265625,-0.27740478515625,-0.198486328125,0.06103515625,-0.244140625,-0.18310546875,0.63330078125,-0.6007080078125,0.4871826171875,-199.0,270.0,5.0,102285.0,-7.967000484466553,0,0
19.855995,0.838897705078125,-0.424072265625,-0.27740478515625,-0.198486328125,0.1220703125,-0.18310546875,-0.3662109375,0.63330078125,-0.6011962890625,0.488037109375,-199.0,270.0,5.0,102285.0,-7.967000484466553,0,0
19.860996,0.838897705078125,-0.424072265625,-0.27740478515625,-0.198486328125,0.244140625,-0.18310546875,-0.06103515625,0.6351318359375,-0.6025390625,0.4874267578125,-199.0,270.0,5.0,102285.0,-7.967000484466553,0,0
19.865993,0.83892822265625,-0.42401123046875,-0.2774658203125,-0.1983642578125,-0.30517578125,-0.1220703125,-0.18310546875,0.6353759765625,-0.6025390625,0.4874267578125,-199.0,270.0,5.0,102285.0,-7.967000484466553,0,0
19.870993,0.83892822265625,-0.42401123046875,-0.2774658203125,-0.1983642578125,0.0,-0.244140625,-0.18310546875,0.63330078125,-0.5999755859375,0.488037109375,-199.0,270.0,5.0,102285.0,-7.967000484466553,0,0
19.884994,0.83892822265625,-0.424041748046875,-0.2774658203125,-0.1983642578125,0.18310546875,0.0,-0.1220703125,0.635009765625,-0.603759765625,0.4854736328125,-199.0,270.0,5.0,102285.0,-7.967000484466553,0,0
19.889996,0.83892822265625,-0.424041748046875,-0.2774658203125,-0.1983642578125,0.1220703125,0.06103515625,-0.18310546875,0.6337890625,-0.6025390625,0.4864501953125,-199.0,270.0,5.0,102285.0,-7.967000484466553,0,0
19.894993,0.83892822265625,-0.424041748046875,-0.2774658203125,-0.1983642578125,0.3662109375,0.0,-0.3662109375,0.633544921875,-0.6009521484375,0.4873046875,-199.0,270.0,5.0,102285.0,-7.967000484466553,0,0
19.899993,0.83892822265625,-0.424041748046875,-0.2774658203125,-0.1983642578125,0.18310546875,-0.18310546875,0.0,0.6334228515625,-0.6019287109375,0.4852294921875,-199.0,270.0,5.0,102285.0,-7.967000484466553,0,0
19.904995,0.83892822265625,-0.424041748046875,-0.2774658203125,-0.1983642578125,-0.1220703125,0.0,-0.244140625,0.6339111328125,-0.601318359375,0.4873046875,-199.0,270.0,5.0,102285.0,-7.967000484466553,0,0
19.909997,0.83892822265625,-0.42401123046875,-0.2774658203125,-0.1983642578125,0.244140625,-0.1220703125,-0.30517578125,0.6337890625,-0.6016845703125,0.4888916015625,-199.0,270.0,5.0,102285.0,-7.969000339508057,0,0
19.914996,0.83892822265625,-0.42401123046875,-0.2774658203125,-0.1983642578125,0.42724609375,-0.18310546875,-0.30517578125,0.6341552734375,-0.60205078125,0.487060546875,-199.0,270.0,5.0,102285.0,-7.969000339508057,0,0
19.919994,0.83892822265625,-0.42401123046875,-0.2774658203125,-0.1983642578125,-0.30517578125,-0.06103515625,0.0,0.630615234375,-0.6011962890625,0.4847412109375,-199.0,270.0,5.0,102285.0,-7.969000339508057,0,0
19.924994,0.83892822265625,-0.42401123046875,-0.2774658203125,-0.1983642578125,0.06103515625,-0.06103515625,-0.06103515625,0.6326904296875,-0.599365234375,0.4854736328125,-199.0,270.0,5.0,102285.0,-7.969000339508057,0,0
19.929994,0.83892822265625,-0.42401123046875,-0.2774658203125,-0.1983642578125,0.42724609375,0.1220703125,-0.1220703125,0.6348876953125,-0.600341796875,0.48486328125,-199.0,270.0,5.0,102285.0,-7.969000339508057,0,0
19.934997,0.83892822265625,-0.424041748046875,-0.2774658203125,-0.1983642578125,-0.1220703125,0.0,-0.244140625,0.6317138671875,-0.6019287109375,0.48486328125,-199.0,270.0,5.0,102285.0,-7.969000339508057,0,0
19.948998,0.83892822265625,-0.424041748046875,-0.2774658203125,-0.1983642578125,0.244140625,-0.18310546875,-0.06103515625,0.6328125,-0.600830078125,0.4864501953125,-199.0,270.0,5.0,102285.0,-7.969000339508057,0,0
19.953994,0.83892822265625,-0.424041748046875,-0.2774658203125,-0.1983642578125,0.1220703125,-0.18310546875,0.06103515625,0.634521484375,-0.6014404296875,0.4852294921875,-199.0,270.0,5.0,102285.0,-7.969000339508057,0,0
19.958995,0.83892822265625,-0.424041748046875,-0.2774658203125,-0.1983642578125,0.1220703125,-0.18310546875,0.06103515625,0.634521484375,-0.6014404296875,0.4852294921875,-199.0,269.0,6.0,102285.0,-7.969000339508057,0,0
19.963997,0.83892822265625,-0.424041748046875,-0.2774658203125,-0.1983642578125,0.18310546875,-0.18310546875,-0.1220703125,0.63232421875,-0.6016845703125,0.4859619140625,-199.0,269.0,6.0,102285.0,-7.969000339508057,0,0
19.968996,0.83892822265625,-0.424041748046875,-0.2774658203125,-0.1983642578125,0.732421875,0.06103515625,-0.244140625,0.6318359375,-0.599365234375,0.4852294921875,-199.0,269.0,6.0,102285.0,-7.969000339508057,0,0
19.973993,0.83892822265625,-0.424041748046875,-0.2774658203125,-0.1983642578125,0.06103515625,-0.06103515625,-0.30517578125,0.6357421875,-0.602294921875,0.4864501953125,-199.0,269.0,6.0,102285.0,-7.969000339508057,0,0
19.978993,0.83892822265625,-0.424041748046875,-0.2774658203125,-0.1983642578125,-0.06103515625,0.06103515625,0.0,0.6336669921875,-0.6024169921875,0.48583984375,-199.0,269.0,6.0,102285.0,-7.969000339508057,0,0
19.983994,0.83892822265625,-0.424041748046875,-0.2774658203125,-0.1983642578125,0.06103515625,-0.244140625,0.06103515625,0.6334228515625,-0.6041259765625,0.486328125,-199.0,269.0,6.0,102285.0,-7.969000339508057,0,0
19.988996,0.83892822265625,-0.424041748046875,-0.2774658203125,-0.1983642578125,-0.18310546875,-0.1220703125,-0.30517578125,0.633544921875,-0.6015625,0.485595703125,-199.0,269.0,6.0,102285.0,-7.969000339508057,0,0
19.993993,0.83892822265625,-0.424041748046875,-0.2774658203125,-0.1983642578125,0.1220703125,-0.06103515625,-0.30517578125,0.6329345703125,-0.6011962890625,0.4869384765625,-199.0,269.0,6.0,102285.0,-7.969000339508057,0,0
19.998993,0.83892822265625,-0.424041748046875,-0.2774658203125,-0.1983642578125,0.3662109375,0.06103515625,0.0,0.6339111328125,-0.60107421875,0.48583984375,-199.0,269.0,6.0,102285.0,-7.969000339508057,0,0
20.003994,0.83892822265625,-0.424041748046875,-0.2774658203125,-0.1983642578125,0.0,-0.18310546875,-0.06103515625,0.6341552734375,-0.600341796875,0.4857177734375,-199.0,269.0,6.0,102285.0,-7.969000339508057,0,0
20.008995,0.83892822265625,-0.424041748046875,-0.2774658203125,-0.1983642578125,0.0,0.06103515625,-0.06103515625,0.6339111328125,-0.599853515625,0.4844970703125,-199.0,269.0,6.0,102285.0,-7.969000339508057,0,0
20.01302,0.83892822265625,-0.424041748046875,-0.2774658203125,-0.1983642578125,0.0,0.06103515625,-0.06103515625,0.6339111328125,-0.599853515625,0.4844970703125,-199.0,269.0,6.0,102285.0,-7.969000339508057,0,0
20.017995,0.83892822265625,-0.424041748046875,-0.2774658203125,-0.1983642578125,-0.18310546875,-0.244140625,-0.06103515625,0.6336669921875,-0.5994873046875,0.4874267578125,-199.0,269.0,6.0,102285.0,-7.969000339508057,0,0
20.022996,0.83892822265625,-0.424072265625,-0.2774658203125,-0.1983642578125,0.0,0.0,0.0,0.63525390625,-0.6029052734375,0.486572265625,-199.0,269.0,6.0,102285.0,-7.969000339508057,0,0
20.027993,0.83892822265625,-0.424072265625,-0.2774658203125,-0.198333740234375,-0.1220703125,-0.30517578125,0.06103515625,0.6336669921875,-0.6041259765625,0.486328125,-199.0,269.0,6.0,102285.0,-7.969000339508057,0,0
20.032993,0.83892822265625,-0.424072265625,-0.2774658203125,-0.198333740234375,0.0,-0.18310546875,-0.1220703125,0.634033203125,-0.60107421875,0.4859619140625,-199.0,269.0,6.0,102285.0,-7.969000339508057,0,0
20.037994,0.83892822265625,-0.424072265625,-0.2774658203125,-0.198333740234375,-0.18310546875,-0.18310546875,0.0,0.6326904296875,-0.60107421875,0.486572265625,-199.0,269.0,6.0,102285.0,-7.969000339508057,0,0
20.042996,0.83892822265625,-0.424072265625,-0.2774658203125,-0.1983642578125,-0.1220703125,-0.06103515625,-0.06103515625,0.6351318359375,-0.6009521484375,0.486328125,-199.0,269.0,6.0,102285.0,-7.969000339508057,0,0
20.047993,0.83892822265625,-0.424041748046875,-0.2774658203125,-0.1983642578125,0.1220703125,0.06103515625,-0.18310546875,0.634033203125,-0.600341796875,0.4862060546875,-199.0,269.0,6.0,102285.0,-7.969000339508057,0,0
20.052993,0.83892822265625,-0.424072265625,-0.2774658203125,-0.198333740234375,0.06103515625,-0.1220703125,-0.1220703125,0.6334228515625,-0.6005859375,0.485107421875,-199.0,269.0,6.0,102285.0,-7.969000339508057,0,0
20.057994,0.83892822265625,-0.424072265625,-0.2774658203125,-0.198333740234375,0.06103515625,-0.1220703125,-0.1220703125,0.6334228515625,-0.6005859375,0.485107421875,-199.0,268.0,5.0,102285.0,-7.969000339508057,0,0
20.072993,0.8388671875,-0.424163818359375,-0.27734375,-0.198577880859375,0.1220703125,-0.1220703125,-0.06103515625,0.6339111328125,-0.6009521484375,0.4873046875,-199.0,268.0,5.0,102285.0,-7.969000339508057,0,0
20.077022,0.8388671875,-0.424163818359375,-0.27734375,-0.198577880859375,0.1220703125,-0.1220703125,-0.06103515625,0.6339111328125,-0.6009521484375,0.4873046875,-199.0,268.0,5.0,102285.0,-7.969000339508057,0,0
20.081993,0.8388671875,-0.424163818359375,-0.27734375,-0.198577880859375,0.1220703125,-0.06103515625,-0.06103515625,0.63232421875,-0.6009521484375,0.4866943359375,-199.0,268.0,5.0,102285.0,-7.969000339508057,0,0
20.086993,0.8388671875,-0.424163818359375,-0.27734375,-0.198577880859375,0.0,-0.30517578125,-0.18310546875,0.635009765625,-0.6016845703125,0.4852294921875,-199.0,268.0,5.0,102285.0,-7.969000339508057,0,0
20.091994,0.8388671875,-0.424163818359375,-0.27734375,-0.198577880859375,0.18310546875,-0.1220703125,-0.18310546875,0.6336669921875,-0.6011962890625,0.4837646484375,-199.0,268.0,5.0,102285.0,-7.969000339508057,0,0
20.096996,0.8388671875,-0.424163818359375,-0.27734375,-0.198577880859375,-0.1220703125,-0.244140625,0.18310546875,0.635009765625,-0.6005859375,0.485595703125,-199.0,268.0,5.0,102285.0,-7.969000339508057,0,0
20.101993,0.8388671875,-0.424163818359375,-0.27734375,-0.198577880859375,0.06103515625,-0.1220703125,-0.18310546875,0.634033203125,-0.6015625,0.486328125,-199.0,268.0,5.0,102285.0,-7.969000339508057,0,0
20.106993,0.8388671875,-0.424163818359375,-0.27734375,-0.198577880859375,0.0,-0.18310546875,0.06103515625,0.6337890625,-0.60205078125,0.48583984375,-199.0,268.0,5.0,102286.0,-7.9710001945495605,0,0
20.111994,0.838836669921875,-0.424163818359375,-0.277374267578125,-0.198577880859375,0.18310546875,-0.18310546875,-0.18310546875,0.6390380859375,-0.600830078125,0.4859619140625,-199.0,268.0,5.0,102286.0,-7.9710001945495605,0,0
20.116997,0.838836669921875,-0.424163818359375,-0.277374267578125,-0.1986083984375,0.0,-0.06103515625,-0.06103515625,0.63525390625,-0.6024169921875,0.48779296875,-199.0,268.0,5.0,102286.0,-7.9710001945495605,0,0
20.131994,0.8388671875,-0.42413330078125,-0.277374267578125,-0.1986083984375,0.30517578125,-0.06103515625,-0.244140625,0.632568359375,-0.6007080078125,0.4849853515625,-199.0,268.0,5.0,102286.0,-7.9710001945495605,0,0
20.136994,0.8388671875,-0.424163818359375,-0.277374267578125,-0.1986083984375,0.3662109375,-0.18310546875,-0.18310546875,0.633056640625,-0.5999755859375,0.486328125,-199.0,268.0,5.0,102286.0,-7.9710001945495605,0,0
20.141026,0.8388671875,-0.424163818359375,-0.277374267578125,-0.1986083984375,0.3662109375,-0.18310546875,-0.18310546875,0.633056640625,-0.5999755859375,0.486328125,-199.0,268.0,5.0,102286.0,-7.9710001945495605,0,0
20.145994,0.838836669921875,-0.424163818359375,-0.277374267578125,-0.198577880859375,0.30517578125,-0.3662109375,-0.1220703125,0.633056640625,-0.601318359375,0.4842529296875,-199.0,268.0,5.0,102286.0,-7.9710001945495605,0,0
20.150997,0.838836669921875,-0.424163818359375,-0.277374267578125,-0.1986083984375,-0.06103515625,-0.06103515625,-0.18310546875,0.6346435546875,-0.601318359375,0.486083984375,-199.0,268.0,5.0,102286.0,-7.9710001945495605,0,0
20.155994,0.8388671875,-0.424163818359375,-0.277374267578125,-0.198577880859375,0.30517578125,-0.18310546875,-0.1220703125,0.6328125,-0.6025390625,0.4862060546875,-199.0,268.0,5.0,102286.0,-7.9710001945495605,0,0
20.160994,0.8388671875,-0.424163818359375,-0.277374267578125,-0.198577880859375,0.0,-0.30517578125,-0.18310546875,0.6341552734375,-0.601318359375,0.4869384765625,-199.0,268.0,6.0,102286.0,-7.9710001945495605,0,0
20.165995,0.83880615234375,-0.424224853515625,-0.2772216796875,-0.198822021484375,-0.18310546875,0.0,-0.244140625,0.6317138671875,-0.6024169921875,0.4866943359375,-199.0,268.0,6.0,102286.0,-7.9710001945495605,0,0
20.170997,0.83880615234375,-0.424224853515625,-0.2772216796875,-0.198822021484375,0.244140625,0.06103515625,-0.18310546875,0.6307373046875,-0.6015625,0.4857177734375,-199.0,268.0,6.0,102286.0,-7.9710001945495605,0,0
20.175997,0.83880615234375,-0.424224853515625,-0.2772216796875,-0.198822021484375,-0.06103515625,-0.1220703125,-0.06103515625,0.6329345703125,-0.6016845703125,0.4864501953125,-199.0,268.0,6.0,102286.0,-7.9710001945495605,0,0
20.180994,0.83880615234375,-0.424224853515625,-0.2772216796875,-0.198822021484375,0.1220703125,-0.244140625,-0.1220703125,0.6326904296875,-0.599853515625,0.48681640625,-199.0,268.0,6.0,102286.0,-7.9710001945495605,0,0
20.185993,0.83880615234375,-0.424224853515625,-0.2772216796875,-0.198822021484375,0.244140625,0.1220703125,-0.244140625,0.6329345703125,-0.600830078125,0.486328125,-199.0,268.0,6.0,102286.0,-7.9710001945495605,0,0
20.190994,0.83880615234375,-0.424224853515625,-0.2772216796875,-0.198822021484375,-0.18310546875,-0.244140625,0.0,0.6317138671875,-0.6007080078125,0.48681640625,-199.0,268.0,6.0,102286.0,-7.9710001945495605,0,0
20.195996,0.83880615234375,-0.424224853515625,-0.2772216796875,-0.198822021484375,0.244140625,-0.1220703125,-0.18310546875,0.6337890625,-0.603515625,0.487060546875,-199.0,268.0,6.0,102286.0,-7.9710001945495605,0,0
20.200993,0.83880615234375,-0.424224853515625,-0.2772216796875,-0.198822021484375,0.0,-0.06103515625,-0.1220703125,0.6324462890625,-0.6031494140625,0.4859619140625,-199.0,268.0,6.0,102286.0,-7.9710001945495605,0,0
20.205993,0.83880615234375,-0.424224853515625,-0.2772216796875,-0.198822021484375,-0.1220703125,-0.06103515625,0.0,0.6324462890625,-0.601318359375,0.48681640625,-199.0,268.0,6.0,102285.0,-7.968000411987305,0,0
20.210022,0.83880615234375,-0.424224853515625,-0.2772216796875,-0.198822021484375,-0.1220703125,-0.06103515625,0.0,0.6324462890625,-0.601318359375,0.48681640625,-199.0,268.0,6.0,102285.0,-7.968000411987305,0,0
20.259993,0.83880615234375,-0.42425537109375,-0.2772216796875,-0.198822021484375,0.06103515625,-0.18310546875,-0.18310546875,0.633544921875,-0.603515625,0.48583984375,-199.0,266.0,6.0,102285.0,-7.968000411987305,0,0
20.264994,0.8387451171875,-0.424346923828125,-0.277099609375,-0.199066162109375,0.1220703125,-0.1220703125,-0.1220703125,0.63525390625,-0.6014404296875,0.4869384765625,-199.0,266.0,6.0,102285.0,-7.968000411987305,0,0
20.269995,0.8387451171875,-0.424346923828125,-0.277099609375,-0.199066162109375,-0.1220703125,-0.244140625,0.06103515625,0.6339111328125,-0.6015625,0.4847412109375,-199.0,266.0,6.0,102285.0,-7.968000411987305,0,0
20.27402,0.8387451171875,-0.424346923828125,-0.277099609375,-0.199066162109375,-0.1220703125,-0.244140625,0.06103515625,0.6339111328125,-0.6015625,0.4847412109375,-199.0,266.0,6.0,102285.0,-7.968000411987305,0,0
20.278996,0.838714599609375,-0.424346923828125,-0.277099609375,-0.199066162109375,0.06103515625,0.0,-0.3662109375,0.6357421875,-0.6029052734375,0.48583984375,-199.0,266.0,6.0,102285.0,-7.968000411987305,0,0
20.283992,0.838714599609375,-0.424346923828125,-0.277099609375,-0.199066162109375,-0.18310546875,-0.18310546875,-0.1220703125,0.6329345703125,-0.6009521484375,0.486328125,-199.0,266.0,6.0,102285.0,-7.968000411987305,0,0
20.288993,0.838714599609375,-0.424346923828125,-0.277099609375,-0.199066162109375,-0.18310546875,-0.18310546875,-0.1220703125,0.6329345703125,-0.6009521484375,0.486328125,-199.0,266.0,6.0,102285.0,-7.968000411987305,0,0
20.293993,0.8387451171875,-0.424346923828125,-0.277099609375,-0.199066162109375,-0.1220703125,-0.06103515625,-0.1220703125,0.6339111328125,-0.60205078125,0.487060546875,-199.0,266.0,6.0,102285.0,-7.968000411987305,0,0
20.298994,0.8387451171875,-0.424346923828125,-0.277099609375,-0.199066162109375,0.0,-0.42724609375,-0.18310546875,0.6361083984375,-0.5994873046875,0.48681640625,-199.0,266.0,6.0,102285.0,-7.968000411987305,0,0
20.303996,0.8387451171875,-0.424346923828125,-0.277099609375,-0.199066162109375,-0.06103515625,-0.1220703125,-0.06103515625,0.63427734375,-0.5994873046875,0.486328125,-199.0,266.0,6.0,102285.0,-7.968000411987305,0,0
20.318994,0.8387451171875,-0.42431640625,-0.277099609375,-0.199066162109375,0.06103515625,-0.30517578125,-0.18310546875,0.6326904296875,-0.6009521484375,0.4866943359375,-199.0,266.0,6.0,102286.0,-7.970000267028809,0,0
20.323995,0.8387451171875,-0.42431640625,-0.277099609375,-0.199066162109375,0.06103515625,-0.18310546875,0.0,0.632568359375,-0.6011962890625,0.4871826171875,-199.0,266.0,6.0,102286.0,-7.970000267028809,0,0
20.328996,0.8387451171875,-0.42431640625,-0.277099609375,-0.199066162109375,0.18310546875,-0.18310546875,-0.06103515625,0.63427734375,-0.60107421875,0.4849853515625,-199.0,266.0,6.0,102286.0,-7.970000267028809,0,0
20.333994,0.8387451171875,-0.424346923828125,-0.277099609375,-0.199066162109375,-0.06103515625,-0.18310546875,-0.244140625,0.635986328125,-0.6031494140625,0.48681640625,-199.0,266.0,6.0,102286.0,-7.970000267028809,0,0
20.338994,0.8387451171875,-0.42431640625,-0.277099609375,-0.199066162109375,0.1220703125,-0.244140625,-0.18310546875,0.6334228515625,-0.6014404296875,0.4866943359375,-199.0,266.0,6.0,102286.0,-7.970000267028809,0,0
20.343024,0.8387451171875,-0.42431640625,-0.277099609375,-0.199066162109375,0.1220703125,-0.244140625,-0.18310546875,0.6334228515625,-0.6014404296875,0.4866943359375,-199.0,266.0,6.0,102286.0,-7.970000267028809,0,0
20.347994,0.8387451171875,-0.42431640625,-0.277099609375,-0.199066162109375,0.1220703125,-0.1220703125,-0.18310546875,0.6331787109375,-0.6021728515625,0.4864501953125,-199.0,266.0,6.0,102286.0,-7.970000267028809,0,0
20.352994,0.8387451171875,-0.42431640625,-0.277099609375,-0.199066162109375,0.1220703125,-0.244140625,-0.3662109375,0.6329345703125,-0.6014404296875,0.4869384765625,-199.0,266.0,6.0,102286.0,-7.970000267028809,0,0
20.357997,0.8387451171875,-0.42431640625,-0.277099609375,-0.199066162109375,-0.1220703125,-0.1220703125,-0.3662109375,0.63427734375,-0.600830078125,0.4866943359375,-199.0,268.0,5.0,102286.0,-7.970000267028809,0,0
20.362994,0.8387451171875,-0.42431640625,-0.277099609375,-0.199066162109375,0.06103515625,-0.06103515625,-0.1220703125,0.634033203125,-0.6015625,0.486083984375,-199.0,268.0,5.0,102286.0,-7.970000267028809,0,0
20.367994,0.83868408203125,-0.424407958984375,-0.2769775390625,-0.199310302734375,-0.18310546875,-0.244140625,-0.06103515625,0.6317138671875,-0.6011962890625,0.48583984375,-199.0,268.0,5.0,102286.0,-7.970000267028809,0,0
20.372995,0.83868408203125,-0.424407958984375,-0.2769775390625,-0.199310302734375,0.18310546875,-0.06103515625,-0.30517578125,0.635009765625,-0.600830078125,0.4862060546875,-199.0,268.0,5.0,102286.0,-7.970000267028809,0,0
20.377997,0.83868408203125,-0.424407958984375,-0.2769775390625,-0.199310302734375,0.3662109375,-0.06103515625,-0.18310546875,0.6334228515625,-0.600341796875,0.4852294921875,-199.0,268.0,5.0,102286.0,-7.970000267028809,0,0
20.382997,0.83868408203125,-0.424407958984375,-0.2769775390625,-0.199310302734375,0.244140625,-0.18310546875,-0.1220703125,0.633056640625,-0.601318359375,0.4852294921875,-199.0,268.0,5.0,102286.0,-7.970000267028809,0,0
20.387994,0.83868408203125,-0.424407958984375,-0.2769775390625,-0.199310302734375,0.244140625,-0.1220703125,-0.30517578125,0.63330078125,-0.602783203125,0.4874267578125,-199.0,268.0,5.0,102286.0,-7.970000267028809,0,0
20.392994,0.83868408203125,-0.424407958984375,-0.277008056640625,-0.199310302734375,-0.244140625,-0.06103515625,-0.244140625,0.634765625,-0.600830078125,0.4869384765625,-199.0,268.0,5.0,102286.0,-7.970000267028809,0,0
20.397994,0.83868408203125,-0.424407958984375,-0.2769775390625,-0.199310302734375,0.06103515625,-0.30517578125,-0.18310546875,0.6357421875,-0.6024169921875,0.486083984375,-199.0,268.0,5.0,102286.0,-7.970000267028809,0,0
20.402996,0.83868408203125,-0.424407958984375,-0.2769775390625,-0.199310302734375,-0.06103515625,-0.06103515625,0.0,0.6331787109375,-0.602294921875,0.486572265625,-199.0,268.0,5.0,102286.0,-7.970000267028809,0,0
20.407027,0.83868408203125,-0.424407958984375,-0.2769775390625,-0.199310302734375,-0.06103515625,-0.06103515625,0.0,0.6331787109375,-0.602294921875,0.486572265625,-199.0,268.0,5.0,102286.0,-7.970000267028809,0,0
20.411996,0.83868408203125,-0.424407958984375,-0.2769775390625,-0.199310302734375,0.1220703125,0.0,-0.18310546875,0.6328125,-0.6007080078125,0.4853515625,-199.0,268.0,5.0,102285.0,-7.968000411987305,0,0
20.416993,0.83868408203125,-0.424407958984375,-0.2769775390625,-0.199310302734375,0.06103515625,-0.18310546875,-0.1220703125,0.633056640625,-0.6031494140625,0.4871826171875,-199.0,268.0,5.0,102285.0,-7.968000411987305,0,0
20.421993,0.83868408203125,-0.424407958984375,-0.2769775390625,-0.199310302734375,-0.18310546875,0.18310546875,-0.244140625,0.634765625,-0.6011962890625,0.4879150390625,-199.0,268.0,5.0,102285.0,-7.968000411987305,0,0
20.426994,0.83868408203125,-0.424407958984375,-0.2769775390625,-0.199310302734375,0.0,0.0,-0.18310546875,0.63232421875,-0.60302734375,0.4879150390625,-199.0,268.0,5.0,102285.0,-7.968000411987305,0,0
20.441993,0.83868408203125,-0.424407958984375,-0.2769775390625,-0.199310302734375,-0.06103515625,-0.18310546875,-0.244140625,0.6326904296875,-0.6015625,0.4833984375,-199.0,268.0,5.0,102285.0,-7.968000411987305,0,0
20.446993,0.83868408203125,-0.424407958984375,-0.2769775390625,-0.199310302734375,0.18310546875,-0.244140625,-0.18310546875,0.6341552734375,-0.59912109375,0.4864501953125,-199.0,268.0,5.0,102285.0,-7.968000411987305,0,0
20.451994,0.83868408203125,-0.424407958984375,-0.2769775390625,-0.199310302734375,-0.06103515625,-0.18310546875,-0.06103515625,0.63623046875,-0.6004638671875,0.4842529296875,-199.0,268.0,5.0,102285.0,-7.968000411987305,0,0
20.456996,0.83868408203125,-0.424407958984375,-0.2769775390625,-0.199310302734375,0.0,-0.06103515625,0.06103515625,0.6343994140625,-0.6043701171875,0.4871826171875,-199.0,268.0,5.0,102285.0,-7.968000411987305,0,0
20.461993,0.83868408203125,-0.424407958984375,-0.2769775390625,-0.199310302734375,0.1220703125,-0.1220703125,0.0,0.6353759765625,-0.603515625,0.486572265625,-200.0,268.0,5.0,102285.0,-7.968000411987305,0,0
20.466993,0.838592529296875,-0.424530029296875,-0.27679443359375,-0.199676513671875,0.30517578125,0.0,-0.18310546875,0.6331787109375,-0.6019287109375,0.485107421875,-200.0,268.0,5.0,102285.0,-7.968000411987305,0,0
20.471994,0.838592529296875,-0.424530029296875,-0.27679443359375,-0.19964599609375,0.06103515625,-0.18310546875,0.06103515625,0.633056640625,-0.6016845703125,0.4854736328125,-200.0,268.0,5.0,102285.0,-7.968000411987305,0,0
20.476021,0.838592529296875,-0.424530029296875,-0.27679443359375,-0.19964599609375,0.06103515625,-0.18310546875,0.06103515625,0.633056640625,-0.6016845703125,0.4854736328125,-200.0,268.0,5.0,102285.0,-7.968000411987305,0,0
20.480994,0.838592529296875,-0.424530029296875,-0.27679443359375,-0.199676513671875,0.0,-0.244140625,-0.18310546875,0.63232421875,-0.5999755859375,0.486328125,-200.0,268.0,5.0,102285.0,-7.968000411987305,0,0
20.485995,0.838592529296875,-0.424530029296875,-0.27679443359375,-0.19964599609375,-0.18310546875,-0.30517578125,-0.1220703125,0.6334228515625,-0.6025390625,0.4859619140625,-200.0,268.0,5.0,102285.0,-7.968000411987305,0,0
20.490996,0.838592529296875,-0.424530029296875,-0.27679443359375,-0.199676513671875,0.18310546875,-0.1220703125,0.0,0.63427734375,-0.60107421875,0.485595703125,-200.0,268.0,5.0,102285.0,-7.968000411987305,0,0
20.505994,0.838592529296875,-0.424530029296875,-0.27679443359375,-0.199676513671875,0.18310546875,-0.1220703125,-0.18310546875,0.6343994140625,-0.602294921875,0.48828125,-200.0,268.0,5.0,102286.0,-7.970000267028809,0,0
20.510996,0.838592529296875,-0.424530029296875,-0.27679443359375,-0.199676513671875,-0.30517578125,0.0,-0.06103515625,0.6343994140625,-0.6031494140625,0.4854736328125,-200.0,268.0,5.0,102286.0,-7.970000267028809,0,0
20.515993,0.838592529296875,-0.424560546875,-0.27679443359375,-0.199676513671875,0.06103515625,-0.42724609375,-0.30517578125,0.633544921875,-0.6016845703125,0.48583984375,-200.0,268.0,5.0,102286.0,-7.970000267028809,0,0
20.520993,0.838592529296875,-0.424530029296875,-0.27679443359375,-0.199676513671875,0.18310546875,-0.42724609375,-0.1220703125,0.6317138671875,-0.5982666015625,0.4857177734375,-200.0,268.0,5.0,102286.0,-7.970000267028809,0,0
20.525994,0.838592529296875,-0.424530029296875,-0.276824951171875,-0.199676513671875,-0.18310546875,-0.244140625,-0.54931640625,0.6336669921875,-0.598876953125,0.4847412109375,-200.0,268.0,5.0,102286.0,-7.970000267028809,0,0
20.530995,0.838592529296875,-0.424530029296875,-0.276824951171875,-0.199676513671875,0.1220703125,-0.1220703125,-0.18310546875,0.6331787109375,-0.600341796875,0.4847412109375,-200.0,268.0,5.0,102286.0,-7.970000267028809,0,0
20.535992,0.838592529296875,-0.424530029296875,-0.276824951171875,-0.199676513671875,0.18310546875,0.0,0.0,0.63525390625,-0.6026611328125,0.4866943359375,-200.0,268.0,5.0,102286.0,-7.970000267028809,0,0
20.540021,0.838592529296875,-0.424530029296875,-0.276824951171875,-0.199676513671875,0.18310546875,0.0,0.0,0.63525390625,-0.6026611328125,0.4866943359375,-200.0,268.0,5.0,102286.0,-7.970000267028809,0,0
20.544996,0.838592529296875,-0.424560546875,-0.27679443359375,-0.199676513671875,0.18310546875,-0.06103515625,-0.06103515625,0.632080078125,-0.6031494140625,0.486328125,-200.0,268.0,5.0,102286.0,-7.970000267028809,0,0
20.549994,0.838592529296875,-0.424560546875,-0.27679443359375,-0.19964599609375,-0.244140625,-0.06103515625,-0.3662109375,0.6317138671875,-0.6025390625,0.4874267578125,-200.0,268.0,5.0,102286.0,-7.970000267028809,0,0
20.554994,0.838592529296875,-0.424560546875,-0.27679443359375,-0.19964599609375,0.1220703125,-0.06103515625,-0.244140625,0.6348876953125,-0.601318359375,0.4844970703125,-200.0,268.0,5.0,102286.0,-7.970000267028809,0,0
20.559994,0.838592529296875,-0.424560546875,-0.27679443359375,-0.19964599609375,0.1220703125,-0.06103515625,-0.244140625,0.6348876953125,-0.601318359375,0.4844970703125,-200.0,269.0,4.0,102286.0,-7.970000267028809,0,0
20.564996,0.83856201171875,-0.424591064453125,-0.2767333984375,-0.19976806640625,0.244140625,-0.244140625,-0.42724609375,0.63427734375,-0.600830078125,0.4864501953125,-200.0,269.0,4.0,102286.0,-7.970000267028809,0,0
20.569994,0.838531494140625,-0.424591064453125,-0.276763916015625,-0.19976806640625,-0.1220703125,-0.244140625,-0.18310546875,0.6328125,-0.602294921875,0.4840087890625,-200.0,269.0,4.0,102286.0,-7.970000267028809,0,0
20.574994,0.838531494140625,-0.424591064453125,-0.276763916015625,-0.199798583984375,0.0,-0.1220703125,-0.06103515625,0.6348876953125,-0.601318359375,0.487060546875,-200.0,269.0,4.0,102286.0,-7.970000267028809,0,0
20.579995,0.838531494140625,-0.424591064453125,-0.276763916015625,-0.199798583984375,0.06103515625,0.1220703125,-0.06103515625,0.633544921875,-0.5999755859375,0.488037109375,-200.0,269.0,4.0,102286.0,-7.970000267028809,0,0
20.584997,0.838531494140625,-0.424591064453125,-0.276763916015625,-0.199798583984375,-0.1220703125,-0.18310546875,-0.244140625,0.633544921875,-0.60205078125,0.48681640625,-200.0,269.0,4.0,102286.0,-7.970000267028809,0,0
20.589996,0.838531494140625,-0.424591064453125,-0.276763916015625,-0.19976806640625,0.0,-0.06103515625,-0.18310546875,0.6331787109375,-0.60302734375,0.4852294921875,-200.0,269.0,4.0,102286.0,-7.970000267028809,0,0
20.594994,0.838531494140625,-0.424591064453125,-0.276763916015625,-0.19976806640625,0.3662109375,0.0,-0.244140625,0.6351318359375,-0.6021728515625,0.486572265625,-200.0,269.0,4.0,102286.0,-7.970000267028809,0,0
20.599994,0.838531494140625,-0.424591064453125,-0.276763916015625,-0.19976806640625,-0.1220703125,0.0,-0.244140625,0.632568359375,-0.6002197265625,0.487060546875,-200.0,269.0,4.0,102286.0,-7.970000267028809,0,0
20.604994,0.83856201171875,-0.424591064453125,-0.276763916015625,-0.199798583984375,0.3662109375,-0.244140625,-0.30517578125,0.632080078125,-0.5987548828125,0.4881591796875,-200.0,269.0,4.0,102286.0,-7.970000267028809,0,0
20.609025,0.83856201171875,-0.424591064453125,-0.276763916015625,-0.199798583984375,0.3662109375,-0.244140625,-0.30517578125,0.632080078125,-0.5987548828125,0.4881591796875,-200.0,269.0,4.0,102286.0,-7.970000267028809,0,0
20.613994,0.83856201171875,-0.424591064453125,-0.2767333984375,-0.199798583984375,0.18310546875,-0.06103515625,-0.3662109375,0.6341552734375,-0.6021728515625,0.4871826171875,-200.0,269.0,4.0,102285.0,-7.968000411987305,0,0
20.628993,0.83856201171875,-0.424591064453125,-0.276763916015625,-0.199798583984375,-0.06103515625,0.0,-0.06103515625,0.633544921875,-0.5999755859375,0.4844970703125,-200.0,269.0,4.0,102285.0,-7.968000411987305,0,0
20.633994,0.83856201171875,-0.424591064453125,-0.2767333984375,-0.199798583984375,0.0,-0.06103515625,0.06103515625,0.632568359375,-0.6029052734375,0.4857177734375,-200.0,269.0,4.0,102285.0,-7.968000411987305,0,0
20.638995,0.83856201171875,-0.424591064453125,-0.2767333984375,-0.199798583984375,0.18310546875,-0.06103515625,-0.1220703125,0.6339111328125,-0.601318359375,0.4859619140625,-200.0,269.0,4.0,102285.0,-7.968000411987305,0,0
20.643992,0.83856201171875,-0.424591064453125,-0.2767333984375,-0.199798583984375,-0.244140625,-0.06103515625,-0.18310546875,0.633056640625,-0.6016845703125,0.48486328125,-200.0,269.0,4.0,102285.0,-7.968000411987305,0,0
20.648993,0.83856201171875,-0.424591064453125,-0.276763916015625,-0.199798583984375,0.244140625,-0.06103515625,-0.244140625,0.634033203125,-0.60107421875,0.4852294921875,-200.0,269.0,4.0,102285.0,-7.968000411987305,0,0
20.653993,0.83856201171875,-0.424591064453125,-0.2767333984375,-0.199798583984375,0.0,-0.18310546875,-0.30517578125,0.6348876953125,-0.6009521484375,0.488037109375,-200.0,269.0,4.0,102285.0,-7.968000411987305,0,0
20.658994,0.83856201171875,-0.424591064453125,-0.2767333984375,-0.199798583984375,0.0,-0.18310546875,-0.30517578125,0.6348876953125,-0.6009521484375,0.488037109375,-200.0,269.0,3.0,102285.0,-7.968000411987305,0,0
20.663996,0.83856201171875,-0.424591064453125,-0.276763916015625,-0.199798583984375,-0.3662109375,-0.30517578125,-0.244140625,0.6356201171875,-0.600341796875,0.4874267578125,-200.0,269.0,3.0,102285.0,-7.968000411987305,0,0
20.668993,0.838531494140625,-0.42462158203125,-0.276702880859375,-0.199920654296875,-0.1220703125,0.0,-0.06103515625,0.6343994140625,-0.600341796875,0.48583984375,-200.0,269.0,3.0,102285.0,-7.968000411987305,0,0
20.673021,0.838531494140625,-0.42462158203125,-0.276702880859375,-0.199920654296875,-0.1220703125,0.0,-0.06103515625,0.6343994140625,-0.600341796875,0.48583984375,-200.0,269.0,3.0,102285.0,-7.968000411987305,0,0
20.677993,0.838531494140625,-0.42462158203125,-0.276702880859375,-0.199920654296875,-0.244140625,-0.06103515625,0.0,0.632080078125,-0.6005859375,0.4844970703125,-200.0,269.0,3.0,102285.0,-7.968000411987305,0,0
20.692995,0.838531494140625,-0.42462158203125,-0.276702880859375,-0.199920654296875,0.1220703125,0.0,-0.244140625,0.6336669921875,-0.603515625,0.4871826171875,-200.0,269.0,3.0,102285.0,-7.968000411987305,0,0
20.697992,0.838531494140625,-0.42462158203125,-0.276702880859375,-0.199920654296875,0.30517578125,-0.244140625,-0.42724609375,0.6341552734375,-0.6016845703125,0.4884033203125,-200.0,269.0,3.0,102285.0,-7.968000411987305,0,0
20.702993,0.838531494140625,-0.42462158203125,-0.276702880859375,-0.199920654296875,-0.06103515625,-0.42724609375,-0.18310546875,0.6358642578125,-0.6016845703125,0.4871826171875,-200.0,269.0,3.0,102285.0,-7.968000411987305,0,0
20.707993,0.838531494140625,-0.42462158203125,-0.276702880859375,-0.199920654296875,0.06103515625,-0.244140625,-0.18310546875,0.6341552734375,-0.6004638671875,0.488525390625,-200.0,269.0,3.0,102286.0,-7.970000267028809,0,0
20.712994,0.838531494140625,-0.42462158203125,-0.276702880859375,-0.199920654296875,0.06103515625,0.0,-0.06103515625,0.6339111328125,-0.598876953125,0.484130859375,-200.0,269.0,3.0,102286.0,-7.970000267028809,0,0
20.717996,0.838531494140625,-0.424591064453125,-0.276702880859375,-0.199920654296875,0.0,-0.18310546875,0.18310546875,0.6322021484375,-0.59765625,0.48583984375,-200.0,269.0,3.0,102286.0,-7.970000267028809,0,0
20.722993,0.838531494140625,-0.424591064453125,-0.276702880859375,-0.199920654296875,0.06103515625,0.0,0.0,0.63330078125,-0.5997314453125,0.4857177734375,-200.0,269.0,3.0,102286.0,-7.970000267028809,0,0
20.727993,0.838531494140625,-0.424591064453125,-0.276702880859375,-0.199920654296875,0.18310546875,-0.3662109375,0.18310546875,0.63525390625,-0.6036376953125,0.487548828125,-200.0,269.0,3.0,102286.0,-7.970000267028809,0,0
20.732994,0.838531494140625,-0.424591064453125,-0.276702880859375,-0.199920654296875,0.244140625,-0.18310546875,-0.30517578125,0.6326904296875,-0.60400390625,0.4881591796875,-200.0,269.0,3.0,102286.0,-7.970000267028809,0,0
20.737995,0.838531494140625,-0.42462158203125,-0.276702880859375,-0.199920654296875,0.1220703125,-0.1220703125,-0.30517578125,0.6353759765625,-0.604736328125,0.4871826171875,-200.0,269.0,3.0,102286.0,-7.970000267028809,0,0
20.74202,0.838531494140625,-0.42462158203125,-0.276702880859375,-0.199920654296875,0.1220703125,-0.1220703125,-0.30517578125,0.6353759765625,-0.604736328125,0.4871826171875,-200.0,269.0,3.0,102286.0,-7.970000267028809,0,0
20.746996,0.838531494140625,-0.42462158203125,-0.276702880859375,-0.199920654296875,0.0,-0.244140625,-0.42724609375,0.635498046875,-0.60302734375,0.4864501953125,-200.0,269.0,3.0,102286.0,-7.970000267028809,0,0
20.751996,0.838531494140625,-0.42462158203125,-0.276702880859375,-0.199920654296875,0.1220703125,-0.30517578125,-0.30517578125,0.6328125,-0.60107421875,0.487548828125,-200.0,269.0,3.0,102286.0,-7.970000267028809,0,0
20.756994,0.838531494140625,-0.424591064453125,-0.276702880859375,-0.199920654296875,-0.1220703125,0.1220703125,-0.1220703125,0.6331787109375,-0.598876953125,0.48486328125,-200.0,269.0,3.0,102286.0,-7.970000267028809,0,0
20.761994,0.838531494140625,-0.424591064453125,-0.276702880859375,-0.199920654296875,-0.42724609375,0.1220703125,0.06103515625,0.63232421875,-0.5987548828125,0.4854736328125,-200.0,270.0,3.0,102286.0,-7.970000267028809,0,0
20.766994,0.838531494140625,-0.424591064453125,-0.276702880859375,-0.199920654296875,0.1220703125,0.0,0.0,0.6312255859375,-0.5999755859375,0.48583984375,-200.0,270.0,3.0,102286.0,-7.970000267028809,0,0
20.771996,0.838531494140625,-0.424591064453125,-0.276702880859375,-0.199920654296875,-0.18310546875,-0.06103515625,0.18310546875,0.6317138671875,-0.6007080078125,0.4871826171875,-200.0,270.0,3.0,102286.0,-7.970000267028809,0,0
20.776994,0.838531494140625,-0.424591064453125,-0.276702880859375,-0.199920654296875,0.18310546875,-0.06103515625,-0.48828125,0.632568359375,-0.603271484375,0.4857177734375,-200.0,270.0,3.0,102286.0,-7.970000267028809,0,0
20.781994,0.838531494140625,-0.424591064453125,-0.276702880859375,-0.199920654296875,0.244140625,-0.18310546875,-0.18310546875,0.633544921875,-0.602783203125,0.487060546875,-200.0,270.0,3.0,102286.0,-7.970000267028809,0,0
20.786995,0.838531494140625,-0.424591064453125,-0.27667236328125,-0.199920654296875,0.06103515625,0.0,-0.244140625,0.6341552734375,-0.6024169921875,0.48876953125,-200.0,270.0,3.0,102286.0,-7.970000267028809,0,0
20.791997,0.838531494140625,-0.424591064453125,-0.276702880859375,-0.199920654296875,-0.1220703125,-0.30517578125,-0.18310546875,0.6351318359375,-0.6011962890625,0.48681640625,-200.0,270.0,3.0,102286.0,-7.970000267028809,0,0
20.796996,0.838531494140625,-0.424591064453125,-0.276702880859375,-0.199920654296875,0.06103515625,-0.244140625,-0.06103515625,0.6357421875,-0.5999755859375,0.484130859375,-200.0,270.0,3.0,102286.0,-7.970000267028809,0,0
20.801994,0.838531494140625,-0.424591064453125,-0.276702880859375,-0.199920654296875,0.06103515625,-0.06103515625,-0.06103515625,0.6341552734375,-0.6011962890625,0.4859619140625,-200.0,270.0,3.0,102286.0,-7.970000267028809,0,0
20.815994,0.838531494140625,-0.424591064453125,-0.276702880859375,-0.199920654296875,0.30517578125,-0.1220703125,-0.42724609375,0.6343994140625,-0.603271484375,0.4866943359375,-200.0,270.0,3.0,102285.0,-7.966000556945801,0,0
20.820994,0.838531494140625,-0.424591064453125,-0.27667236328125,-0.199920654296875,0.06103515625,-0.06103515625,-0.06103515625,0.6339111328125,-0.604736328125,0.486083984375,-200.0,270.0,3.0,102285.0,-7.966000556945801,0,0
20.825996,0.838531494140625,-0.424591064453125,-0.27667236328125,-0.199920654296875,0.18310546875,-0.06103515625,-0.244140625,0.633544921875,-0.60107421875,0.486328125,-200.0,270.0,3.0,102285.0,-7.966000556945801,0,0
20.830993,0.838531494140625,-0.424591064453125,-0.27667236328125,-0.199920654296875,0.3662109375,-0.3662109375,-0.18310546875,0.6318359375,-0.600830078125,0.484619140625,-200.0,270.0,3.0,102285.0,-7.966000556945801,0,0
20.835993,0.838531494140625,-0.424591064453125,-0.27667236328125,-0.199920654296875,0.0,0.0,-0.18310546875,0.6328125,-0.599609375,0.4849853515625,-200.0,270.0,3.0,102285.0,-7.966000556945801,0,0
20.840994,0.838531494140625,-0.424591064453125,-0.27667236328125,-0.199920654296875,0.42724609375,-0.1220703125,-0.244140625,0.6331787109375,-0.6009521484375,0.485595703125,-200.0,270.0,3.0,102285.0,-7.966000556945801,0,0
20.845995,0.838531494140625,-0.424591064453125,-0.27667236328125,-0.199920654296875,0.42724609375,-0.1220703125,-0.244140625,0.6331787109375,-0.6009521484375,0.485595703125,-200.0,270.0,3.0,102285.0,-7.966000556945801,0,0
20.850996,0.838531494140625,-0.424591064453125,-0.276702880859375,-0.199920654296875,0.1220703125,-0.1220703125,0.06103515625,0.6341552734375,-0.6011962890625,0.48486328125,-200.0,270.0,3.0,102285.0,-7.966000556945801,0,0
20.855993,0.838531494140625,-0.424591064453125,-0.276702880859375,-0.199920654296875,0.1220703125,0.1220703125,-0.1220703125,0.63427734375,-0.6024169921875,0.487548828125,-200.0,270.0,3.0,102285.0,-7.966000556945801,0,0
20.860993,0.838531494140625,-0.424591064453125,-0.276702880859375,-0.199920654296875,0.1220703125,0.1220703125,-0.1220703125,0.63427734375,-0.6024169921875,0.487548828125,-200.0,270.0,4.0,102285.0,-7.966000556945801,0,0
20.865994,0.83856201171875,-0.424560546875,-0.2767333984375,-0.199798583984375,0.244140625,-0.244140625,-0.30517578125,0.6328125,-0.6024169921875,0.4866943359375,-200.0,270.0,4.0,102285.0,-7.966000556945801,0,0
20.879996,0.83856201171875,-0.424560546875,-0.276763916015625,-0.199798583984375,0.06103515625,-0.42724609375,-0.30517578125,0.6343994140625,-0.6004638671875,0.48388671875,-200.0,270.0,4.0,102285.0,-7.966000556945801,0,0
20.884993,0.83856201171875,-0.424560546875,-0.2767333984375,-0.199798583984375,0.06103515625,-0.1220703125,-0.244140625,0.6307373046875,-0.60107421875,0.4849853515625,-200.0,270.0,4.0,102285.0,-7.966000556945801,0,0
20.889993,0.83856201171875,-0.424560546875,-0.276763916015625,-0.199798583984375,0.18310546875,0.06103515625,-0.18310546875,0.6343994140625,-0.6011962890625,0.48388671875,-200.0,270.0,4.0,102285.0,-7.966000556945801,0,0
20.894994,0.83856201171875,-0.424560546875,-0.276763916015625,-0.199798583984375,0.18310546875,0.1220703125,-0.18310546875,0.6358642578125,-0.603759765625,0.4873046875,-200.0,270.0,4.0,102285.0,-7.966000556945801,0,0
20.899995,0.83856201171875,-0.424560546875,-0.2767333984375,-0.199798583984375,0.18310546875,-0.06103515625,-0.18310546875,0.6339111328125,-0.6024169921875,0.4874267578125,-200.0,270.0,4.0,102285.0,-7.966000556945801,0,0
20.904996,0.83856201171875,-0.424560546875,-0.276763916015625,-0.199798583984375,0.06103515625,-0.30517578125,-0.18310546875,0.63525390625,-0.6009521484375,0.4879150390625,-200.0,270.0,4.0,102285.0,-7.966000556945801,0,0
20.909993,0.83856201171875,-0.424560546875,-0.276763916015625,-0.199798583984375,0.06103515625,-0.30517578125,-0.18310546875,0.63525390625,-0.6009521484375,0.4879150390625,-200.0,270.0,4.0,102285.0,-7.966000556945801,0,0
20.914993,0.83856201171875,-0.424560546875,-0.276763916015625,-0.199798583984375,0.0,-0.18310546875,-0.18310546875,0.634765625,-0.600830078125,0.4853515625,-200.0,270.0,4.0,102285.0,-7.966000556945801,0,0
20.919994,0.83856201171875,-0.424560546875,-0.276763916015625,-0.199798583984375,0.06103515625,-0.18310546875,0.18310546875,0.6358642578125,-0.6024169921875,0.4852294921875,-200.0,270.0,4.0,102285.0,-7.966000556945801,0,0
20.924996,0.83856201171875,-0.424560546875,-0.276763916015625,-0.199798583984375,0.1220703125,-0.06103515625,0.1220703125,0.6351318359375,-0.60107421875,0.484375,-200.0,270.0,4.0,102285.0,-7.966000556945801,0,0
20.929993,0.83856201171875,-0.424560546875,-0.276763916015625,-0.199798583984375,0.18310546875,-0.1220703125,-0.1220703125,0.633056640625,-0.6005859375,0.4862060546875,-200.0,270.0,4.0,102285.0,-7.966000556945801,0,0
20.934993,0.83856201171875,-0.424560546875,-0.276763916015625,-0.199798583984375,-0.30517578125,0.0,-0.06103515625,0.6317138671875,-0.6009521484375,0.485595703125,-200.0,270.0,4.0,102285.0,-7.966000556945801,0,0
20.939021,0.83856201171875,-0.424560546875,-0.276763916015625,-0.199798583984375,-0.30517578125,0.0,-0.06103515625,0.6317138671875,-0.6009521484375,0.485595703125,-200.0,270.0,4.0,102285.0,-7.966000556945801,0,0
20.943993,0.83856201171875,-0.424560546875,-0.276763916015625,-0.199798583984375,0.06103515625,-0.18310546875,-0.30517578125,0.6353759765625,-0.6029052734375,0.48681640625,-200.0,270.0,4.0,102285.0,-7.966000556945801,0,0
20.948994,0.83856201171875,-0.424560546875,-0.2767333984375,-0.199798583984375,0.48828125,-0.18310546875,0.1220703125,0.635986328125,-0.6031494140625,0.48828125,-200.0,270.0,4.0,102285.0,-7.966000556945801,0,0
20.953995,0.83856201171875,-0.424530029296875,-0.2767333984375,-0.199798583984375,-0.1220703125,-0.3662109375,-0.18310546875,0.6339111328125,-0.6029052734375,0.4898681640625,-200.0,270.0,4.0,102285.0,-7.966000556945801,0,0
20.958996,0.83856201171875,-0.424530029296875,-0.2767333984375,-0.199798583984375,0.18310546875,-0.18310546875,-0.18310546875,0.63427734375,-0.6014404296875,0.4881591796875,-200.0,271.0,4.0,102285.0,-7.969000339508057,0,0
20.963993,0.83856201171875,-0.424530029296875,-0.2767333984375,-0.199798583984375,-0.06103515625,0.1220703125,-0.30517578125,0.634033203125,-0.6019287109375,0.4866943359375,-200.0,271.0,4.0,102285.0,-7.969000339508057,0,0
20.968994,0.838592529296875,-0.42449951171875,-0.27679443359375,-0.199676513671875,0.0,-0.1220703125,-0.244140625,0.63427734375,-0.6002197265625,0.4853515625,-200.0,271.0,4.0,102285.0,-7.969000339508057,0,0
20.973994,0.838592529296875,-0.42449951171875,-0.276824951171875,-0.199676513671875,0.30517578125,-0.18310546875,-0.06103515625,0.635498046875,-0.598388671875,0.4837646484375,-200.0,271.0,4.0,102285.0,-7.969000339508057,0,0
20.978997,0.838592529296875,-0.42449951171875,-0.276824951171875,-0.199676513671875,0.0,-0.06103515625,0.06103515625,0.6312255859375,-0.5977783203125,0.48681640625,-200.0,271.0,4.0,102285.0,-7.969000339508057,0,0
20.983994,0.838592529296875,-0.42449951171875,-0.276824951171875,-0.199676513671875,0.244140625,-0.18310546875,-0.1220703125,0.632080078125,-0.6011962890625,0.4854736328125,-200.0,271.0,4.0,102285.0,-7.969000339508057,0,0
20.988994,0.838592529296875,-0.42449951171875,-0.276824951171875,-0.199676513671875,-0.06103515625,-0.1220703125,-0.1220703125,0.6361083984375,-0.6053466796875,0.4871826171875,-200.0,271.0,4.0,102285.0,-7.969000339508057,0,0
21.003997,0.838592529296875,-0.42449951171875,-0.27679443359375,-0.199676513671875,0.244140625,-0.30517578125,-0.48828125,0.63134765625,-0.6011962890625,0.486572265625,-200.0,271.0,4.0,102285.0,-7.969000339508057,0,0
21.008024,0.838592529296875,-0.42449951171875,-0.27679443359375,-0.199676513671875,0.244140625,-0.30517578125,-0.48828125,0.63134765625,-0.6011962890625,0.486572265625,-200.0,271.0,4.0,102285.0,-7.969000339508057,0,0
21.012996,0.838592529296875,-0.42449951171875,-0.276824951171875,-0.199676513671875,-0.06103515625,0.0,-0.18310546875,0.6351318359375,-0.5994873046875,0.486328125,-200.0,271.0,4.0,102285.0,-7.969000339508057,0,0
21.017994,0.838592529296875,-0.42449951171875,-0.27679443359375,-0.199676513671875,-0.1220703125,0.06103515625,-0.06103515625,0.633056640625,-0.599853515625,0.4874267578125,-200.0,271.0,4.0,102285.0,-7.969000339508057,0,0
21.022994,0.838592529296875,-0.42449951171875,-0.27679443359375,-0.199676513671875,-0.1220703125,0.0,-0.18310546875,0.6318359375,-0.6009521484375,0.4864501953125,-200.0,271.0,4.0,102285.0,-7.969000339508057,0,0
21.027994,0.838592529296875,-0.42449951171875,-0.27679443359375,-0.199676513671875,0.30517578125,0.06103515625,-0.244140625,0.634765625,-0.6014404296875,0.485595703125,-200.0,271.0,4.0,102285.0,-7.969000339508057,0,0
21.032997,0.838592529296875,-0.42449951171875,-0.27679443359375,-0.199676513671875,0.18310546875,-0.1220703125,-0.1220703125,0.6341552734375,-0.6036376953125,0.4862060546875,-200.0,271.0,4.0,102285.0,-7.969000339508057,0,0
21.037993,0.838592529296875,-0.42449951171875,-0.27679443359375,-0.199676513671875,0.18310546875,-0.1220703125,-0.3662109375,0.633544921875,-0.6016845703125,0.4853515625,-200.0,271.0,4.0,102285.0,-7.969000339508057,0,0
21.042993,0.838592529296875,-0.42449951171875,-0.27679443359375,-0.199676513671875,0.1220703125,-0.244140625,-0.244140625,0.6317138671875,-0.6026611328125,0.48779296875,-200.0,271.0,4.0,102285.0,-7.969000339508057,0,0
21.047994,0.838592529296875,-0.42449951171875,-0.27679443359375,-0.199676513671875,0.06103515625,-0.18310546875,-0.54931640625,0.633056640625,-0.6007080078125,0.485595703125,-200.0,271.0,4.0,102285.0,-7.969000339508057,0,0
21.052995,0.838592529296875,-0.42449951171875,-0.27679443359375,-0.199676513671875,0.18310546875,-0.3662109375,-0.06103515625,0.632080078125,-0.5997314453125,0.48486328125,-200.0,271.0,4.0,102285.0,-7.969000339508057,0,0
21.062993,0.838592529296875,-0.42449951171875,-0.27679443359375,-0.199676513671875,-0.18310546875,-0.06103515625,-0.1220703125,0.634521484375,-0.6031494140625,0.486328125,-200.0,270.0,5.0,102285.0,-7.968000411987305,0,0
21.067993,0.838592529296875,-0.424530029296875,-0.2767333984375,-0.199798583984375,-0.3662109375,-0.06103515625,0.06103515625,0.6341552734375,-0.6016845703125,0.4866943359375,-200.0,270.0,5.0,102285.0,-7.968000411987305,0,0
21.072022,0.838592529296875,-0.424530029296875,-0.2767333984375,-0.199798583984375,-0.3662109375,-0.06103515625,0.06103515625,0.6341552734375,-0.6016845703125,0.4866943359375,-200.0,270.0,5.0,102285.0,-7.968000411987305,0,0
21.076993,0.83856201171875,-0.424530029296875,-0.2767333984375,-0.199798583984375,0.06103515625,-0.18310546875,-0.30517578125,0.6343994140625,-0.60107421875,0.48681640625,-200.0,270.0,5.0,102285.0,-7.968000411987305,0,0
21.081994,0.83856201171875,-0.424530029296875,-0.2767333984375,-0.199798583984375,0.06103515625,-0.1220703125,-0.3662109375,0.634033203125,-0.6021728515625,0.4842529296875,-200.0,270.0,5.0,102285.0,-7.968000411987305,0,0
21.086996,0.83856201171875,-0.424560546875,-0.2767333984375,-0.199798583984375,-0.06103515625,0.0,-0.244140625,0.634765625,-0.6011962890625,0.484375,-200.0,270.0,5.0,102285.0,-7.968000411987305,0,0
21.091993,0.83856201171875,-0.424560546875,-0.2767333984375,-0.199798583984375,0.30517578125,-0.06103515625,0.0,0.634521484375,-0.6011962890625,0.48583984375,-200.0,270.0,5.0,102285.0,-7.968000411987305,0,0
21.096993,0.83856201171875,-0.424560546875,-0.276763916015625,-0.199798583984375,0.18310546875,-0.42724609375,-0.30517578125,0.634033203125,-0.6033935546875,0.486328125,-200.0,270.0,5.0,102285.0,-7.968000411987305,0,0
21.101994,0.83856201171875,-0.424560546875,-0.276763916015625,-0.199798583984375,-0.18310546875,-0.06103515625,0.0,0.6353759765625,-0.600830078125,0.4876708984375,-200.0,270.0,5.0,102285.0,-7.968000411987305,0,0
21.106995,0.83856201171875,-0.424530029296875,-0.276763916015625,-0.199798583984375,0.18310546875,-0.18310546875,-0.18310546875,0.634033203125,-0.6014404296875,0.487060546875,-200.0,270.0,5.0,102285.0,-7.968000411987305,0,0
21.111992,0.83856201171875,-0.424560546875,-0.2767333984375,-0.199798583984375,0.18310546875,0.06103515625,-0.18310546875,0.63232421875,-0.6021728515625,0.4862060546875,-200.0,270.0,5.0,102285.0,-7.968000411987305,0,0
21.116993,0.83856201171875,-0.424530029296875,-0.276763916015625,-0.199798583984375,0.1220703125,-0.06103515625,0.0,0.633544921875,-0.6004638671875,0.4864501953125,-200.0,270.0,5.0,102285.0,-7.968000411987305,0,0
21.121993,0.83856201171875,-0.424530029296875,-0.2767333984375,-0.199798583984375,0.18310546875,0.1220703125,-0.244140625,0.633056640625,-0.601806640625,0.4874267578125,-200.0,270.0,5.0,102285.0,-7.968000411987305,0,0
21.126994,0.83856201171875,-0.424530029296875,-0.276763916015625,-0.199798583984375,0.06103515625,-0.244140625,-0.30517578125,0.63525390625,-0.5987548828125,0.486083984375,-200.0,270.0,5.0,102285.0,-7.968000411987305,0,0
21.131996,0.83856201171875,-0.424530029296875,-0.276763916015625,-0.199798583984375,0.0,-0.1220703125,-0.18310546875,0.6348876953125,-0.6009521484375,0.4876708984375,-200.0,270.0,5.0,102285.0,-7.968000411987305,0,0
