Time stamp(sec),adc1,adc2,roll_angular_rate,pitch_angular_rate,yaw_angular_rate,acc_X,acc_Y,acc_Z,mag_X,mag_Y,mag_Z,pressure,altitude
0.051238400003057905,0.375701904296875,-0.45318603515625,0.30859375,-0.74713134765625,0.0,-0.06103515625,0.0,0.44580078125,-0.8004150390625,0.4005126953125,-299.0,149.0,-150.0,101701.0,-3.126000165939331,0,0
0.0513072000030661,0.375701904296875,-0.45318603515625,0.30859375,-0.74713134765625,0.18310546875,0.06103515625,-0.1220703125,0.4466552734375,-0.8013916015625,0.4007568359375,-299.0,149.0,-150.0,101701.0,-3.126000165939331,0,0
0.05136399999901187,0.375701904296875,-0.45318603515625,0.30859375,-0.74713134765625,0.0,-0.06103515625,0.0,0.4453125,-0.8011474609375,0.3990478515625,-299.0,149.0,-150.0,101701.0,-3.126000165939331,0,0
0.05141919999732636,0.375701904296875,-0.453155517578125,0.308563232421875,-0.74713134765625,0.244140625,0.06103515625,0.18310546875,0.4454345703125,-0.80078125,0.3995361328125,-299.0,149.0,-150.0,101701.0,-3.126000165939331,0,0
0.05147430000943132,0.375701904296875,-0.453155517578125,0.308563232421875,-0.74713134765625,-0.06103515625,-0.06103515625,0.0,0.4456787109375,-0.80224609375,0.401123046875,-299.0,149.0,-150.0,101701.0,-3.126000165939331,0,0
0.051528500000131316,0.375701904296875,-0.453155517578125,0.308563232421875,-0.74713134765625,-0.06103515625,-0.06103515625,0.0,0.4456787109375,-0.80224609375,0.401123046875,-299.0,149.0,-150.0,101701.0,-3.126000165939331,0,0
0.051615999997011386,0.375701904296875,-0.453155517578125,0.308563232421875,-0.747161865234375,-0.1220703125,0.18310546875,0.1220703125,0.44775390625,-0.8026123046875,0.4010009765625,-299.0,149.0,-150.0,101701.0,-3.126000165939331,0,0
0.05168650000996422,0.375701904296875,-0.453155517578125,0.308563232421875,-0.747161865234375,-0.1220703125,0.1220703125,0.06103515625,0.4454345703125,-0.8016357421875,0.4000244140625,-299.0,149.0,-150.0,101701.0,-3.126000165939331,0,0
0.05173940000531729,0.375701904296875,-0.453155517578125,0.308563232421875,-0.747161865234375,0.1220703125,-0.1220703125,-0.42724609375,0.4462890625,-0.8011474609375,0.398681640625,-299.0,149.0,-150.0,101701.0,-3.126000165939331,0,0
0.05179340000904631,0.375701904296875,-0.453155517578125,0.308563232421875,-0.747161865234375,0.1220703125,-0.06103515625,-0.1220703125,0.4459228515625,-0.8009033203125,0.3973388671875,-299.0,149.0,-150.0,101701.0,-3.126000165939331,0,0
0.05184660000668373,0.375701904296875,-0.453155517578125,0.308563232421875,-0.747161865234375,0.0,-0.1220703125,-0.18310546875,0.4453125,-0.8028564453125,0.3997802734375,-299.0,149.0,-150.0,101701.0,-3.126000165939331,0,0
0.05189980000432115,0.375701904296875,-0.453155517578125,0.308563232421875,-0.747161865234375,-0.1220703125,-0.06103515625,-0.18310546875,0.44384765625,-0.8009033203125,0.39990234375,-299.0,149.0,-150.0,101701.0,-3.126000165939331,0,0
0.051951900008134544,0.375701904296875,-0.453155517578125,0.308563232421875,-0.747161865234375,-0.244140625,-0.1220703125,-0.244140625,0.44482421875,-0.80224609375,0.39892578125,-299.0,149.0,-150.0,101701.0,-3.126000165939331,0,0
0.11800000000221189,0.375701904296875,-0.453155517578125,0.30853271484375,-0.747161865234375,0.1220703125,0.0,0.0,0.446044921875,-0.802978515625,0.39892578125,-299.0,149.0,-150.0,101701.0,-3.126000165939331,0,0
0.1180711000051815,0.375701904296875,-0.453155517578125,0.30853271484375,-0.747161865234375,0.1220703125,0.0,0.0,0.446044921875,-0.802978515625,0.39892578125,-298.0,148.0,-151.0,101700.0,-3.125000238418579,0,0
0.1181298000010429,0.37530517578125,-0.4530029296875,0.30877685546875,-0.747344970703125,0.1220703125,0.1220703125,0.18310546875,0.4444580078125,-0.8013916015625,0.3985595703125,-298.0,148.0,-151.0,101700.0,-3.125000238418579,0,0
0.11818580000544898,0.37530517578125,-0.4530029296875,0.30877685546875,-0.74737548828125,0.42724609375,0.18310546875,0.06103515625,0.44775390625,-0.8031005859375,0.39990234375,-298.0,148.0,-151.0,101700.0,-3.125000238418579,0,0
0.11824350000824779,0.37530517578125,-0.452972412109375,0.30877685546875,-0.74737548828125,-0.1220703125,0.1220703125,0.1220703125,0.4449462890625,-0.8004150390625,0.40087890625,-298.0,148.0,-151.0,101700.0,-3.125000238418579,0,0
0.11920980000286363,0.37530517578125,-0.452972412109375,0.30877685546875,-0.74737548828125,-0.244140625,-0.06103515625,-0.06103515625,0.4471435546875,-0.8031005859375,0.3994140625,-298.0,148.0,-151.0,101700.0,-3.125000238418579,0,0
0.11927090000244789,0.37530517578125,-0.4530029296875,0.30877685546875,-0.74737548828125,-0.18310546875,-0.06103515625,-0.18310546875,0.44482421875,-0.8018798828125,0.3990478515625,-298.0,148.0,-151.0,101700.0,-3.125000238418579,0,0
0.11932640000304673,0.37530517578125,-0.4530029296875,0.30877685546875,-0.74737548828125,0.3662109375,0.0,-0.06103515625,0.447509765625,-0.8023681640625,0.3983154296875,-298.0,148.0,-151.0,101700.0,-3.125000238418579,0,0
0.11938090001058299,0.37530517578125,-0.4530029296875,0.30877685546875,-0.74737548828125,0.06103515625,-0.06103515625,-0.18310546875,0.446533203125,-0.8045654296875,0.4017333984375,-298.0,148.0,-151.0,101700.0,-3.125000238418579,0,0
0.11943210000754334,0.37530517578125,-0.4530029296875,0.30877685546875,-0.74737548828125,0.06103515625,-0.06103515625,-0.18310546875,0.446533203125,-0.8045654296875,0.4017333984375,-298.0,148.0,-151.0,101700.0,-3.125000238418579,0,0
0.11948400000983384,0.37530517578125,-0.4530029296875,0.30877685546875,-0.74737548828125,0.244140625,-0.18310546875,-0.18310546875,0.4468994140625,-0.802490234375,0.3992919921875,-298.0,148.0,-151.0,101700.0,-3.125000238418579,0,0
0.17847090000577737,0.37530517578125,-0.4530029296875,0.30877685546875,-0.74737548828125,-0.18310546875,-0.1220703125,0.0,0.4453125,-0.8004150390625,0.3984375,-298.0,148.0,-151.0,101700.0,-3.125000238418579,0,0
0.1785331999999471,0.37530517578125,-0.452972412109375,0.30877685546875,-0.74737548828125,0.1220703125,-0.244140625,0.06103515625,0.44580078125,-0.80322265625,0.3988037109375,-298.0,148.0,-151.0,101700.0,-3.125000238418579,0,0
0.1788966000021901,0.37530517578125,-0.4530029296875,0.30877685546875,-0.74737548828125,0.1220703125,-0.244140625,0.0,0.441650390625,-0.7994384765625,0.399169921875,-298.0,148.0,-151.0,101700.0,-3.125000238418579,0,0
0.17896000000473578,0.37530517578125,-0.452972412109375,0.30877685546875,-0.74737548828125,0.06103515625,0.0,0.18310546875,0.4468994140625,-0.80224609375,0.39892578125,-298.0,148.0,-151.0,101700.0,-3.125000238418579,0,0
0.17909980000695214,0.37530517578125,-0.452972412109375,0.30877685546875,-0.74737548828125,0.06103515625,0.06103515625,-0.18310546875,0.443115234375,-0.802001953125,0.3984375,-298.0,148.0,-151.0,101700.0,-3.125000238418579,0,0
0.17927860000054352,0.37530517578125,-0.452972412109375,0.30877685546875,-0.74737548828125,0.06103515625,0.06103515625,-0.18310546875,0.443115234375,-0.802001953125,0.3984375,-298.0,148.0,-151.0,101700.0,-3.125000238418579,0,0
0.17933590000029653,0.37530517578125,-0.452972412109375,0.30877685546875,-0.74737548828125,-0.06103515625,-0.06103515625,-0.30517578125,0.444091796875,-0.802001953125,0.401611328125,-298.0,148.0,-151.0,101700.0,-3.125000238418579,0,0
0.17939150000165682,0.37530517578125,-0.452972412109375,0.30877685546875,-0.74737548828125,-0.06103515625,0.06103515625,-0.1220703125,0.4456787109375,-0.80029296875,0.4007568359375,-298.0,148.0,-151.0,101700.0,-3.125000238418579,0,0
0.1794454000046244,0.37530517578125,-0.452972412109375,0.30877685546875,-0.74737548828125,-0.1220703125,-0.06103515625,-0.06103515625,0.4437255859375,-0.80126953125,0.3984375,-298.0,148.0,-151.0,101700.0,-3.124000072479248,0,0
0.17949890000454616,0.37530517578125,-0.452972412109375,0.30877685546875,-0.74737548828125,-0.06103515625,0.0,-0.06103515625,0.4429931640625,-0.7994384765625,0.4007568359375,-297.0,149.0,-150.0,101700.0,-3.124000072479248,0,0
0.17955250000522938,0.375213623046875,-0.452911376953125,0.308837890625,-0.7474365234375,-0.244140625,0.0,-0.1220703125,0.44384765625,-0.8043212890625,0.4000244140625,-297.0,149.0,-150.0,101700.0,-3.124000072479248,0,0
0.24182830000063404,0.375213623046875,-0.452911376953125,0.308837890625,-0.747406005859375,0.0,-0.3662109375,-0.42724609375,0.4437255859375,-0.80224609375,0.39697265625,-297.0,149.0,-150.0,101700.0,-3.124000072479248,0,0
0.24189109999861103,0.375213623046875,-0.452911376953125,0.308837890625,-0.7474365234375,0.06103515625,0.0,-0.30517578125,0.445556640625,-0.798828125,0.3985595703125,-297.0,149.0,-150.0,101700.0,-3.124000072479248,0,0
0.24194819999684114,0.375213623046875,-0.45294189453125,0.308837890625,-0.7474365234375,-0.18310546875,-0.18310546875,-0.1220703125,0.4468994140625,-0.7994384765625,0.3978271484375,-297.0,149.0,-150.0,101700.0,-3.124000072479248,0,0
0.24200280000513885,0.375213623046875,-0.45294189453125,0.308837890625,-0.7474365234375,-0.18310546875,-0.06103515625,-0.06103515625,0.4451904296875,-0.7994384765625,0.398681640625,-297.0,149.0,-150.0,101700.0,-3.124000072479248,0,0
0.24205739999888465,0.375213623046875,-0.45294189453125,0.308837890625,-0.7474365234375,-0.18310546875,-0.06103515625,-0.06103515625,0.4451904296875,-0.7994384765625,0.398681640625,-297.0,149.0,-150.0,101700.0,-3.124000072479248,0,0
0.24211040000955109,0.375213623046875,-0.45294189453125,0.308837890625,-0.7474365234375,-0.30517578125,0.18310546875,0.1220703125,0.445556640625,-0.8013916015625,0.3997802734375,-297.0,149.0,-150.0,101700.0,-3.124000072479248,0,0
0.2421641999972053,0.375213623046875,-0.45294189453125,0.308837890625,-0.7474365234375,-0.06103515625,0.0,0.18310546875,0.4454345703125,-0.8028564453125,0.3983154296875,-297.0,149.0,-150.0,101700.0,-3.124000072479248,0,0
0.24240410000493284,0.375213623046875,-0.45294189453125,0.308837890625,-0.7474365234375,0.0,0.1220703125,0.06103515625,0.4439697265625,-0.802490234375,0.3995361328125,-297.0,149.0,-150.0,101700.0,-3.124000072479248,0,0
0.242455700004939,0.375213623046875,-0.45294189453125,0.308837890625,-0.7474365234375,-0.1220703125,0.18310546875,-0.18310546875,0.4478759765625,-0.8018798828125,0.3988037109375,-297.0,149.0,-150.0,101700.0,-3.124000072479248,0,0
0.24250980000942945,0.375213623046875,-0.45294189453125,0.308837890625,-0.7474365234375,0.0,-0.06103515625,-0.06103515625,0.4442138671875,-0.799560546875,0.3973388671875,-297.0,149.0,-150.0,101700.0,-3.124000072479248,0,0
0.24256189999869093,0.375213623046875,-0.45294189453125,0.308837890625,-0.747406005859375,0.18310546875,-0.18310546875,-0.42724609375,0.44482421875,-0.8026123046875,0.3983154296875,-297.0,149.0,-150.0,101700.0,-3.124000072479248,0,0
0.24261510001088027,0.375213623046875,-0.45294189453125,0.308837890625,-0.747406005859375,0.244140625,-0.1220703125,0.244140625,0.445556640625,-0.8043212890625,0.3984375,-297.0,149.0,-150.0,101700.0,-3.124000072479248,0,0
0.24266699999861885,0.375213623046875,-0.45294189453125,0.308837890625,-0.747406005859375,0.0,-0.244140625,-0.1220703125,0.447998046875,-0.802978515625,0.3988037109375,-297.0,149.0,-150.0,101700.0,-3.124000072479248,0,0
0.31014450000657234,0.375213623046875,-0.452911376953125,0.308837890625,-0.747406005859375,-0.18310546875,-0.1220703125,-0.244140625,0.4439697265625,-0.8028564453125,0.400634765625,-297.0,149.0,-150.0,101700.0,-3.124000072479248,0,0
0.3102081000106409,0.375213623046875,-0.452911376953125,0.308837890625,-0.747406005859375,0.0,-0.1220703125,-0.1220703125,0.4459228515625,-0.8040771484375,0.398193359375,-297.0,149.0,-150.0,101700.0,-3.124000072479248,0,0
0.3102623000013409,0.375213623046875,-0.452911376953125,0.308837890625,-0.747406005859375,-0.244140625,-0.06103515625,-0.3662109375,0.4466552734375,-0.7979736328125,0.3990478515625,-297.0,149.0,-150.0,101700.0,-3.124000072479248,0,0
0.3103172999981325,0.375213623046875,-0.45294189453125,0.308837890625,-0.747406005859375,-0.244140625,-0.06103515625,-0.3662109375,0.4466552734375,-0.7979736328125,0.3990478515625,-296.0,150.0,-150.0,101701.0,-3.125000238418579,0,0
0.31037240001023747,0.375,-0.452850341796875,0.3089599609375,-0.747528076171875,0.18310546875,-0.1220703125,-0.1220703125,0.4461669921875,-0.79931640625,0.3968505859375,-296.0,150.0,-150.0,101701.0,-3.125000238418579,0,0
0.31044280000787694,0.375,-0.452850341796875,0.3089599609375,-0.747528076171875,0.0,0.18310546875,0.0,0.4462890625,-0.798828125,0.3983154296875,-296.0,150.0,-150.0,101701.0,-3.125000238418579,0,0
0.31049640000856016,0.375,-0.452850341796875,0.3089599609375,-0.747528076171875,0.06103515625,-0.06103515625,-0.06103515625,0.445556640625,-0.7998046875,0.3988037109375,-296.0,150.0,-150.0,101701.0,-3.125000238418579,0,0
0.31054970000695903,0.375,-0.452850341796875,0.3089599609375,-0.747528076171875,0.18310546875,0.0,0.1220703125,0.446533203125,-0.802490234375,0.400146484375,-296.0,150.0,-150.0,101701.0,-3.125000238418579,0,0
0.3106039999984205,0.375,-0.452850341796875,0.3089599609375,-0.747528076171875,0.18310546875,0.0,0.1220703125,0.446533203125,-0.802490234375,0.400146484375,-296.0,150.0,-150.0,101701.0,-3.125000238418579,0,0
0.310656800007564,0.375,-0.452850341796875,0.3089599609375,-0.747528076171875,0.18310546875,0.3662109375,0.18310546875,0.441650390625,-0.8028564453125,0.3992919921875,-296.0,150.0,-150.0,101701.0,-3.125000238418579,0,0
0.31071170000359416,0.375,-0.452850341796875,0.3089599609375,-0.74749755859375,-0.244140625,-0.06103515625,0.18310546875,0.4454345703125,-0.804443359375,0.399169921875,-296.0,150.0,-150.0,101701.0,-3.125000238418579,0,0
0.3700126000039745,0.375,-0.452850341796875,0.308990478515625,-0.74749755859375,0.30517578125,0.18310546875,-0.30517578125,0.4449462890625,-0.8017578125,0.3955078125,-296.0,150.0,-150.0,101701.0,-3.125000238418579,0,0
0.3700728999974672,0.375,-0.452850341796875,0.308990478515625,-0.74749755859375,0.06103515625,-0.18310546875,0.0,0.446533203125,-0.802734375,0.3983154296875,-296.0,150.0,-150.0,101701.0,-3.125000238418579,0,0
0.370127300004242,0.375,-0.452850341796875,0.308990478515625,-0.74749755859375,-0.06103515625,-0.1220703125,0.0,0.44482421875,-0.8023681640625,0.3975830078125,-296.0,150.0,-150.0,101701.0,-3.125000238418579,0,0
0.37018220000027213,0.375,-0.452850341796875,0.308990478515625,-0.74749755859375,0.06103515625,-0.06103515625,-0.30517578125,0.445068359375,-0.8006591796875,0.39794921875,-296.0,150.0,-150.0,101701.0,-3.125000238418579,0,0
0.370234400004847,0.375,-0.452850341796875,0.308990478515625,-0.74749755859375,0.06103515625,-0.06103515625,-0.30517578125,0.445068359375,-0.8006591796875,0.39794921875,-296.0,150.0,-150.0,101701.0,-3.125000238418579,0,0
0.3703008000011323,0.375,-0.452850341796875,0.3089599609375,-0.74749755859375,0.244140625,-0.1220703125,-0.1220703125,0.44775390625,-0.798583984375,0.4017333984375,-296.0,150.0,-150.0,101701.0,-3.125000238418579,0,0
0.3703546000033384,0.375,-0.452880859375,0.3089599609375,-0.74749755859375,0.1220703125,0.1220703125,0.06103515625,0.4462890625,-0.801513671875,0.3980712890625,-296.0,150.0,-150.0,101701.0,-3.125000238418579,0,0
0.37043970001104753,0.375,-0.452850341796875,0.3089599609375,-0.74749755859375,0.244140625,0.0,0.06103515625,0.4459228515625,-0.80078125,0.398681640625,-296.0,150.0,-150.0,101701.0,-3.125000238418579,0,0
0.37049230000411626,0.375,-0.452850341796875,0.3089599609375,-0.74749755859375,-0.244140625,-0.1220703125,-0.18310546875,0.4439697265625,-0.800048828125,0.3988037109375,-296.0,150.0,-150.0,101701.0,-3.125000238418579,0,0
0.37054519999946933,0.375,-0.452880859375,0.308990478515625,-0.74749755859375,0.0,-0.06103515625,-0.06103515625,0.4434814453125,-0.80126953125,0.3966064453125,-296.0,150.0,-150.0,101701.0,-3.125000238418579,0,0
0.3705970000009984,0.375,-0.452880859375,0.308990478515625,-0.74749755859375,0.1220703125,-0.1220703125,-0.3662109375,0.4449462890625,-0.80078125,0.3974609375,-295.0,152.0,-149.0,101701.0,-3.126000165939331,0,0
0.4363164000096731,0.375,-0.452880859375,0.308990478515625,-0.74749755859375,0.0,-0.06103515625,0.0,0.4454345703125,-0.801513671875,0.399169921875,-295.0,152.0,-149.0,101701.0,-3.126000165939331,0,0
0.43638140000985004,0.374908447265625,-0.45281982421875,0.309051513671875,-0.74755859375,0.30517578125,0.1220703125,-0.244140625,0.4449462890625,-0.8013916015625,0.3992919921875,-295.0,152.0,-149.0,101701.0,-3.126000165939331,0,0
0.43643870000960305,0.374908447265625,-0.45281982421875,0.309051513671875,-0.74755859375,0.06103515625,-0.18310546875,0.1220703125,0.4464111328125,-0.8033447265625,0.3975830078125,-295.0,152.0,-149.0,101701.0,-3.126000165939331,0,0
0.4364946999994572,0.374908447265625,-0.45281982421875,0.309051513671875,-0.74755859375,0.06103515625,-0.18310546875,0.1220703125,0.4464111328125,-0.8033447265625,0.3975830078125,-295.0,152.0,-149.0,101701.0,-3.126000165939331,0,0
0.4365523000014946,0.374908447265625,-0.452850341796875,0.309051513671875,-0.747528076171875,0.1220703125,-0.06103515625,-0.06103515625,0.4462890625,-0.801025390625,0.3975830078125,-295.0,152.0,-149.0,101701.0,-3.126000165939331,0,0
0.4366071000113152,0.374908447265625,-0.452850341796875,0.309051513671875,-0.747528076171875,-0.18310546875,-0.3662109375,-0.1220703125,0.445068359375,-0.8023681640625,0.3968505859375,-295.0,152.0,-149.0,101701.0,-3.126000165939331,0,0
0.43666040000971407,0.374908447265625,-0.452850341796875,0.309051513671875,-0.747528076171875,0.3662109375,0.0,-0.18310546875,0.445068359375,-0.80126953125,0.3984375,-295.0,152.0,-149.0,101701.0,-3.126000165939331,0,0
0.43762550000974443,0.374908447265625,-0.452850341796875,0.309051513671875,-0.747528076171875,-0.18310546875,-0.06103515625,0.06103515625,0.4439697265625,-0.8009033203125,0.396484375,-295.0,152.0,-149.0,101701.0,-3.126000165939331,0,0
0.4376849999971455,0.374908447265625,-0.452850341796875,0.309051513671875,-0.747528076171875,0.1220703125,-0.244140625,0.0,0.445556640625,-0.7991943359375,0.39697265625,-295.0,152.0,-149.0,101701.0,-3.126000165939331,0,0
0.43773869999859016,0.3748779296875,-0.452850341796875,0.309051513671875,-0.747528076171875,0.0,-0.30517578125,-0.244140625,0.4478759765625,-0.80029296875,0.3994140625,-295.0,152.0,-149.0,101701.0,-3.126000165939331,0,0
0.4377925000007963,0.374908447265625,-0.452850341796875,0.309051513671875,-0.747528076171875,-0.244140625,-0.06103515625,0.06103515625,0.443359375,-0.802001953125,0.399169921875,-295.0,152.0,-149.0,101701.0,-3.126000165939331,0,0
0.4378454999969108,0.374908447265625,-0.452850341796875,0.309051513671875,-0.747528076171875,0.06103515625,-0.30517578125,0.244140625,0.4449462890625,-0.8013916015625,0.3984375,-295.0,152.0,-149.0,101701.0,-3.126000165939331,0,0
0.4378970000107074,0.374908447265625,-0.452850341796875,0.309051513671875,-0.747528076171875,0.06103515625,-0.30517578125,0.244140625,0.4449462890625,-0.8013916015625,0.3984375,-295.0,152.0,-149.0,101701.0,-3.126000165939331,0,0
0.5012529000086943,0.3748779296875,-0.452850341796875,0.30908203125,-0.747528076171875,0.0,0.0,-0.244140625,0.4449462890625,-0.8006591796875,0.3988037109375,-295.0,152.0,-149.0,101701.0,-3.126000165939331,0,0
0.5013250000047265,0.374908447265625,-0.452850341796875,0.30908203125,-0.747528076171875,0.18310546875,-0.06103515625,0.0,0.4449462890625,-0.802001953125,0.3983154296875,-295.0,152.0,-149.0,101701.0,-3.126000165939331,0,0
0.5072768000100041,0.374786376953125,-0.45281982421875,0.30914306640625,-0.74755859375,0.244140625,-0.06103515625,-0.06103515625,0.4453125,-0.8013916015625,0.39794921875,-294.0,152.0,-150.0,101701.0,-3.126000165939331,0,0
0.5073489000060363,0.374786376953125,-0.452850341796875,0.309173583984375,-0.74755859375,0.06103515625,-0.18310546875,0.06103515625,0.445556640625,-0.8040771484375,0.39794921875,-294.0,152.0,-150.0,101701.0,-3.126000165939331,0,0
0.5074082000064664,0.374786376953125,-0.452850341796875,0.309173583984375,-0.74755859375,-0.06103515625,-0.06103515625,-0.1220703125,0.4449462890625,-0.8016357421875,0.3958740234375,-294.0,152.0,-150.0,101701.0,-3.126000165939331,0,0
0.5074648000008892,0.374786376953125,-0.452850341796875,0.309173583984375,-0.74755859375,0.30517578125,0.06103515625,-0.06103515625,0.4442138671875,-0.7994384765625,0.3955078125,-294.0,152.0,-150.0,101701.0,-3.126000165939331,0,0
0.5650202999968315,0.374786376953125,-0.452850341796875,0.309173583984375,-0.74755859375,0.06103515625,0.06103515625,-0.1220703125,0.445068359375,-0.800537109375,0.3985595703125,-294.0,152.0,-150.0,101701.0,-3.126000165939331,0,0
0.5650954000011552,0.374786376953125,-0.452850341796875,0.309173583984375,-0.74755859375,0.18310546875,0.0,0.06103515625,0.4451904296875,-0.8018798828125,0.39697265625,-294.0,152.0,-150.0,101701.0,-3.126000165939331,0,0
0.5651532000047155,0.374786376953125,-0.452850341796875,0.309173583984375,-0.747528076171875,0.18310546875,0.0,0.06103515625,0.4451904296875,-0.8018798828125,0.39697265625,-294.0,152.0,-150.0,101701.0,-3.126000165939331,0,0
0.5652095999976154,0.374786376953125,-0.452850341796875,0.309173583984375,-0.747528076171875,0.18310546875,0.0,0.06103515625,0.4451904296875,-0.8018798828125,0.39697265625,-294.0,152.0,-150.0,101701.0,-3.126000165939331,0,0
0.5652650999982143,0.374786376953125,-0.452850341796875,0.309173583984375,-0.747528076171875,-0.1220703125,-0.06103515625,0.06103515625,0.44482421875,-0.80224609375,0.3973388671875,-294.0,152.0,-150.0,101701.0,-3.126000165939331,0,0
0.5653351000073599,0.374786376953125,-0.452850341796875,0.309173583984375,-0.747528076171875,0.0,-0.18310546875,-0.18310546875,0.44580078125,-0.8006591796875,0.3970947265625,-294.0,152.0,-150.0,101701.0,-3.126000165939331,0,0
0.5653883000049973,0.374786376953125,-0.452880859375,0.309173583984375,-0.747528076171875,0.1220703125,0.0,-0.1220703125,0.4476318359375,-0.8031005859375,0.3966064453125,-294.0,152.0,-150.0,101701.0,-3.126000165939331,0,0
0.5654418000049191,0.374786376953125,-0.452880859375,0.309173583984375,-0.747528076171875,-0.18310546875,0.0,-0.18310546875,0.446044921875,-0.8046875,0.3980712890625,-294.0,152.0,-150.0,101701.0,-3.126000165939331,0,0
0.5654934000049252,0.374786376953125,-0.452880859375,0.309173583984375,-0.747528076171875,0.06103515625,-0.244140625,-0.244140625,0.44482421875,-0.8013916015625,0.4000244140625,-294.0,152.0,-150.0,101701.0,-3.126000165939331,0,0
0.5655450000049314,0.374786376953125,-0.452850341796875,0.309173583984375,-0.747528076171875,-0.06103515625,-0.06103515625,-0.244140625,0.4442138671875,-0.8028564453125,0.3984375,-294.0,152.0,-150.0,101701.0,-3.126000165939331,0,0
0.565596700005699,0.374786376953125,-0.452880859375,0.3092041015625,-0.747528076171875,0.06103515625,-0.18310546875,-0.06103515625,0.4429931640625,-0.80029296875,0.3984375,-294.0,152.0,-150.0,101701.0,-3.126000165939331,0,0
0.6272106999967946,0.374786376953125,-0.452880859375,0.3092041015625,-0.747528076171875,0.0,-0.06103515625,-0.06103515625,0.4464111328125,-0.8021240234375,0.39599609375,-294.0,152.0,-150.0,101701.0,-3.126000165939331,0,0
0.6272911999985809,0.374786376953125,-0.452880859375,0.3092041015625,-0.747528076171875,0.244140625,-0.1220703125,-0.1220703125,0.444580078125,-0.8009033203125,0.397216796875,-294.0,151.0,-150.0,101701.0,-3.126000165939331,0,0
0.6273504999990109,0.374786376953125,-0.452880859375,0.3092041015625,-0.747528076171875,0.244140625,-0.1220703125,-0.1220703125,0.444580078125,-0.8009033203125,0.397216796875,-294.0,151.0,-150.0,101701.0,-3.126000165939331,0,0
0.6274100000009639,0.374664306640625,-0.45281982421875,0.30926513671875,-0.74755859375,-0.06103515625,-0.18310546875,-0.06103515625,0.4447021484375,-0.802490234375,0.3974609375,-294.0,151.0,-150.0,101701.0,-3.126000165939331,0,0
0.6274694000021555,0.374664306640625,-0.452850341796875,0.30926513671875,-0.74755859375,0.244140625,-0.18310546875,-0.18310546875,0.447509765625,-0.8013916015625,0.3980712890625,-294.0,151.0,-150.0,101701.0,-3.126000165939331,0,0
0.6275258000096073,0.374664306640625,-0.452850341796875,0.309234619140625,-0.74755859375,-0.06103515625,0.1220703125,0.06103515625,0.4462890625,-0.7999267578125,0.3974609375,-294.0,151.0,-150.0,101701.0,-3.126000165939331,0,0
0.6275792000087677,0.374664306640625,-0.452850341796875,0.30926513671875,-0.74755859375,0.18310546875,-0.06103515625,-0.1220703125,0.445556640625,-0.804443359375,0.3951416015625,-294.0,151.0,-150.0,101701.0,-3.126000165939331,0,0
0.6276951000036206,0.374664306640625,-0.452850341796875,0.30926513671875,-0.74755859375,0.244140625,0.18310546875,-0.18310546875,0.4454345703125,-0.8009033203125,0.3953857421875,-294.0,151.0,-150.0,101701.0,-3.126000165939331,0,0
0.6277517999988049,0.374664306640625,-0.452850341796875,0.30926513671875,-0.74755859375,0.18310546875,-0.18310546875,-0.3662109375,0.4451904296875,-0.801025390625,0.3975830078125,-294.0,151.0,-150.0,101701.0,-3.126000165939331,0,0
0.6278072999994038,0.374664306640625,-0.452850341796875,0.30926513671875,-0.74755859375,0.1220703125,-0.1220703125,-0.1220703125,0.445556640625,-0.8011474609375,0.3978271484375,-294.0,151.0,-150.0,101701.0,-3.126000165939331,0,0
0.6278610000008484,0.374664306640625,-0.452880859375,0.30926513671875,-0.74755859375,-0.244140625,-0.06103515625,0.06103515625,0.447265625,-0.8026123046875,0.396484375,-294.0,151.0,-150.0,101701.0,-3.126000165939331,0,0
0.6279152000061003,0.374664306640625,-0.452880859375,0.30926513671875,-0.74755859375,-0.244140625,-0.06103515625,0.06103515625,0.447265625,-0.8026123046875,0.396484375,-294.0,151.0,-150.0,101701.0,-3.126000165939331,0,0
0.6279685000044992,0.374664306640625,-0.452880859375,0.30926513671875,-0.74755859375,0.0,-0.1220703125,-0.1220703125,0.4453125,-0.8018798828125,0.3994140625,-294.0,151.0,-150.0,101700.0,-3.123000144958496,0,0
0.6922791000106372,0.3746337890625,-0.452880859375,0.30926513671875,-0.74755859375,0.30517578125,-0.06103515625,-0.06103515625,0.447021484375,-0.8021240234375,0.397216796875,-294.0,151.0,-150.0,101700.0,-3.123000144958496,0,0
0.6923447000008309,0.3746337890625,-0.452880859375,0.30926513671875,-0.74755859375,-0.1220703125,-0.06103515625,-0.1220703125,0.447265625,-0.799072265625,0.3975830078125,-294.0,151.0,-150.0,101700.0,-3.123000144958496,0,0
0.6924033000104828,0.3746337890625,-0.452911376953125,0.30926513671875,-0.74755859375,-0.1220703125,-0.30517578125,-0.18310546875,0.4482421875,-0.803466796875,0.3970947265625,-294.0,151.0,-150.0,101700.0,-3.123000144958496,0,0
0.6924609999987297,0.3746337890625,-0.452911376953125,0.30926513671875,-0.74755859375,0.06103515625,0.0,-0.1220703125,0.4473876953125,-0.801025390625,0.3968505859375,-294.0,151.0,-150.0,101700.0,-3.123000144958496,0,0
0.6925185000000056,0.3746337890625,-0.452911376953125,0.30926513671875,-0.74755859375,-0.06103515625,0.1220703125,0.06103515625,0.4454345703125,-0.802734375,0.3980712890625,-294.0,151.0,-150.0,101700.0,-3.123000144958496,0,0
0.6925970000011148,0.3746337890625,-0.452911376953125,0.30926513671875,-0.74755859375,-0.06103515625,0.1220703125,0.06103515625,0.4454345703125,-0.802734375,0.3980712890625,-294.0,151.0,-150.0,101700.0,-3.123000144958496,0,0
0.692653899997822,0.3746337890625,-0.452911376953125,0.30926513671875,-0.747528076171875,0.244140625,0.18310546875,0.18310546875,0.4443359375,-0.802734375,0.397216796875,-294.0,151.0,-150.0,101700.0,-3.123000144958496,0,0
0.6927548000094248,0.3746337890625,-0.452911376953125,0.30926513671875,-0.747528076171875,0.244140625,0.18310546875,0.18310546875,0.4443359375,-0.802734375,0.397216796875,-294.0,152.0,-151.0,101700.0,-3.123000144958496,0,0
0.6928104999969946,0.37432861328125,-0.452789306640625,0.309478759765625,-0.7476806640625,0.06103515625,-0.06103515625,-0.06103515625,0.4449462890625,-0.8037109375,0.3990478515625,-294.0,152.0,-151.0,101700.0,-3.123000144958496,0,0
0.6928664000006393,0.37432861328125,-0.452789306640625,0.309478759765625,-0.7476806640625,-0.18310546875,-0.1220703125,0.0,0.44287109375,-0.8026123046875,0.3973388671875,-294.0,152.0,-151.0,101700.0,-3.123000144958496,0,0
0.6929214999981923,0.37432861328125,-0.452789306640625,0.309478759765625,-0.7476806640625,-0.1220703125,0.0,-0.06103515625,0.4442138671875,-0.802001953125,0.396484375,-294.0,152.0,-151.0,101700.0,-3.123000144958496,0,0
0.7528923000063514,0.37432861328125,-0.452789306640625,0.309478759765625,-0.7476806640625,0.06103515625,0.0,-0.244140625,0.4453125,-0.8009033203125,0.3973388671875,-294.0,152.0,-151.0,101700.0,-3.123000144958496,0,0
0.7529611000063596,0.37432861328125,-0.45281982421875,0.309478759765625,-0.7476806640625,0.18310546875,0.0,0.0,0.4456787109375,-0.80419921875,0.3961181640625,-294.0,152.0,-151.0,101700.0,-3.123000144958496,0,0
0.7530225000082282,0.37432861328125,-0.45281982421875,0.309478759765625,-0.7476806640625,0.18310546875,0.0,0.0,0.4456787109375,-0.80419921875,0.3961181640625,-294.0,152.0,-151.0,101700.0,-3.123000144958496,0,0
0.7536897000099998,0.37432861328125,-0.45281982421875,0.309478759765625,-0.7476806640625,-0.244140625,-0.1220703125,-0.18310546875,0.44580078125,-0.8018798828125,0.3966064453125,-294.0,152.0,-151.0,101700.0,-3.123000144958496,0,0
0.7537665999989258,0.37432861328125,-0.45281982421875,0.309478759765625,-0.7476806640625,-0.18310546875,-0.1220703125,-0.06103515625,0.447998046875,-0.8021240234375,0.3980712890625,-294.0,152.0,-151.0,101701.0,-3.126000165939331,0,0
0.7622250999993412,0.37432861328125,-0.45281982421875,0.309478759765625,-0.747650146484375,0.18310546875,-0.1220703125,-0.18310546875,0.4461669921875,-0.802001953125,0.398193359375,-294.0,152.0,-151.0,101701.0,-3.126000165939331,0,0
0.7622877000103472,0.37432861328125,-0.45281982421875,0.309478759765625,-0.747650146484375,-0.06103515625,-0.18310546875,-0.06103515625,0.4454345703125,-0.8013916015625,0.3963623046875,-294.0,152.0,-151.0,101701.0,-3.126000165939331,0,0
0.762446100008674,0.37432861328125,-0.45281982421875,0.309478759765625,-0.747650146484375,-0.06103515625,-0.06103515625,-0.3662109375,0.4466552734375,-0.8017578125,0.3978271484375,-294.0,152.0,-151.0,101701.0,-3.126000165939331,0,0
0.7625096999981906,0.37432861328125,-0.45281982421875,0.309478759765625,-0.747650146484375,0.0,-0.1220703125,0.06103515625,0.444091796875,-0.80126953125,0.3978271484375,-294.0,152.0,-151.0,101701.0,-3.126000165939331,0,0
0.7625703000085196,0.37432861328125,-0.45281982421875,0.309478759765625,-0.747650146484375,-0.244140625,-0.244140625,-0.244140625,0.445068359375,-0.7999267578125,0.3970947265625,-294.0,152.0,-151.0,101701.0,-3.126000165939331,0,0
0.7669753000081982,0.37432861328125,-0.452850341796875,0.309478759765625,-0.747650146484375,0.244140625,-0.18310546875,-0.06103515625,0.4451904296875,-0.8021240234375,0.3974609375,-294.0,152.0,-151.0,101701.0,-3.126000165939331,0,0
0.7670469000004232,0.37432861328125,-0.452850341796875,0.309478759765625,-0.747650146484375,0.244140625,-0.18310546875,-0.06103515625,0.4451904296875,-0.8021240234375,0.3974609375,-294.0,152.0,-151.0,101701.0,-3.126000165939331,0,0
0.8182078000099864,0.374298095703125,-0.452850341796875,0.309478759765625,-0.747650146484375,0.0,-0.06103515625,0.06103515625,0.4453125,-0.8016357421875,0.39599609375,-294.0,152.0,-151.0,101701.0,-3.126000165939331,0,0
0.8182697000011103,0.374298095703125,-0.452850341796875,0.309478759765625,-0.747650146484375,-0.1220703125,-0.1220703125,-0.18310546875,0.4464111328125,-0.80126953125,0.3974609375,-294.0,152.0,-151.0,101701.0,-3.126000165939331,0,0
0.8183254000032321,0.374298095703125,-0.452850341796875,0.309478759765625,-0.747650146484375,0.0,0.06103515625,-0.06103515625,0.4447021484375,-0.80126953125,0.39794921875,-294.0,152.0,-151.0,101701.0,-3.126000165939331,0,0
0.8183800999977393,0.373992919921875,-0.45269775390625,0.309661865234375,-0.747802734375,0.1220703125,0.0,-0.06103515625,0.4449462890625,-0.7998046875,0.3988037109375,-294.0,152.0,-151.0,101701.0,-3.126000165939331,0,0
0.8184376999997767,0.373992919921875,-0.452728271484375,0.309661865234375,-0.747802734375,-0.06103515625,-0.1220703125,-0.06103515625,0.445556640625,-0.8018798828125,0.3980712890625,-294.0,152.0,-151.0,101701.0,-3.126000165939331,0,0
0.8184948999987682,0.373992919921875,-0.45269775390625,0.309661865234375,-0.747802734375,0.0,-0.18310546875,-0.18310546875,0.4454345703125,-0.80224609375,0.3988037109375,-294.0,152.0,-151.0,101701.0,-3.126000165939331,0,0
0.8185621000011452,0.373992919921875,-0.452728271484375,0.309661865234375,-0.747802734375,0.1220703125,0.0,0.1220703125,0.44482421875,-0.801025390625,0.396240234375,-294.0,152.0,-151.0,101701.0,-3.126000165939331,0,0
0.8186145000072429,0.373992919921875,-0.452728271484375,0.309661865234375,-0.747802734375,-0.244140625,0.0,0.1220703125,0.4453125,-0.800537109375,0.3975830078125,-294.0,152.0,-151.0,101701.0,-3.126000165939331,0,0
0.8186666000110563,0.373992919921875,-0.452728271484375,0.309661865234375,-0.747802734375,-0.18310546875,-0.06103515625,0.0,0.4453125,-0.8023681640625,0.3984375,-294.0,152.0,-151.0,101701.0,-3.126000165939331,0,0
0.8187177000072552,0.373992919921875,-0.452728271484375,0.309661865234375,-0.747802734375,-0.18310546875,-0.06103515625,0.0,0.4453125,-0.8023681640625,0.3984375,-294.0,152.0,-151.0,101701.0,-3.126000165939331,0,0
0.8188086000009207,0.373992919921875,-0.452728271484375,0.309661865234375,-0.747802734375,0.244140625,-0.1220703125,-0.1220703125,0.44580078125,-0.8023681640625,0.3975830078125,-294.0,152.0,-151.0,101701.0,-3.126000165939331,0,0
0.8188608000054955,0.373992919921875,-0.452728271484375,0.309661865234375,-0.747802734375,0.06103515625,-0.3662109375,0.0,0.4447021484375,-0.8013916015625,0.3980712890625,-294.0,152.0,-151.0,101701.0,-3.126000165939331,0,0
0.8840857000031974,0.373992919921875,-0.452728271484375,0.309661865234375,-0.747802734375,0.0,-0.18310546875,-0.244140625,0.4449462890625,-0.801513671875,0.3995361328125,-294.0,152.0,-151.0,101700.0,-3.124000072479248,0,0
0.8841497000103118,0.373992919921875,-0.452728271484375,0.309661865234375,-0.747802734375,-0.1220703125,-0.1220703125,0.06103515625,0.44677734375,-0.8035888671875,0.3973388671875,-294.0,152.0,-151.0,101700.0,-3.124000072479248,0,0
0.884207700000843,0.373992919921875,-0.452728271484375,0.309661865234375,-0.747802734375,0.18310546875,0.0,-0.06103515625,0.447509765625,-0.80126953125,0.3984375,-294.0,152.0,-151.0,101700.0,-3.124000072479248,0,0
0.8842628999991575,0.373992919921875,-0.452728271484375,0.309661865234375,-0.747802734375,0.06103515625,0.0,-0.18310546875,0.4451904296875,-0.7994384765625,0.3973388671875,-294.0,152.0,-151.0,101700.0,-3.124000072479248,0,0
0.8843177000089781,0.373992919921875,-0.452728271484375,0.309661865234375,-0.747802734375,0.06103515625,0.0,-0.18310546875,0.4451904296875,-0.7994384765625,0.3973388671875,-294.0,152.0,-151.0,101700.0,-3.124000072479248,0,0
0.8843826000083936,0.373992919921875,-0.452728271484375,0.309661865234375,-0.747802734375,-0.1220703125,0.0,0.244140625,0.44482421875,-0.8013916015625,0.3963623046875,-294.0,152.0,-151.0,101700.0,-3.124000072479248,0,0
0.884436000007554,0.373992919921875,-0.452728271484375,0.309661865234375,-0.747802734375,-0.06103515625,-0.06103515625,0.1220703125,0.4449462890625,-0.8026123046875,0.39794921875,-294.0,152.0,-151.0,101700.0,-3.124000072479248,0,0
0.8845242000097642,0.373992919921875,-0.452728271484375,0.309661865234375,-0.747802734375,0.18310546875,-0.06103515625,0.06103515625,0.445068359375,-0.80224609375,0.399169921875,-294.0,152.0,-151.0,101700.0,-3.124000072479248,0,0
0.8845765000005485,0.373992919921875,-0.452728271484375,0.309661865234375,-0.747802734375,0.18310546875,-0.06103515625,0.06103515625,0.445068359375,-0.80224609375,0.399169921875,-294.0,152.0,-151.0,101700.0,-3.124000072479248,0,0
0.8846298999997089,0.373992919921875,-0.452728271484375,0.309661865234375,-0.747802734375,-0.1220703125,-0.1220703125,0.1220703125,0.4459228515625,-0.802490234375,0.3975830078125,-294.0,151.0,-149.0,101700.0,-3.124000072479248,0,0
0.884681499999715,0.373992919921875,-0.452728271484375,0.309661865234375,-0.747802734375,0.244140625,0.06103515625,0.0,0.4471435546875,-0.8026123046875,0.3974609375,-294.0,151.0,-149.0,101700.0,-3.124000072479248,0,0
0.884733500002767,0.373992919921875,-0.452728271484375,0.309661865234375,-0.747802734375,-0.1220703125,-0.1220703125,-0.06103515625,0.4443359375,-0.8028564453125,0.3994140625,-294.0,151.0,-149.0,101700.0,-3.124000072479248,0,0
0.9421387000038521,0.373992919921875,-0.452728271484375,0.3096923828125,-0.747802734375,0.3662109375,0.06103515625,0.06103515625,0.4456787109375,-0.802978515625,0.3975830078125,-294.0,151.0,-149.0,101700.0,-3.124000072479248,0,0
0.9422008000110509,0.373992919921875,-0.452728271484375,0.3096923828125,-0.747802734375,0.1220703125,-0.1220703125,-0.30517578125,0.443115234375,-0.800048828125,0.396484375,-294.0,151.0,-149.0,101700.0,-3.124000072479248,0,0
0.942257000002428,0.373992919921875,-0.452728271484375,0.3096923828125,-0.747772216796875,0.244140625,0.0,-0.30517578125,0.4451904296875,-0.8013916015625,0.39697265625,-294.0,151.0,-149.0,101700.0,-3.124000072479248,0,0
0.9423103000008268,0.373992919921875,-0.4527587890625,0.3096923828125,-0.747772216796875,0.30517578125,0.0,-0.18310546875,0.4451904296875,-0.80126953125,0.3946533203125,-294.0,151.0,-149.0,101700.0,-3.124000072479248,0,0
0.9581709000049159,0.373992919921875,-0.4527587890625,0.3096923828125,-0.747772216796875,0.30517578125,-0.06103515625,-0.06103515625,0.4443359375,-0.800537109375,0.3946533203125,-294.0,151.0,-149.0,101700.0,-3.123000144958496,0,0
0.9582360000058543,0.373992919921875,-0.4527587890625,0.3096923828125,-0.747772216796875,-0.06103515625,-0.1220703125,0.1220703125,0.44580078125,-0.7982177734375,0.396728515625,-294.0,151.0,-149.0,101700.0,-3.123000144958496,0,0
0.9582905999996001,0.373992919921875,-0.4527587890625,0.3096923828125,-0.747772216796875,0.1220703125,-0.06103515625,0.0,0.445068359375,-0.801025390625,0.397216796875,-294.0,151.0,-149.0,101700.0,-3.123000144958496,0,0
0.9583455000101821,0.373992919921875,-0.4527587890625,0.3096923828125,-0.747772216796875,0.18310546875,0.0,0.0,0.44580078125,-0.8011474609375,0.3956298828125,-294.0,151.0,-149.0,101700.0,-3.123000144958496,0,0
0.9583993999985978,0.373992919921875,-0.4527587890625,0.309722900390625,-0.747772216796875,-0.244140625,-0.1220703125,0.0,0.445068359375,-0.8037109375,0.3948974609375,-294.0,151.0,-149.0,101700.0,-3.123000144958496,0,0
0.9584521000069799,0.373992919921875,-0.4527587890625,0.309722900390625,-0.747772216796875,-0.244140625,-0.1220703125,0.0,0.445068359375,-0.8037109375,0.3948974609375,-294.0,151.0,-149.0,101700.0,-3.123000144958496,0,0
0.9585052000038559,0.373992919921875,-0.452789306640625,0.309722900390625,-0.747772216796875,0.0,-0.18310546875,0.0,0.44580078125,-0.802001953125,0.3963623046875,-294.0,151.0,-149.0,101700.0,-3.123000144958496,0,0
1.0097910000040429,0.373992919921875,-0.452789306640625,0.309722900390625,-0.74774169921875,0.0,-0.18310546875,0.06103515625,0.444091796875,-0.803466796875,0.396728515625,-294.0,151.0,-149.0,101700.0,-3.123000144958496,0,0
1.0098555000004126,0.373992919921875,-0.452789306640625,0.309722900390625,-0.74774169921875,0.1220703125,-0.1220703125,-0.1220703125,0.443359375,-0.8033447265625,0.3956298828125,-294.0,151.0,-149.0,101700.0,-3.123000144958496,0,0
1.0099147000000812,0.373992919921875,-0.452789306640625,0.309722900390625,-0.74774169921875,-0.06103515625,-0.06103515625,-0.1220703125,0.4451904296875,-0.80126953125,0.39501953125,-294.0,151.0,-149.0,101700.0,-3.123000144958496,0,0
1.0099707000044873,0.373992919921875,-0.452789306640625,0.309722900390625,-0.74774169921875,0.1220703125,-0.1220703125,-0.06103515625,0.4464111328125,-0.80126953125,0.3963623046875,-294.0,151.0,-149.0,101700.0,-3.123000144958496,0,0
1.0100260000035632,0.37396240234375,-0.45281982421875,0.30975341796875,-0.74774169921875,0.1220703125,-0.1220703125,-0.06103515625,0.4473876953125,-0.8018798828125,0.3966064453125,-296.0,151.0,-148.0,101700.0,-3.123000144958496,0,0
1.010079300001962,0.374176025390625,-0.452911376953125,0.30963134765625,-0.74761962890625,0.30517578125,0.06103515625,-0.3662109375,0.4473876953125,-0.8016357421875,0.396240234375,-296.0,151.0,-148.0,101700.0,-3.123000144958496,0,0
1.0101482000027318,0.374176025390625,-0.452911376953125,0.30963134765625,-0.74761962890625,0.1220703125,-0.18310546875,-0.18310546875,0.44580078125,-0.80126953125,0.3966064453125,-296.0,151.0,-148.0,101700.0,-3.123000144958496,0,0
1.0102021000056993,0.374176025390625,-0.452911376953125,0.30963134765625,-0.74761962890625,0.06103515625,-0.06103515625,-0.06103515625,0.443115234375,-0.802001953125,0.3948974609375,-296.0,151.0,-148.0,101700.0,-3.123000144958496,0,0
1.0102541000087513,0.374176025390625,-0.452911376953125,0.30963134765625,-0.74761962890625,0.06103515625,-0.06103515625,-0.06103515625,0.443115234375,-0.802001953125,0.3948974609375,-296.0,151.0,-148.0,101700.0,-3.123000144958496,0,0
1.0103072000056272,0.374176025390625,-0.452911376953125,0.30963134765625,-0.74761962890625,0.244140625,0.0,0.06103515625,0.447021484375,-0.7998046875,0.396240234375,-296.0,151.0,-148.0,101700.0,-3.123000144958496,0,0
1.010359799998696,0.374176025390625,-0.452911376953125,0.30963134765625,-0.74761962890625,-0.18310546875,0.18310546875,-0.244140625,0.4439697265625,-0.802490234375,0.39697265625,-296.0,151.0,-148.0,101700.0,-3.123000144958496,0,0
1.0104141000047093,0.374176025390625,-0.452911376953125,0.30963134765625,-0.74761962890625,0.244140625,0.0,0.1220703125,0.4434814453125,-0.8023681640625,0.39501953125,-296.0,151.0,-148.0,101700.0,-3.123000144958496,0,0
1.0104665999970166,0.374176025390625,-0.45294189453125,0.30963134765625,-0.74761962890625,0.0,-0.18310546875,-0.244140625,0.4451904296875,-0.8006591796875,0.3935546875,-296.0,151.0,-148.0,101700.0,-3.123000144958496,0,0
1.0730999000079464,0.3741455078125,-0.45294189453125,0.30963134765625,-0.747589111328125,-0.06103515625,-0.06103515625,-0.18310546875,0.446044921875,-0.799560546875,0.393310546875,-296.0,151.0,-148.0,101700.0,-3.123000144958496,0,0
1.0731627000059234,0.3741455078125,-0.45294189453125,0.309661865234375,-0.747589111328125,-0.06103515625,0.0,0.1220703125,0.4447021484375,-0.8009033203125,0.3948974609375,-296.0,151.0,-148.0,101700.0,-3.123000144958496,0,0
1.0732181000057608,0.3741455078125,-0.452972412109375,0.309661865234375,-0.747589111328125,0.18310546875,-0.1220703125,0.0,0.446044921875,-0.8006591796875,0.39453125,-296.0,151.0,-148.0,101700.0,-3.123000144958496,0,0
1.0732751000032295,0.3741455078125,-0.452972412109375,0.309661865234375,-0.747589111328125,0.18310546875,-0.1220703125,0.0,0.446044921875,-0.8006591796875,0.39453125,-296.0,151.0,-148.0,101700.0,-3.123000144958496,0,0
1.0733354999974836,0.3741455078125,-0.452972412109375,0.309661865234375,-0.747589111328125,-0.06103515625,-0.1220703125,-0.1220703125,0.4447021484375,-0.8017578125,0.39453125,-296.0,151.0,-148.0,101700.0,-3.123000144958496,0,0
1.0734701000037603,0.3741455078125,-0.452972412109375,0.309661865234375,-0.747589111328125,0.18310546875,0.0,-0.1220703125,0.44482421875,-0.801513671875,0.3968505859375,-296.0,151.0,-148.0,101700.0,-3.123000144958496,0,0
1.073544300001231,0.3741455078125,-0.452972412109375,0.309661865234375,-0.74755859375,0.0,-0.30517578125,-0.18310546875,0.445556640625,-0.802490234375,0.396240234375,-296.0,151.0,-148.0,101700.0,-3.123000144958496,0,0
1.0736031999986153,0.3741455078125,-0.4530029296875,0.3096923828125,-0.74755859375,0.1220703125,-0.18310546875,-0.1220703125,0.4464111328125,-0.8037109375,0.395263671875,-296.0,151.0,-148.0,101700.0,-3.123000144958496,0,0
1.07365980000759,0.3741455078125,-0.4530029296875,0.3096923828125,-0.74755859375,0.06103515625,-0.1220703125,0.06103515625,0.4454345703125,-0.802490234375,0.393798828125,-296.0,151.0,-148.0,101700.0,-3.123000144958496,0,0
1.0737138999975286,0.3741455078125,-0.4530029296875,0.3096923828125,-0.74755859375,-0.06103515625,0.1220703125,-0.1220703125,0.4449462890625,-0.80322265625,0.3955078125,-296.0,151.0,-148.0,101700.0,-3.123000144958496,0,0
1.0737689000088722,0.3741455078125,-0.4530029296875,0.3096923828125,-0.74755859375,-0.06103515625,0.1220703125,-0.1220703125,0.4449462890625,-0.80322265625,0.3955078125,-296.0,152.0,-148.0,101700.0,-3.123000144958496,0,0
1.0738221000065096,0.374237060546875,-0.45306396484375,0.30963134765625,-0.74749755859375,0.1220703125,-0.06103515625,0.0,0.4454345703125,-0.8028564453125,0.3936767578125,-296.0,152.0,-148.0,101700.0,-3.123000144958496,0,0
1.1363313000038033,0.374237060546875,-0.453094482421875,0.309661865234375,-0.747467041015625,-0.18310546875,0.0,0.18310546875,0.4456787109375,-0.8011474609375,0.39501953125,-296.0,152.0,-148.0,101700.0,-3.123000144958496,0,0
1.1363964000047417,0.374237060546875,-0.453094482421875,0.309661865234375,-0.747467041015625,0.18310546875,-0.1220703125,0.06103515625,0.4456787109375,-0.804443359375,0.3944091796875,-296.0,152.0,-148.0,101700.0,-3.123000144958496,0,0
1.136629400003585,0.374237060546875,-0.453094482421875,0.309661865234375,-0.747467041015625,0.244140625,0.06103515625,-0.1220703125,0.443359375,-0.802734375,0.3941650390625,-296.0,152.0,-148.0,101700.0,-3.123000144958496,0,0
1.1366963000036776,0.374237060546875,-0.453094482421875,0.309661865234375,-0.747467041015625,-0.1220703125,0.1220703125,-0.06103515625,0.4449462890625,-0.802001953125,0.3953857421875,-296.0,152.0,-148.0,101700.0,-3.123000144958496,0,0
1.1369587000081083,0.37420654296875,-0.453094482421875,0.3096923828125,-0.747467041015625,0.0,-0.244140625,-0.30517578125,0.4449462890625,-0.80322265625,0.3944091796875,-296.0,152.0,-148.0,101700.0,-3.123000144958496,0,0
1.1450182999979006,0.37420654296875,-0.453094482421875,0.3096923828125,-0.747467041015625,0.0,-0.18310546875,-0.1220703125,0.445556640625,-0.8026123046875,0.3944091796875,-296.0,152.0,-148.0,101700.0,-3.123000144958496,0,0
1.1450948999990942,0.37420654296875,-0.453094482421875,0.3096923828125,-0.747467041015625,0.244140625,-0.18310546875,-0.30517578125,0.4444580078125,-0.802490234375,0.3946533203125,-296.0,152.0,-148.0,101700.0,-3.121000051498413,0,0
1.14515609999944,0.37420654296875,-0.453125,0.3096923828125,-0.7474365234375,0.18310546875,0.0,-0.1220703125,0.4444580078125,-0.8028564453125,0.39453125,-296.0,152.0,-148.0,101700.0,-3.121000051498413,0,0
1.145572399997036,0.37420654296875,-0.453125,0.3096923828125,-0.7474365234375,0.18310546875,0.0,-0.1220703125,0.4444580078125,-0.8028564453125,0.39453125,-296.0,152.0,-148.0,101700.0,-3.121000051498413,0,0
1.1456538000056753,0.37420654296875,-0.453125,0.3096923828125,-0.7474365234375,0.1220703125,0.0,-0.1220703125,0.445068359375,-0.8023681640625,0.3958740234375,-296.0,152.0,-148.0,101700.0,-3.121000051498413,0,0
1.1457190000073751,0.37420654296875,-0.453125,0.3096923828125,-0.7474365234375,-0.18310546875,0.06103515625,0.1220703125,0.4461669921875,-0.801513671875,0.3953857421875,-296.0,152.0,-148.0,101700.0,-3.121000051498413,0,0
1.2016551999986405,0.37420654296875,-0.453125,0.3096923828125,-0.7474365234375,0.06103515625,0.0,0.1220703125,0.4456787109375,-0.8001708984375,0.3956298828125,-296.0,152.0,-148.0,101700.0,-3.121000051498413,0,0
1.2017326000059256,0.37420654296875,-0.453125,0.3096923828125,-0.7474365234375,0.06103515625,0.06103515625,-0.06103515625,0.4461669921875,-0.802490234375,0.396484375,-296.0,152.0,-148.0,101700.0,-3.121000051498413,0,0
1.201796800000011,0.37420654296875,-0.453125,0.3096923828125,-0.7474365234375,0.30517578125,0.06103515625,-0.18310546875,0.4447021484375,-0.8001708984375,0.3970947265625,-296.0,152.0,-148.0,101700.0,-3.121000051498413,0,0
1.201854300001287,0.37420654296875,-0.453125,0.3096923828125,-0.7474365234375,0.06103515625,-0.06103515625,-0.1220703125,0.4449462890625,-0.802490234375,0.3944091796875,-296.0,152.0,-148.0,101700.0,-3.121000051498413,0,0
1.2019143000070471,0.37420654296875,-0.453125,0.309722900390625,-0.7474365234375,0.18310546875,0.1220703125,-0.30517578125,0.4451904296875,-0.8013916015625,0.3958740234375,-296.0,152.0,-148.0,101700.0,-3.121000051498413,0,0
1.2019730000029085,0.37420654296875,-0.453125,0.309722900390625,-0.7474365234375,0.06103515625,-0.18310546875,0.06103515625,0.4447021484375,-0.8018798828125,0.3975830078125,-296.0,152.0,-148.0,101700.0,-3.121000051498413,0,0
1.202843600010965,0.37420654296875,-0.453155517578125,0.309722900390625,-0.7474365234375,0.42724609375,0.1220703125,0.30517578125,0.44482421875,-0.801513671875,0.39599609375,-296.0,151.0,-148.0,101700.0,-3.121000051498413,0,0
1.2029611000034492,0.37420654296875,-0.453155517578125,0.309722900390625,-0.7474365234375,0.42724609375,0.1220703125,0.30517578125,0.44482421875,-0.801513671875,0.39599609375,-296.0,151.0,-148.0,101700.0,-3.121000051498413,0,0
1.203020100001595,0.37432861328125,-0.45318603515625,0.309661865234375,-0.74737548828125,0.0,-0.244140625,-0.06103515625,0.4449462890625,-0.802978515625,0.3970947265625,-296.0,151.0,-148.0,101700.0,-3.121000051498413,0,0
1.203079600003548,0.374298095703125,-0.45318603515625,0.309661865234375,-0.74737548828125,-0.18310546875,-0.244140625,-0.1220703125,0.4459228515625,-0.800048828125,0.3963623046875,-296.0,151.0,-148.0,101700.0,-3.121000051498413,0,0
1.2031379000109155,0.374298095703125,-0.45318603515625,0.309661865234375,-0.74737548828125,0.06103515625,-0.30517578125,-0.244140625,0.446044921875,-0.80224609375,0.3956298828125,-296.0,151.0,-148.0,101700.0,-3.121000051498413,0,0
1.2031955999991624,0.374298095703125,-0.45318603515625,0.309661865234375,-0.74737548828125,0.1220703125,-0.06103515625,-0.06103515625,0.447265625,-0.8033447265625,0.398681640625,-296.0,151.0,-148.0,101700.0,-3.121000051498413,0,0
1.2032544000103371,0.374298095703125,-0.45318603515625,0.30963134765625,-0.74737548828125,0.30517578125,0.1220703125,-0.244140625,0.4490966796875,-0.8021240234375,0.3970947265625,-296.0,151.0,-148.0,101700.0,-3.121000051498413,0,0
1.2641315000073519,0.374298095703125,-0.45318603515625,0.30963134765625,-0.74737548828125,-0.1220703125,-0.06103515625,0.06103515625,0.444091796875,-0.8009033203125,0.3975830078125,-296.0,151.0,-148.0,101700.0,-3.121000051498413,0,0
1.264197199998307,0.374298095703125,-0.45318603515625,0.30963134765625,-0.74737548828125,-0.1220703125,-0.06103515625,0.06103515625,0.444091796875,-0.8009033203125,0.3975830078125,-296.0,151.0,-148.0,101700.0,-3.121000051498413,0,0
1.2642588000016985,0.374298095703125,-0.453216552734375,0.30963134765625,-0.74737548828125,0.0,-0.18310546875,0.0,0.44580078125,-0.803466796875,0.397216796875,-296.0,151.0,-148.0,101700.0,-3.122000217437744,0,0
1.264390900003491,0.374298095703125,-0.453216552734375,0.30963134765625,-0.74737548828125,-0.06103515625,-0.18310546875,0.06103515625,0.44677734375,-0.80029296875,0.3975830078125,-296.0,151.0,-148.0,101700.0,-3.122000217437744,0,0
1.2768535000068368,0.374298095703125,-0.453216552734375,0.30963134765625,-0.74737548828125,0.18310546875,0.1220703125,0.0,0.44482421875,-0.80029296875,0.3956298828125,-296.0,151.0,-148.0,101700.0,-3.122000217437744,0,0
1.2769318000064231,0.374298095703125,-0.453216552734375,0.30963134765625,-0.74737548828125,0.1220703125,-0.244140625,0.06103515625,0.44482421875,-0.8037109375,0.3963623046875,-296.0,151.0,-148.0,101700.0,-3.122000217437744,0,0
1.2769927000044845,0.374298095703125,-0.453216552734375,0.30963134765625,-0.74737548828125,0.06103515625,-0.1220703125,-0.30517578125,0.4451904296875,-0.800537109375,0.39794921875,-296.0,151.0,-148.0,101700.0,-3.122000217437744,0,0
1.2770526000094833,0.374298095703125,-0.45318603515625,0.30963134765625,-0.74737548828125,0.1220703125,0.0,0.1220703125,0.4442138671875,-0.8013916015625,0.3975830078125,-296.0,151.0,-148.0,101700.0,-3.122000217437744,0,0
1.2771095000061905,0.374298095703125,-0.453216552734375,0.30963134765625,-0.74737548828125,0.1220703125,-0.06103515625,-0.3662109375,0.446044921875,-0.8011474609375,0.397216796875,-296.0,151.0,-148.0,101700.0,-3.122000217437744,0,0
1.2771676999982446,0.374298095703125,-0.45318603515625,0.30963134765625,-0.74737548828125,0.06103515625,-0.18310546875,-0.18310546875,0.442138671875,-0.8028564453125,0.39697265625,-296.0,151.0,-148.0,101700.0,-3.122000217437744,0,0
1.2772251999995206,0.374298095703125,-0.45318603515625,0.30963134765625,-0.74737548828125,0.18310546875,0.06103515625,-0.30517578125,0.446044921875,-0.80126953125,0.3985595703125,-296.0,151.0,-148.0,101700.0,-3.122000217437744,0,0
1.3285490999987815,0.37420654296875,-0.453155517578125,0.3096923828125,-0.7474365234375,0.1220703125,-0.06103515625,-0.3662109375,0.4451904296875,-0.8013916015625,0.3985595703125,-296.0,152.0,-149.0,101700.0,-3.122000217437744,0,0
1.3286156000103801,0.37420654296875,-0.453155517578125,0.3096923828125,-0.7474365234375,-0.18310546875,-0.1220703125,-0.30517578125,0.444580078125,-0.8037109375,0.3975830078125,-296.0,152.0,-149.0,101700.0,-3.122000217437744,0,0
1.328677500001504,0.37420654296875,-0.453155517578125,0.3096923828125,-0.7474365234375,0.244140625,-0.1220703125,0.1220703125,0.448486328125,-0.8018798828125,0.3975830078125,-296.0,152.0,-149.0,101700.0,-3.122000217437744,0,0
1.3287332000036258,0.37420654296875,-0.453155517578125,0.309661865234375,-0.7474365234375,-0.18310546875,0.18310546875,0.18310546875,0.44580078125,-0.8004150390625,0.398193359375,-296.0,152.0,-149.0,101700.0,-3.122000217437744,0,0
1.3287886000034632,0.37420654296875,-0.453155517578125,0.309661865234375,-0.7474365234375,-0.18310546875,0.06103515625,-0.06103515625,0.4476318359375,-0.8006591796875,0.3985595703125,-296.0,152.0,-149.0,101700.0,-3.122000217437744,0,0
1.3296235000016168,0.37420654296875,-0.453125,0.309661865234375,-0.747467041015625,0.18310546875,0.0,0.0,0.4439697265625,-0.802490234375,0.3983154296875,-296.0,152.0,-149.0,101700.0,-3.122000217437744,0,0
1.3296904000017093,0.37420654296875,-0.453125,0.309661865234375,-0.747467041015625,0.1220703125,0.0,-0.06103515625,0.445068359375,-0.8006591796875,0.39990234375,-296.0,152.0,-149.0,101700.0,-3.122000217437744,0,0
1.3297503000067081,0.37420654296875,-0.453125,0.309661865234375,-0.747467041015625,0.1220703125,0.0,-0.06103515625,0.445068359375,-0.8006591796875,0.39990234375,-296.0,152.0,-149.0,101700.0,-3.122000217437744,0,0
1.3298076000064611,0.37420654296875,-0.453125,0.309661865234375,-0.747467041015625,0.0,0.0,-0.1220703125,0.444580078125,-0.8017578125,0.399169921875,-296.0,152.0,-149.0,101700.0,-3.119000196456909,0,0
1.3298635000101058,0.37420654296875,-0.453125,0.309661865234375,-0.747467041015625,0.0,0.0,-0.3662109375,0.4449462890625,-0.8017578125,0.39697265625,-296.0,152.0,-149.0,101700.0,-3.119000196456909,0,0
1.3299196000007214,0.37420654296875,-0.453125,0.309661865234375,-0.747467041015625,0.0,-0.1220703125,-0.06103515625,0.44580078125,-0.80224609375,0.399658203125,-296.0,152.0,-149.0,101700.0,-3.119000196456909,0,0
1.39457720000064,0.37420654296875,-0.453125,0.309661865234375,-0.747467041015625,-0.06103515625,-0.18310546875,-0.18310546875,0.4468994140625,-0.80322265625,0.3983154296875,-296.0,152.0,-149.0,101700.0,-3.119000196456909,0,0
1.3946491000097012,0.37420654296875,-0.453125,0.309661865234375,-0.747467041015625,0.18310546875,0.0,-0.06103515625,0.446044921875,-0.8021240234375,0.39892578125,-296.0,152.0,-149.0,101700.0,-3.119000196456909,0,0
1.394705900005647,0.374237060546875,-0.453094482421875,0.3096923828125,-0.747467041015625,-0.06103515625,-0.06103515625,-0.30517578125,0.446044921875,-0.8018798828125,0.3978271484375,-296.0,152.0,-149.0,101700.0,-3.119000196456909,0,0
1.3947595000063302,0.374237060546875,-0.453094482421875,0.3096923828125,-0.747467041015625,0.06103515625,-0.1220703125,-0.18310546875,0.4420166015625,-0.8018798828125,0.397216796875,-296.0,152.0,-149.0,101700.0,-3.119000196456909,0,0
1.3948148000054061,0.374237060546875,-0.453094482421875,0.3096923828125,-0.747467041015625,0.06103515625,-0.30517578125,0.0,0.444580078125,-0.80029296875,0.3961181640625,-296.0,152.0,-149.0,101700.0,-3.119000196456909,0,0
1.3948731999989832,0.374237060546875,-0.453094482421875,0.3096923828125,-0.747467041015625,-0.3662109375,-0.1220703125,0.06103515625,0.443115234375,-0.799560546875,0.3983154296875,-296.0,152.0,-149.0,101700.0,-3.119000196456909,0,0
1.3949416000104975,0.374237060546875,-0.453094482421875,0.3096923828125,-0.747467041015625,-0.3662109375,-0.1220703125,0.06103515625,0.443115234375,-0.799560546875,0.3983154296875,-296.0,152.0,-149.0,101700.0,-3.119000196456909,0,0
1.3957222000026377,0.374237060546875,-0.453094482421875,0.309661865234375,-0.747467041015625,0.1220703125,-0.18310546875,0.1220703125,0.446533203125,-0.8017578125,0.399169921875,-296.0,152.0,-149.0,101700.0,-3.119000196456909,0,0
1.3957795000023907,0.374237060546875,-0.453094482421875,0.309661865234375,-0.747467041015625,0.3662109375,-0.1220703125,-0.244140625,0.4444580078125,-0.80126953125,0.3978271484375,-296.0,151.0,-150.0,101700.0,-3.119000196456909,0,0
1.3958336000068812,0.3741455078125,-0.453033447265625,0.309722900390625,-0.747528076171875,0.06103515625,0.0,-0.06103515625,0.4437255859375,-0.800537109375,0.39990234375,-296.0,151.0,-150.0,101700.0,-3.119000196456909,0,0
1.3959286000026623,0.3741455078125,-0.453033447265625,0.309722900390625,-0.747528076171875,0.1220703125,0.0,0.06103515625,0.445068359375,-0.800048828125,0.3983154296875,-296.0,151.0,-150.0,101700.0,-3.119000196456909,0,0
1.3959814999980154,0.3741455078125,-0.453033447265625,0.309722900390625,-0.747528076171875,0.1220703125,0.0,0.1220703125,0.4442138671875,-0.80322265625,0.3975830078125,-296.0,151.0,-150.0,101700.0,-3.119000196456909,0,0
1.3960348999971757,0.3741455078125,-0.453033447265625,0.309722900390625,-0.747528076171875,0.06103515625,-0.18310546875,-0.18310546875,0.4456787109375,-0.802490234375,0.3990478515625,-296.0,151.0,-150.0,101700.0,-3.119000196456909,0,0
1.4628514000069117,0.3741455078125,-0.453033447265625,0.309722900390625,-0.747528076171875,0.244140625,-0.1220703125,0.06103515625,0.4439697265625,-0.8023681640625,0.3980712890625,-296.0,151.0,-150.0,101700.0,-3.119000196456909,0,0
1.4629150000109803,0.3741455078125,-0.453033447265625,0.309722900390625,-0.747528076171875,-0.06103515625,0.06103515625,-0.18310546875,0.445556640625,-0.8004150390625,0.39892578125,-296.0,151.0,-150.0,101700.0,-3.119000196456909,0,0
1.4629714000038803,0.3741455078125,-0.453033447265625,0.309722900390625,-0.747528076171875,0.18310546875,-0.06103515625,0.06103515625,0.4481201171875,-0.802490234375,0.3984375,-296.0,151.0,-150.0,101700.0,-3.119000196456909,0,0
1.4630286000028718,0.3741455078125,-0.453033447265625,0.309722900390625,-0.747528076171875,0.0,-0.18310546875,-0.06103515625,0.4453125,-0.802490234375,0.396484375,-296.0,151.0,-150.0,101700.0,-3.123000144958496,0,0
1.4630837000004249,0.3741455078125,-0.453033447265625,0.309722900390625,-0.747528076171875,0.06103515625,-0.1220703125,0.0,0.4429931640625,-0.7999267578125,0.397216796875,-296.0,151.0,-150.0,101700.0,-3.123000144958496,0,0
1.46376600000076,0.3741455078125,-0.453033447265625,0.309722900390625,-0.747528076171875,0.1220703125,0.06103515625,0.18310546875,0.445068359375,-0.8026123046875,0.39892578125,-296.0,151.0,-150.0,101700.0,-3.123000144958496,0,0
1.4638249999989057,0.3741455078125,-0.4530029296875,0.309722900390625,-0.747528076171875,0.06103515625,0.0,0.06103515625,0.4432373046875,-0.8016357421875,0.398681640625,-296.0,151.0,-150.0,101700.0,-3.123000144958496,0,0
1.4638834000070347,0.3741455078125,-0.4530029296875,0.309722900390625,-0.747528076171875,0.18310546875,0.1220703125,-0.06103515625,0.4442138671875,-0.803466796875,0.39794921875,-296.0,151.0,-150.0,101700.0,-3.123000144958496,0,0
1.4639414999983273,0.3741455078125,-0.4530029296875,0.309722900390625,-0.747528076171875,-0.18310546875,-0.1220703125,0.18310546875,0.4468994140625,-0.803466796875,0.398193359375,-296.0,151.0,-150.0,101700.0,-3.123000144958496,0,0
1.4639955000020564,0.3741455078125,-0.4530029296875,0.309722900390625,-0.747528076171875,0.6103515625,0.0,-0.1220703125,0.445068359375,-0.802001953125,0.3990478515625,-296.0,151.0,-150.0,101700.0,-3.123000144958496,0,0
1.4640497000073083,0.3741455078125,-0.4530029296875,0.309722900390625,-0.747528076171875,0.6103515625,0.0,-0.1220703125,0.445068359375,-0.802001953125,0.3990478515625,-296.0,151.0,-150.0,101700.0,-3.123000144958496,0,0
1.5218749000050593,0.3741455078125,-0.4530029296875,0.3096923828125,-0.74755859375,0.0,0.06103515625,-0.18310546875,0.4461669921875,-0.7999267578125,0.3992919921875,-298.0,151.0,-148.0,101700.0,-3.123000144958496,0,0
