Time stamp(sec),quaternion_0,quaternion_1,quaternion_2,quaternion_3,roll_angular_rate,pitch_angular_rate,yaw_angular_rate,acc_X,acc_Y,acc_Z,mag_X,mag_Y,mag_Z,pressure,altitude
0.016286500002024695,0.805999755859375,-0.39190673828125,-0.32720947265625,-0.299407958984375,-0.1220703125,-0.244140625,0.0,0.7645263671875,-0.43994140625,0.4796142578125,-218.0,194.0,45.0,102818.0,-12.357000350952148,1000,1000
0.016374099999666214,0.805999755859375,-0.391937255859375,-0.32720947265625,-0.299407958984375,0.06103515625,-0.1220703125,-0.06103515625,0.7677001953125,-0.4375,0.48046875,-218.0,194.0,45.0,102818.0,-12.357000350952148,1000,1000
0.016445400018710643,0.805999755859375,-0.391937255859375,-0.32720947265625,-0.299407958984375,0.06103515625,-0.1220703125,-0.06103515625,0.7677001953125,-0.4375,0.48046875,-218.0,194.0,45.0,102818.0,-12.357000350952148,1000,1000
0.016514600021764636,0.805999755859375,-0.391937255859375,-0.32720947265625,-0.299407958984375,-0.18310546875,0.0,0.06103515625,0.76513671875,-0.4385986328125,0.479736328125,-218.0,194.0,45.0,102818.0,-12.357000350952148,1000,1000
0.016584299999522045,0.805999755859375,-0.391937255859375,-0.32720947265625,-0.299407958984375,0.0,-0.244140625,-0.1220703125,0.7659912109375,-0.43798828125,0.482177734375,-218.0,194.0,45.0,102818.0,-12.357000350952148,1000,1000
0.016652800026349723,0.805999755859375,-0.391937255859375,-0.32720947265625,-0.299407958984375,0.0,-0.18310546875,0.0,0.766357421875,-0.43701171875,0.4805908203125,-218.0,194.0,45.0,102818.0,-12.357000350952148,1000,1000
0.016722600004868582,0.805999755859375,-0.391937255859375,-0.32720947265625,-0.299407958984375,-0.1220703125,-0.06103515625,-0.06103515625,0.7645263671875,-0.43701171875,0.4813232421875,-218.0,194.0,45.0,102818.0,-12.357000350952148,1000,1000
0.017113600013544783,0.805999755859375,-0.391937255859375,-0.32720947265625,-0.299407958984375,-0.1220703125,-0.30517578125,0.06103515625,0.7667236328125,-0.4385986328125,0.4808349609375,-218.0,194.0,45.0,102818.0,-12.357000350952148,1000,1000
0.017187200020998716,0.805999755859375,-0.391937255859375,-0.32720947265625,-0.299407958984375,-0.1220703125,-0.18310546875,-0.1220703125,0.7637939453125,-0.4366455078125,0.47998046875,-218.0,194.0,45.0,102818.0,-12.357000350952148,1000,1000
0.017254400008823723,0.805999755859375,-0.391937255859375,-0.32720947265625,-0.29937744140625,-0.18310546875,-0.06103515625,-0.06103515625,0.765625,-0.4393310546875,0.4794921875,-218.0,194.0,45.0,102818.0,-12.357000350952148,1000,1000
0.017319400009000674,0.805999755859375,-0.391937255859375,-0.32720947265625,-0.29937744140625,-0.18310546875,-0.06103515625,-0.06103515625,0.765625,-0.4393310546875,0.4794921875,-218.0,195.0,45.0,102818.0,-12.356000900268555,1000,1000
0.01738530001603067,0.805908203125,-0.39202880859375,-0.32708740234375,-0.29962158203125,0.06103515625,0.0,0.0,0.76318359375,-0.43701171875,0.4801025390625,-218.0,195.0,45.0,102818.0,-12.356000900268555,1000,1000
0.017449500010116026,0.805908203125,-0.39202880859375,-0.32708740234375,-0.29962158203125,0.06103515625,0.0,0.0,0.76318359375,-0.43701171875,0.4801025390625,-218.0,195.0,45.0,102818.0,-12.356000900268555,1000,1000
0.08389000000897795,0.805908203125,-0.39202880859375,-0.327117919921875,-0.29962158203125,-0.1220703125,-0.244140625,-0.1220703125,0.76708984375,-0.437255859375,0.4794921875,-218.0,195.0,45.0,102818.0,-12.356000900268555,1000,1000
0.08398700001998805,0.805908203125,-0.39202880859375,-0.327117919921875,-0.29962158203125,-0.3662109375,-0.18310546875,0.06103515625,0.7640380859375,-0.4364013671875,0.481689453125,-218.0,195.0,45.0,102818.0,-12.356000900268555,1000,1000
0.08407950002583675,0.805908203125,-0.39202880859375,-0.327117919921875,-0.29962158203125,-0.1220703125,0.0,0.0,0.764404296875,-0.439208984375,0.4815673828125,-218.0,195.0,45.0,102818.0,-12.356000900268555,1000,1000
0.08416930001112632,0.805908203125,-0.39202880859375,-0.327117919921875,-0.29962158203125,-0.1220703125,-0.1220703125,0.244140625,0.76416015625,-0.437744140625,0.4803466796875,-218.0,195.0,45.0,102818.0,-12.356000900268555,1000,1000
0.08426010000403039,0.805908203125,-0.391998291015625,-0.327117919921875,-0.29962158203125,-0.06103515625,-0.1220703125,0.0,0.7647705078125,-0.43603515625,0.4803466796875,-218.0,195.0,45.0,102818.0,-12.356000900268555,1000,1000
0.08436300000175834,0.805908203125,-0.391998291015625,-0.327117919921875,-0.29962158203125,0.0,-0.18310546875,0.06103515625,0.765869140625,-0.4365234375,0.480224609375,-218.0,195.0,45.0,102818.0,-12.356000900268555,1000,1000
0.08445380002376623,0.805908203125,-0.391998291015625,-0.327117919921875,-0.29962158203125,0.0,-0.18310546875,0.06103515625,0.765869140625,-0.4365234375,0.480224609375,-218.0,195.0,45.0,102818.0,-12.356000900268555,1000,1000
0.08453600000939332,0.805908203125,-0.391998291015625,-0.327117919921875,-0.29962158203125,-0.06103515625,-0.06103515625,0.0,0.76318359375,-0.4375,0.4805908203125,-218.0,195.0,45.0,102818.0,-12.356000900268555,1000,1000
0.08462150002014823,0.805908203125,-0.391998291015625,-0.327117919921875,-0.29962158203125,-0.244140625,-0.1220703125,0.06103515625,0.7655029296875,-0.4375,0.4805908203125,-218.0,195.0,45.0,102818.0,-12.356000900268555,1000,1000
0.08470659999875352,0.805908203125,-0.391998291015625,-0.327117919921875,-0.29962158203125,-0.18310546875,-0.06103515625,-0.06103515625,0.765869140625,-0.4375,0.4814453125,-218.0,195.0,45.0,102818.0,-12.356000900268555,1000,1000
0.08479050002642907,0.805908203125,-0.391998291015625,-0.327117919921875,-0.29962158203125,-0.18310546875,-0.1220703125,0.0,0.7672119140625,-0.4368896484375,0.478759765625,-218.0,195.0,45.0,102818.0,-12.356000900268555,1000,1000
0.14869760000146925,0.805908203125,-0.391998291015625,-0.327117919921875,-0.29962158203125,0.0,0.0,0.1220703125,0.7650146484375,-0.43798828125,0.4818115234375,-218.0,195.0,45.0,102818.0,-12.356000900268555,1000,1000
0.14877620001789182,0.805908203125,-0.391998291015625,-0.32708740234375,-0.29962158203125,0.0,-0.244140625,-0.1220703125,0.7650146484375,-0.4395751953125,0.4813232421875,-218.0,195.0,45.0,102818.0,-12.356000900268555,1000,1000
0.14884560002246872,0.805908203125,-0.391998291015625,-0.32708740234375,-0.29962158203125,-0.1220703125,-0.244140625,0.0,0.76611328125,-0.4388427734375,0.4815673828125,-219.0,194.0,45.0,102818.0,-12.358000755310059,1000,1000
0.14891310001257807,0.805908203125,-0.391998291015625,-0.32708740234375,-0.29962158203125,-0.1220703125,-0.244140625,0.0,0.76611328125,-0.4388427734375,0.4815673828125,-219.0,194.0,45.0,102818.0,-12.358000755310059,1000,1000
0.14898200001334772,0.80584716796875,-0.39208984375,-0.326995849609375,-0.299835205078125,0.1220703125,-0.1220703125,0.0,0.7659912109375,-0.4368896484375,0.480224609375,-219.0,194.0,45.0,102818.0,-12.358000755310059,1000,1000
0.16025710001122206,0.80584716796875,-0.39208984375,-0.326995849609375,-0.299835205078125,-0.1220703125,-0.42724609375,-0.06103515625,0.76513671875,-0.435302734375,0.4796142578125,-219.0,194.0,45.0,102818.0,-12.358000755310059,1000,1000
0.16033579999930225,0.80584716796875,-0.392059326171875,-0.326995849609375,-0.299835205078125,-0.1220703125,-0.18310546875,0.1220703125,0.7655029296875,-0.4381103515625,0.482666015625,-219.0,194.0,45.0,102818.0,-12.358000755310059,1000,1000
0.16040400002384558,0.80584716796875,-0.39208984375,-0.326995849609375,-0.299835205078125,-0.06103515625,0.06103515625,-0.1220703125,0.765380859375,-0.4385986328125,0.479736328125,-219.0,194.0,45.0,102818.0,-12.358000755310059,1000,1000
0.160473700001603,0.80584716796875,-0.392059326171875,-0.326995849609375,-0.299835205078125,-0.1220703125,-0.42724609375,0.0,0.7628173828125,-0.437255859375,0.4814453125,-219.0,194.0,45.0,102818.0,-12.358000755310059,1000,1000
0.16054140002233908,0.80584716796875,-0.39208984375,-0.326995849609375,-0.299835205078125,0.1220703125,-0.18310546875,0.18310546875,0.7625732421875,-0.43798828125,0.4791259765625,-219.0,194.0,45.0,102818.0,-12.358000755310059,1000,1000
0.16060950001701713,0.80584716796875,-0.392059326171875,-0.326995849609375,-0.299835205078125,-0.06103515625,-0.1220703125,0.18310546875,0.7637939453125,-0.435791015625,0.4798583984375,-219.0,194.0,45.0,102818.0,-12.358000755310059,1000,1000
0.16067650000331923,0.80584716796875,-0.392059326171875,-0.326995849609375,-0.299835205078125,-0.244140625,-0.1220703125,-0.06103515625,0.76416015625,-0.4373779296875,0.4805908203125,-219.0,194.0,45.0,102818.0,-12.358000755310059,1000,1000
0.21202760000596754,0.80584716796875,-0.392059326171875,-0.326995849609375,-0.299835205078125,-0.244140625,-0.1220703125,-0.06103515625,0.76416015625,-0.4373779296875,0.4805908203125,-219.0,194.0,45.0,102818.0,-12.358000755310059,1000,1000
0.21210450000944547,0.80584716796875,-0.39208984375,-0.326995849609375,-0.299835205078125,-0.1220703125,-0.1220703125,-0.1220703125,0.7630615234375,-0.4378662109375,0.479248046875,-219.0,194.0,45.0,102818.0,-12.358000755310059,1000,1000
0.21217330000945367,0.80584716796875,-0.39208984375,-0.326995849609375,-0.299835205078125,0.18310546875,-0.18310546875,0.1220703125,0.7640380859375,-0.437255859375,0.480224609375,-219.0,194.0,45.0,102818.0,-12.358000755310059,1000,1000
0.21224449999863282,0.80584716796875,-0.39208984375,-0.326995849609375,-0.299835205078125,-0.1220703125,-0.06103515625,-0.244140625,0.7646484375,-0.4383544921875,0.47998046875,-219.0,194.0,45.0,102818.0,-12.358000755310059,1000,1000
0.21231329999864101,0.80584716796875,-0.39208984375,-0.326995849609375,-0.299835205078125,-0.1220703125,-0.18310546875,-0.1220703125,0.766845703125,-0.4381103515625,0.4791259765625,-219.0,194.0,45.0,102818.0,-12.358000755310059,1000,1000
0.21238170002470724,0.80584716796875,-0.39208984375,-0.326995849609375,-0.299835205078125,0.1220703125,-0.18310546875,0.0,0.7666015625,-0.438720703125,0.4791259765625,-219.0,194.0,45.0,102818.0,-12.358000755310059,1000,1000
0.21250000002328306,0.80584716796875,-0.39208984375,-0.326995849609375,-0.299835205078125,0.06103515625,0.06103515625,-0.1220703125,0.7650146484375,-0.440185546875,0.48193359375,-219.0,194.0,45.0,102818.0,-12.358000755310059,1000,1000
0.21256600000197068,0.80584716796875,-0.39208984375,-0.326995849609375,-0.299835205078125,0.0,-0.30517578125,0.0,0.7637939453125,-0.438232421875,0.481689453125,-219.0,194.0,45.0,102818.0,-12.358000755310059,1000,1000
0.21263190000900067,0.80584716796875,-0.39208984375,-0.326995849609375,-0.299835205078125,0.30517578125,-0.1220703125,-0.06103515625,0.7662353515625,-0.4368896484375,0.4813232421875,-219.0,194.0,45.0,102818.0,-12.358000755310059,1000,1000
0.21269750001374632,0.80584716796875,-0.39208984375,-0.326995849609375,-0.299835205078125,0.1220703125,0.0,0.0,0.766357421875,-0.4373779296875,0.4801025390625,-219.0,194.0,45.0,102818.0,-12.358000755310059,1000,1000
0.21276390002458356,0.80584716796875,-0.39208984375,-0.326995849609375,-0.299835205078125,0.1220703125,0.0,0.0,0.766357421875,-0.4373779296875,0.4801025390625,-219.0,194.0,45.0,102818.0,-12.358000755310059,1000,1000
0.21285930002341047,0.80584716796875,-0.39208984375,-0.32696533203125,-0.299835205078125,-0.1220703125,-0.1220703125,-0.18310546875,0.7633056640625,-0.4395751953125,0.4830322265625,-219.0,193.0,43.0,102818.0,-12.357000350952148,1000,1000
0.275230700004613,0.805816650390625,-0.392120361328125,-0.326934814453125,-0.299957275390625,0.18310546875,-0.06103515625,0.06103515625,0.764892578125,-0.43701171875,0.479736328125,-219.0,193.0,43.0,102818.0,-12.357000350952148,1000,1000
0.27531970001291484,0.805816650390625,-0.392120361328125,-0.326904296875,-0.299957275390625,0.18310546875,-0.1220703125,-0.1220703125,0.763916015625,-0.4375,0.4822998046875,-219.0,193.0,43.0,102818.0,-12.357000350952148,1000,1000
0.2753894000197761,0.805816650390625,-0.392120361328125,-0.326934814453125,-0.299957275390625,-0.244140625,0.0,0.06103515625,0.7657470703125,-0.437255859375,0.48193359375,-219.0,193.0,43.0,102818.0,-12.357000350952148,1000,1000
0.27545529999770224,0.805816650390625,-0.392120361328125,-0.326904296875,-0.299957275390625,-0.1220703125,-0.244140625,0.0,0.76611328125,-0.43798828125,0.480712890625,-219.0,193.0,43.0,102818.0,-12.357000350952148,1000,1000
0.27552470000227913,0.805816650390625,-0.392120361328125,-0.326904296875,-0.299957275390625,0.06103515625,-0.1220703125,0.06103515625,0.7652587890625,-0.4371337890625,0.4822998046875,-219.0,193.0,43.0,102818.0,-12.357000350952148,1000,1000
0.27775440001278184,0.805816650390625,-0.392120361328125,-0.326904296875,-0.299957275390625,0.06103515625,-0.1220703125,0.06103515625,0.7652587890625,-0.4371337890625,0.4822998046875,-219.0,193.0,43.0,102818.0,-12.357000350952148,1000,1000
0.2779242000251543,0.805816650390625,-0.392120361328125,-0.326934814453125,-0.299957275390625,0.06103515625,-0.06103515625,0.0,0.766845703125,-0.4373779296875,0.4810791015625,-219.0,193.0,43.0,102818.0,-12.357000350952148,1000,1000
0.2780110000167042,0.805816650390625,-0.392120361328125,-0.326934814453125,-0.299957275390625,-0.1220703125,-0.244140625,0.06103515625,0.76416015625,-0.435791015625,0.4814453125,-219.0,193.0,43.0,102818.0,-12.357000350952148,1000,1000
0.27808180000283755,0.805816650390625,-0.392120361328125,-0.326934814453125,-0.299957275390625,0.0,-0.42724609375,0.06103515625,0.765625,-0.4366455078125,0.4803466796875,-219.0,193.0,43.0,102818.0,-12.357000350952148,1000,1000
0.27814650000073016,0.805816650390625,-0.392120361328125,-0.326934814453125,-0.299957275390625,-0.06103515625,-0.18310546875,0.06103515625,0.766357421875,-0.436767578125,0.47998046875,-219.0,193.0,43.0,102818.0,-12.357000350952148,1000,1000
0.27821260000928305,0.805816650390625,-0.392120361328125,-0.326934814453125,-0.299957275390625,-0.18310546875,-0.18310546875,0.0,0.7677001953125,-0.4390869140625,0.4803466796875,-219.0,193.0,43.0,102818.0,-12.357000350952148,1000,1000
0.3377051000134088,0.805816650390625,-0.39208984375,-0.326934814453125,-0.299957275390625,0.0,-0.06103515625,-0.06103515625,0.7662353515625,-0.43603515625,0.4805908203125,-219.0,193.0,43.0,102818.0,-12.357000350952148,1000,1000
0.33778490000986494,0.805816650390625,-0.39208984375,-0.326934814453125,-0.299957275390625,0.1220703125,-0.1220703125,0.0,0.7645263671875,-0.43505859375,0.48046875,-219.0,193.0,43.0,102818.0,-12.357000350952148,1000,1000
0.3378536000091117,0.805816650390625,-0.39208984375,-0.326934814453125,-0.299957275390625,0.1220703125,-0.1220703125,0.0,0.7645263671875,-0.43505859375,0.48046875,-219.0,193.0,43.0,102818.0,-12.357000350952148,1000,1000
0.33792230000835843,0.805816650390625,-0.39208984375,-0.326934814453125,-0.299957275390625,-0.06103515625,-0.244140625,0.06103515625,0.7635498046875,-0.4388427734375,0.4808349609375,-219.0,193.0,43.0,102818.0,-12.357000350952148,1000,1000
0.3379902000015136,0.805816650390625,-0.39208984375,-0.326934814453125,-0.299957275390625,-0.06103515625,-0.18310546875,0.0,0.7655029296875,-0.4381103515625,0.4786376953125,-219.0,193.0,43.0,102818.0,-12.357000350952148,1000,1000
0.3388514000107534,0.8057861328125,-0.39215087890625,-0.326873779296875,-0.300079345703125,-0.06103515625,-0.18310546875,0.0,0.7655029296875,-0.4381103515625,0.4786376953125,-219.0,194.0,44.0,102818.0,-12.357000350952148,1000,1000
0.33892050001304597,0.8057861328125,-0.39215087890625,-0.326873779296875,-0.300079345703125,0.06103515625,-0.244140625,0.1220703125,0.7669677734375,-0.438720703125,0.481201171875,-219.0,194.0,44.0,102818.0,-12.357000350952148,1000,1000
0.33898720002616756,0.8057861328125,-0.39215087890625,-0.326873779296875,-0.300079345703125,-0.244140625,-0.244140625,0.0,0.767333984375,-0.4378662109375,0.481201171875,-219.0,194.0,44.0,102818.0,-12.357000350952148,1000,1000
0.33905210002558306,0.8057861328125,-0.39215087890625,-0.326873779296875,-0.300079345703125,0.1220703125,-0.244140625,-0.1220703125,0.76416015625,-0.4365234375,0.481689453125,-219.0,194.0,44.0,102818.0,-12.357000350952148,1000,1000
0.33911700002499856,0.8057861328125,-0.39215087890625,-0.326873779296875,-0.300079345703125,-0.244140625,-0.244140625,-0.1220703125,0.767333984375,-0.43798828125,0.4791259765625,-219.0,194.0,44.0,102818.0,-12.357000350952148,1000,1000
0.3391812000190839,0.8057861328125,-0.39215087890625,-0.326873779296875,-0.300079345703125,-0.06103515625,-0.244140625,0.0,0.76611328125,-0.4381103515625,0.4801025390625,-219.0,194.0,44.0,102818.0,-12.357000350952148,1000,1000
0.33924910001223907,0.8057861328125,-0.39215087890625,-0.326873779296875,-0.300079345703125,-0.06103515625,-0.244140625,0.0,0.76611328125,-0.4381103515625,0.4801025390625,-219.0,194.0,44.0,102818.0,-12.357000350952148,1000,1000
0.41040230001090094,0.8057861328125,-0.39215087890625,-0.326873779296875,-0.300048828125,0.06103515625,-0.18310546875,-0.06103515625,0.7650146484375,-0.4361572265625,0.4818115234375,-219.0,194.0,44.0,102818.0,-12.357000350952148,1000,1000
0.4104824000096414,0.8057861328125,-0.39215087890625,-0.326873779296875,-0.300079345703125,-0.1220703125,-0.18310546875,0.06103515625,0.7650146484375,-0.4349365234375,0.479736328125,-219.0,194.0,44.0,102818.0,-12.357000350952148,1000,1000
0.41054880002047867,0.8057861328125,-0.39215087890625,-0.326873779296875,-0.300079345703125,-0.1220703125,-0.18310546875,0.06103515625,0.7650146484375,-0.4349365234375,0.479736328125,-219.0,194.0,44.0,102818.0,-12.360000610351562,1000,1000
0.4106165000121109,0.8057861328125,-0.39215087890625,-0.326873779296875,-0.300079345703125,-0.244140625,-0.18310546875,0.0,0.7645263671875,-0.4368896484375,0.48193359375,-219.0,194.0,44.0,102818.0,-12.360000610351562,1000,1000
0.41068480000831187,0.8057861328125,-0.39215087890625,-0.326873779296875,-0.300048828125,0.0,-0.18310546875,0.0,0.7655029296875,-0.43896484375,0.4794921875,-219.0,194.0,44.0,102818.0,-12.360000610351562,1000,1000
0.4107489000016358,0.8057861328125,-0.39215087890625,-0.326873779296875,-0.300048828125,-0.06103515625,-0.06103515625,-0.1220703125,0.7664794921875,-0.4390869140625,0.4796142578125,-219.0,194.0,44.0,102818.0,-12.360000610351562,1000,1000
0.42500240000663325,0.8057861328125,-0.39215087890625,-0.326873779296875,-0.300048828125,-0.1220703125,-0.06103515625,0.0,0.7633056640625,-0.43701171875,0.47998046875,-219.0,194.0,44.0,102818.0,-12.360000610351562,1000,1000
0.4251036000205204,0.8057861328125,-0.39215087890625,-0.326873779296875,-0.300048828125,0.30517578125,-0.06103515625,-0.1220703125,0.7635498046875,-0.436279296875,0.48046875,-219.0,194.0,44.0,102818.0,-12.360000610351562,1000,1000
0.42517110001062974,0.8057861328125,-0.39215087890625,-0.326873779296875,-0.300048828125,0.1220703125,0.0,-0.1220703125,0.763427734375,-0.4361572265625,0.478759765625,-219.0,194.0,44.0,102818.0,-12.360000610351562,1000,1000
0.4252396000083536,0.8057861328125,-0.39215087890625,-0.326873779296875,-0.300048828125,0.1220703125,0.0,-0.1220703125,0.763427734375,-0.4361572265625,0.478759765625,-219.0,194.0,44.0,102818.0,-12.360000610351562,1000,1000
0.4253186999994796,0.8057861328125,-0.39215087890625,-0.326873779296875,-0.300048828125,0.1220703125,-0.18310546875,-0.1220703125,0.7640380859375,-0.43701171875,0.4798583984375,-219.0,194.0,44.0,102818.0,-12.360000610351562,1000,1000
0.4253871000255458,0.8057861328125,-0.39215087890625,-0.326873779296875,-0.300048828125,0.1220703125,-0.30517578125,-0.06103515625,0.7646484375,-0.436767578125,0.481689453125,-219.0,194.0,44.0,102818.0,-12.360000610351562,1000,1000
0.468546400021296,0.805755615234375,-0.392181396484375,-0.326812744140625,-0.3001708984375,-0.06103515625,-0.244140625,0.0,0.76708984375,-0.4398193359375,0.47900390625,-219.0,194.0,44.0,102818.0,-12.360000610351562,1000,1000
0.46862440000404604,0.805755615234375,-0.3922119140625,-0.326812744140625,-0.3001708984375,-0.06103515625,0.1220703125,-0.1220703125,0.7659912109375,-0.4398193359375,0.4805908203125,-219.0,194.0,44.0,102818.0,-12.360000610351562,1000,1000
0.46869300000253133,0.805755615234375,-0.392181396484375,-0.326812744140625,-0.3001708984375,0.06103515625,-0.244140625,-0.1220703125,0.76416015625,-0.4376220703125,0.4803466796875,-219.0,194.0,44.0,102818.0,-12.360000610351562,1000,1000
0.4687603000202216,0.805755615234375,-0.392181396484375,-0.326812744140625,-0.3001708984375,-0.06103515625,-0.3662109375,-0.1220703125,0.7646484375,-0.43505859375,0.4814453125,-219.0,194.0,44.0,102818.0,-12.360000610351562,1000,1000
0.4688274000072852,0.805755615234375,-0.392181396484375,-0.326812744140625,-0.3001708984375,-0.06103515625,-0.3662109375,-0.1220703125,0.7646484375,-0.43505859375,0.4814453125,-219.0,194.0,44.0,102818.0,-12.360000610351562,1000,1000
0.46892330000991933,0.805755615234375,-0.392181396484375,-0.326812744140625,-0.3001708984375,-0.18310546875,-0.244140625,-0.06103515625,0.764892578125,-0.436767578125,0.48095703125,-219.0,194.0,44.0,102818.0,-12.360000610351562,1000,1000
0.4690075000107754,0.805755615234375,-0.392181396484375,-0.326812744140625,-0.3001708984375,0.06103515625,-0.1220703125,0.06103515625,0.7667236328125,-0.438720703125,0.4810791015625,-219.0,194.0,44.0,102818.0,-12.360000610351562,1000,1000
0.4690712000010535,0.805755615234375,-0.392181396484375,-0.326812744140625,-0.3001708984375,-0.244140625,-0.244140625,0.0,0.764404296875,-0.4385986328125,0.48193359375,-219.0,194.0,44.0,102818.0,-12.360000610351562,1000,1000
0.4691354000242427,0.805755615234375,-0.392181396484375,-0.326812744140625,-0.3001708984375,0.06103515625,0.1220703125,0.06103515625,0.7662353515625,-0.4378662109375,0.4805908203125,-219.0,194.0,44.0,102818.0,-12.360000610351562,1000,1000
0.4691989000129979,0.805755615234375,-0.392181396484375,-0.326812744140625,-0.3001708984375,-0.1220703125,0.0,0.06103515625,0.7659912109375,-0.4368896484375,0.4810791015625,-219.0,194.0,44.0,102818.0,-12.360000610351562,1000,1000
0.4692642000154592,0.805755615234375,-0.392181396484375,-0.326812744140625,-0.3001708984375,-0.18310546875,-0.3662109375,0.1220703125,0.765869140625,-0.4384765625,0.4820556640625,-219.0,194.0,44.0,102818.0,-12.360000610351562,1000,1000
0.4693293000163976,0.805755615234375,-0.392181396484375,-0.326812744140625,-0.3001708984375,-0.06103515625,-0.06103515625,-0.244140625,0.762939453125,-0.43603515625,0.4794921875,-219.0,194.0,44.0,102818.0,-12.360000610351562,1000,1000
0.5294592000136618,0.805755615234375,-0.392181396484375,-0.326812744140625,-0.3001708984375,-0.1220703125,-0.1220703125,-0.18310546875,0.766845703125,-0.4375,0.48046875,-219.0,194.0,44.0,102818.0,-12.360000610351562,1000,1000
0.529537900001742,0.805755615234375,-0.392181396484375,-0.326812744140625,-0.3001708984375,0.0,-0.18310546875,0.0,0.7657470703125,-0.43896484375,0.4818115234375,-219.0,194.0,44.0,102818.0,-12.360000610351562,1000,1000
0.5296076000086032,0.805755615234375,-0.392181396484375,-0.326812744140625,-0.3001708984375,-0.244140625,0.0,0.06103515625,0.7669677734375,-0.4378662109375,0.479736328125,-219.0,194.0,44.0,102818.0,-12.360000610351562,1000,1000
0.5296773000154644,0.805755615234375,-0.392181396484375,-0.326812744140625,-0.3001708984375,-0.06103515625,-0.18310546875,0.30517578125,0.7645263671875,-0.4388427734375,0.4793701171875,-219.0,194.0,44.0,102818.0,-12.360000610351562,1000,1000
0.529943400004413,0.805755615234375,-0.392181396484375,-0.326812744140625,-0.3001708984375,-0.1220703125,0.06103515625,-0.06103515625,0.7630615234375,-0.43896484375,0.480712890625,-219.0,194.0,44.0,102818.0,-12.360000610351562,1000,1000
0.5300181000202429,0.805755615234375,-0.392181396484375,-0.326812744140625,-0.3001708984375,-0.3662109375,-0.18310546875,0.18310546875,0.76416015625,-0.43701171875,0.48193359375,-219.0,194.0,44.0,102818.0,-12.360000610351562,1000,1000
0.5300897000124678,0.80584716796875,-0.39208984375,-0.326904296875,-0.299957275390625,0.06103515625,-0.18310546875,0.18310546875,0.76171875,-0.4376220703125,0.481201171875,-217.0,195.0,42.0,102818.0,-12.360000610351562,1000,1000
0.5302035000058822,0.80584716796875,-0.39208984375,-0.326904296875,-0.299957275390625,-0.244140625,-0.18310546875,-0.1220703125,0.763671875,-0.4376220703125,0.4803466796875,-217.0,195.0,42.0,102818.0,-12.360000610351562,1000,1000
0.530272200005129,0.80584716796875,-0.39208984375,-0.326904296875,-0.299957275390625,0.0,-0.06103515625,-0.18310546875,0.76318359375,-0.4366455078125,0.479736328125,-217.0,195.0,42.0,102818.0,-12.360000610351562,1000,1000
0.5303401999990456,0.80584716796875,-0.39208984375,-0.326904296875,-0.299957275390625,0.0,-0.06103515625,-0.18310546875,0.76318359375,-0.4366455078125,0.479736328125,-217.0,195.0,42.0,102818.0,-12.360000610351562,1000,1000
0.5304077000182588,0.805816650390625,-0.39208984375,-0.326904296875,-0.299957275390625,0.0,-0.1220703125,-0.244140625,0.7664794921875,-0.4381103515625,0.479248046875,-217.0,195.0,42.0,102818.0,-12.360000610351562,1000,1000
0.5958453000057489,0.80584716796875,-0.39208984375,-0.326904296875,-0.299957275390625,-0.244140625,-0.18310546875,0.06103515625,0.765380859375,-0.4364013671875,0.4814453125,-217.0,195.0,42.0,102818.0,-12.360000610351562,1000,1000
0.5959206000261474,0.80584716796875,-0.39208984375,-0.326904296875,-0.299957275390625,-0.18310546875,0.0,-0.244140625,0.7652587890625,-0.438720703125,0.4796142578125,-217.0,195.0,42.0,102818.0,-12.360000610351562,1000,1000
0.5959909000084735,0.805816650390625,-0.39208984375,-0.326904296875,-0.299957275390625,-0.18310546875,0.0,-0.244140625,0.7652587890625,-0.438720703125,0.4796142578125,-217.0,195.0,42.0,102818.0,-12.362000465393066,1000,1000
0.5960572000185493,0.805816650390625,-0.39208984375,-0.326904296875,-0.299957275390625,0.0,0.0,-0.06103515625,0.7640380859375,-0.43505859375,0.4786376953125,-217.0,195.0,42.0,102818.0,-12.362000465393066,1000,1000
0.5998086000035983,0.805816650390625,-0.392120361328125,-0.326904296875,-0.299957275390625,0.18310546875,-0.1220703125,-0.06103515625,0.7647705078125,-0.4384765625,0.47802734375,-217.0,195.0,42.0,102818.0,-12.362000465393066,1000,1000
0.5998763000243343,0.805816650390625,-0.392120361328125,-0.326904296875,-0.299957275390625,0.18310546875,-0.1220703125,-0.06103515625,0.7647705078125,-0.4384765625,0.47802734375,-217.0,195.0,42.0,102818.0,-12.362000465393066,1000,1000
0.5999443000182509,0.805816650390625,-0.392120361328125,-0.326904296875,-0.299957275390625,-0.18310546875,0.0,0.1220703125,0.765380859375,-0.4373779296875,0.4810791015625,-217.0,195.0,42.0,102818.0,-12.362000465393066,1000,1000
0.6000109000015073,0.805816650390625,-0.392120361328125,-0.326904296875,-0.299957275390625,0.0,-0.3662109375,-0.06103515625,0.767333984375,-0.4384765625,0.4803466796875,-217.0,195.0,42.0,102818.0,-12.362000465393066,1000,1000
0.6000758000009228,0.805816650390625,-0.392120361328125,-0.326904296875,-0.299957275390625,-0.1220703125,-0.06103515625,0.06103515625,0.765869140625,-0.4384765625,0.4805908203125,-217.0,195.0,42.0,102818.0,-12.362000465393066,1000,1000
0.6001414000056684,0.805816650390625,-0.392120361328125,-0.326904296875,-0.2999267578125,-0.18310546875,-0.1220703125,0.06103515625,0.7652587890625,-0.438720703125,0.4808349609375,-217.0,195.0,42.0,102818.0,-12.362000465393066,1000,1000
0.6574347999994643,0.805816650390625,-0.392120361328125,-0.326904296875,-0.299957275390625,0.06103515625,-0.06103515625,0.06103515625,0.7637939453125,-0.4365234375,0.48095703125,-217.0,195.0,42.0,102818.0,-12.362000465393066,1000,1000
0.6575171000149567,0.805816650390625,-0.392120361328125,-0.326904296875,-0.299957275390625,-0.1220703125,0.0,0.0,0.76513671875,-0.4368896484375,0.480224609375,-219.0,195.0,41.0,102818.0,-12.362000465393066,1000,1000
0.6575906000216492,0.805816650390625,-0.392120361328125,-0.326904296875,-0.299957275390625,0.0,-0.1220703125,0.18310546875,0.7647705078125,-0.43798828125,0.4810791015625,-219.0,195.0,41.0,102818.0,-12.362000465393066,1000,1000
0.6576620000123512,0.805816650390625,-0.392120361328125,-0.326904296875,-0.299957275390625,0.0,-0.1220703125,0.18310546875,0.7647705078125,-0.43798828125,0.4810791015625,-219.0,195.0,41.0,102818.0,-12.362000465393066,1000,1000
0.6577359000220895,0.80584716796875,-0.39208984375,-0.326904296875,-0.299957275390625,-0.1220703125,-0.30517578125,-0.06103515625,0.7659912109375,-0.4365234375,0.4818115234375,-219.0,195.0,41.0,102818.0,-12.362000465393066,1000,1000
0.6582610000041313,0.80584716796875,-0.392120361328125,-0.326904296875,-0.299957275390625,0.0,-0.48828125,0.1220703125,0.76416015625,-0.4378662109375,0.4805908203125,-219.0,195.0,41.0,102818.0,-12.362000465393066,1000,1000
0.6583350000146311,0.80584716796875,-0.392120361328125,-0.326904296875,-0.2999267578125,-0.18310546875,-0.18310546875,0.06103515625,0.7647705078125,-0.438232421875,0.4801025390625,-219.0,195.0,41.0,102818.0,-12.362000465393066,1000,1000
0.6584071000106633,0.80584716796875,-0.392120361328125,-0.326904296875,-0.2999267578125,-0.1220703125,-0.244140625,-0.06103515625,0.763427734375,-0.439208984375,0.4822998046875,-219.0,195.0,41.0,102818.0,-12.362000465393066,1000,1000
0.6584777000243776,0.80584716796875,-0.392120361328125,-0.326904296875,-0.2999267578125,0.06103515625,-0.18310546875,-0.06103515625,0.7655029296875,-0.439208984375,0.47998046875,-219.0,195.0,41.0,102818.0,-12.362000465393066,1000,1000
0.6585470999998506,0.80584716796875,-0.392120361328125,-0.326873779296875,-0.2999267578125,0.0,-0.244140625,0.18310546875,0.7640380859375,-0.4373779296875,0.4801025390625,-219.0,195.0,41.0,102818.0,-12.362000465393066,1000,1000
0.6586172000097577,0.80584716796875,-0.392120361328125,-0.326873779296875,-0.2999267578125,-0.06103515625,-0.18310546875,-0.244140625,0.76416015625,-0.4390869140625,0.4815673828125,-219.0,195.0,41.0,102818.0,-12.360000610351562,1000,1000
0.6586887000012212,0.80584716796875,-0.392120361328125,-0.326873779296875,-0.2999267578125,0.06103515625,-0.06103515625,0.06103515625,0.7650146484375,-0.438232421875,0.480224609375,-219.0,195.0,41.0,102818.0,-12.360000610351562,1000,1000
0.7297095000103582,0.80584716796875,-0.392120361328125,-0.326873779296875,-0.2999267578125,-0.1220703125,-0.244140625,0.0,0.764404296875,-0.4378662109375,0.48095703125,-219.0,195.0,41.0,102818.0,-12.360000610351562,1000,1000
0.7297882999991998,0.80584716796875,-0.392120361328125,-0.326873779296875,-0.2999267578125,-0.18310546875,-0.42724609375,0.0,0.765380859375,-0.4390869140625,0.4814453125,-219.0,195.0,41.0,102818.0,-12.360000610351562,1000,1000
0.7298630000150297,0.80584716796875,-0.392120361328125,-0.326873779296875,-0.2999267578125,-0.18310546875,0.06103515625,-0.1220703125,0.7655029296875,-0.4376220703125,0.4813232421875,-219.0,195.0,41.0,102818.0,-12.360000610351562,1000,1000
0.7299350000103004,0.80584716796875,-0.392120361328125,-0.326873779296875,-0.2999267578125,0.1220703125,-0.18310546875,-0.1220703125,0.766357421875,-0.436767578125,0.48095703125,-219.0,195.0,41.0,102818.0,-12.360000610351562,1000,1000
0.7300278000184335,0.80584716796875,-0.392120361328125,-0.326873779296875,-0.2999267578125,-0.1220703125,-0.48828125,-0.1220703125,0.767333984375,-0.43603515625,0.4803466796875,-219.0,195.0,41.0,102818.0,-12.360000610351562,1000,1000
0.7300976999977138,0.80584716796875,-0.392120361328125,-0.326873779296875,-0.2999267578125,0.06103515625,-0.18310546875,0.06103515625,0.76611328125,-0.4384765625,0.4798583984375,-219.0,195.0,41.0,102818.0,-12.360000610351562,1000,1000
0.7301675000053365,0.80584716796875,-0.392120361328125,-0.326873779296875,-0.2999267578125,-0.06103515625,-0.18310546875,0.1220703125,0.766845703125,-0.436767578125,0.4808349609375,-219.0,195.0,41.0,102818.0,-12.360000610351562,1000,1000
0.7302358000015374,0.80584716796875,-0.392120361328125,-0.326904296875,-0.2999267578125,0.30517578125,0.06103515625,-0.244140625,0.7650146484375,-0.4376220703125,0.48046875,-220.0,195.0,42.0,102818.0,-12.360000610351562,1000,1000
0.7303029000177048,0.80584716796875,-0.392120361328125,-0.326904296875,-0.2999267578125,0.30517578125,0.06103515625,-0.244140625,0.7650146484375,-0.4376220703125,0.48046875,-220.0,195.0,42.0,102818.0,-12.360000610351562,1000,1000
0.7303720000199974,0.8057861328125,-0.39215087890625,-0.32684326171875,-0.300048828125,-0.18310546875,0.06103515625,0.1220703125,0.7647705078125,-0.437255859375,0.4803466796875,-220.0,195.0,42.0,102818.0,-12.360000610351562,1000,1000
0.7304402000154369,0.8057861328125,-0.39215087890625,-0.32684326171875,-0.300048828125,-0.06103515625,-0.244140625,-0.1220703125,0.7645263671875,-0.4375,0.4788818359375,-220.0,195.0,42.0,102818.0,-12.360000610351562,1000,1000
0.7882387000136077,0.8057861328125,-0.39215087890625,-0.32684326171875,-0.300048828125,0.06103515625,-0.06103515625,0.244140625,0.7657470703125,-0.4383544921875,0.479248046875,-220.0,195.0,42.0,102818.0,-12.360000610351562,1000,1000
0.7883158000186086,0.8057861328125,-0.39215087890625,-0.32684326171875,-0.300048828125,-0.30517578125,-0.30517578125,-0.06103515625,0.7645263671875,-0.437255859375,0.48193359375,-220.0,195.0,42.0,102818.0,-12.360000610351562,1000,1000
0.7883840000140481,0.8057861328125,-0.39215087890625,-0.32684326171875,-0.300048828125,0.0,0.06103515625,0.1220703125,0.7657470703125,-0.4375,0.4793701171875,-220.0,195.0,42.0,102818.0,-12.360000610351562,1000,1000
0.78845469999942,0.8057861328125,-0.39215087890625,-0.32684326171875,-0.300048828125,-0.06103515625,-0.1220703125,-0.06103515625,0.76416015625,-0.4385986328125,0.47998046875,-220.0,195.0,42.0,102818.0,-12.360000610351562,1000,1000
0.790191500011133,0.8057861328125,-0.39215087890625,-0.32684326171875,-0.300048828125,-0.06103515625,-0.1220703125,-0.06103515625,0.76416015625,-0.4385986328125,0.47998046875,-220.0,195.0,42.0,102818.0,-12.360000610351562,1000,1000
0.7902655000216328,0.8057861328125,-0.392181396484375,-0.32684326171875,-0.300048828125,-0.1220703125,-0.1220703125,-0.06103515625,0.7647705078125,-0.4378662109375,0.481689453125,-220.0,195.0,42.0,102818.0,-12.361001014709473,1000,1000
0.7903345000231639,0.8057861328125,-0.392181396484375,-0.32684326171875,-0.300048828125,0.0,-0.1220703125,-0.06103515625,0.7618408203125,-0.4378662109375,0.4808349609375,-220.0,195.0,42.0,102818.0,-12.361001014709473,1000,1000
0.7904028000193648,0.8057861328125,-0.392181396484375,-0.32684326171875,-0.300018310546875,0.0,-0.1220703125,-0.18310546875,0.7620849609375,-0.4381103515625,0.478759765625,-220.0,195.0,42.0,102818.0,-12.361001014709473,1000,1000
0.79047070001252,0.8057861328125,-0.392181396484375,-0.32684326171875,-0.300018310546875,-0.18310546875,-0.06103515625,0.0,0.76171875,-0.4384765625,0.478759765625,-220.0,195.0,42.0,102818.0,-12.361001014709473,1000,1000
0.7905401000170968,0.8057861328125,-0.392181396484375,-0.32684326171875,-0.300018310546875,0.06103515625,-0.18310546875,0.0,0.7640380859375,-0.4388427734375,0.4796142578125,-220.0,195.0,42.0,102818.0,-12.361001014709473,1000,1000
0.7906052000180352,0.8057861328125,-0.392181396484375,-0.32684326171875,-0.300018310546875,-0.06103515625,0.06103515625,-0.18310546875,0.762939453125,-0.43798828125,0.4788818359375,-220.0,195.0,42.0,102818.0,-12.361001014709473,1000,1000
0.8747028000070713,0.8057861328125,-0.3922119140625,-0.32684326171875,-0.300018310546875,-0.18310546875,-0.3662109375,-0.1220703125,0.7650146484375,-0.43798828125,0.4813232421875,-220.0,195.0,42.0,102818.0,-12.361001014709473,1000,1000
0.8747946000075899,0.8057861328125,-0.3922119140625,-0.32684326171875,-0.300018310546875,-0.18310546875,-0.3662109375,-0.1220703125,0.7650146484375,-0.43798828125,0.4813232421875,-220.0,195.0,42.0,102818.0,-12.361001014709473,1000,1000
0.8748675000097137,0.8057861328125,-0.3922119140625,-0.32684326171875,-0.300018310546875,0.1220703125,-0.18310546875,-0.06103515625,0.7664794921875,-0.4393310546875,0.480224609375,-220.0,195.0,43.0,102818.0,-12.361001014709473,1000,1000
0.8749972000077832,0.805755615234375,-0.392242431640625,-0.3267822265625,-0.30010986328125,-0.06103515625,-0.3662109375,0.0,0.76416015625,-0.43798828125,0.4810791015625,-220.0,195.0,43.0,102818.0,-12.361001014709473,1000,1000
0.8750722999975551,0.805755615234375,-0.392242431640625,-0.3267822265625,-0.30010986328125,0.244140625,0.0,-0.244140625,0.765869140625,-0.43798828125,0.479736328125,-220.0,195.0,43.0,102818.0,-12.361001014709473,1000,1000
0.8751586000144016,0.805755615234375,-0.39227294921875,-0.3267822265625,-0.30010986328125,0.06103515625,-0.18310546875,-0.1220703125,0.7646484375,-0.4388427734375,0.4793701171875,-220.0,195.0,43.0,102818.0,-12.361001014709473,1000,1000
0.8752263000060339,0.80572509765625,-0.39227294921875,-0.3267822265625,-0.30010986328125,-0.1220703125,-0.06103515625,-0.06103515625,0.7630615234375,-0.437744140625,0.4813232421875,-220.0,195.0,43.0,102818.0,-12.361001014709473,1000,1000
0.8752942999999505,0.80572509765625,-0.39227294921875,-0.3267822265625,-0.30010986328125,-0.18310546875,-0.1220703125,-0.06103515625,0.7685546875,-0.4383544921875,0.4779052734375,-220.0,195.0,43.0,102818.0,-12.361001014709473,1000,1000
0.8753602000069804,0.80572509765625,-0.39227294921875,-0.3267822265625,-0.30010986328125,0.0,-0.3662109375,0.06103515625,0.763427734375,-0.437255859375,0.4783935546875,-220.0,195.0,43.0,102818.0,-12.361001014709473,1000,1000
0.8754390000249259,0.80572509765625,-0.39227294921875,-0.3267822265625,-0.30010986328125,-0.1220703125,-0.06103515625,-0.1220703125,0.7672119140625,-0.43798828125,0.4794921875,-220.0,195.0,43.0,102818.0,-12.361001014709473,1000,1000
0.8755108000186738,0.80572509765625,-0.39227294921875,-0.3267822265625,-0.30010986328125,-0.1220703125,-0.06103515625,-0.1220703125,0.7672119140625,-0.43798828125,0.4794921875,-220.0,195.0,43.0,102818.0,-12.361001014709473,1000,1000
0.9207642000110354,0.80572509765625,-0.39227294921875,-0.3267822265625,-0.30010986328125,0.244140625,-0.18310546875,0.06103515625,0.7645263671875,-0.4383544921875,0.47900390625,-220.0,195.0,43.0,102818.0,-12.360000610351562,1000,1000
0.9208406000107061,0.80572509765625,-0.39227294921875,-0.3267822265625,-0.30010986328125,0.0,-0.30517578125,0.06103515625,0.76416015625,-0.4395751953125,0.480224609375,-220.0,195.0,43.0,102818.0,-12.360000610351562,1000,1000
0.9209085000038613,0.80572509765625,-0.39227294921875,-0.3267822265625,-0.30010986328125,0.0,-0.1220703125,0.18310546875,0.765625,-0.4385986328125,0.4805908203125,-220.0,195.0,43.0,102818.0,-12.360000610351562,1000,1000
0.9209764999977779,0.80572509765625,-0.39227294921875,-0.3267822265625,-0.30010986328125,-0.06103515625,-0.18310546875,-0.1220703125,0.7662353515625,-0.438232421875,0.48095703125,-220.0,195.0,43.0,102818.0,-12.360000610351562,1000,1000
0.9210439000162296,0.80572509765625,-0.392303466796875,-0.3267822265625,-0.30010986328125,-0.1220703125,0.0,-0.1220703125,0.767333984375,-0.439453125,0.4801025390625,-220.0,195.0,43.0,102818.0,-12.360000610351562,1000,1000
0.9223488999996334,0.80572509765625,-0.392303466796875,-0.3267822265625,-0.30010986328125,-0.244140625,0.0,0.18310546875,0.7650146484375,-0.439697265625,0.478759765625,-220.0,195.0,43.0,102818.0,-12.360000610351562,1000,1000
0.9224298000044655,0.80572509765625,-0.392303466796875,-0.3267822265625,-0.30010986328125,-0.06103515625,-0.06103515625,-0.3662109375,0.7645263671875,-0.437744140625,0.479736328125,-220.0,195.0,43.0,102818.0,-12.360000610351562,1000,1000
0.9224999000143725,0.80572509765625,-0.392303466796875,-0.3267822265625,-0.30010986328125,-0.06103515625,-0.06103515625,-0.3662109375,0.7645263671875,-0.437744140625,0.479736328125,-220.0,195.0,43.0,102818.0,-12.360000610351562,1000,1000
0.9225679000082891,0.80572509765625,-0.392303466796875,-0.3267822265625,-0.30010986328125,0.0,-0.1220703125,0.0,0.76220703125,-0.4371337890625,0.4813232421875,-220.0,195.0,43.0,102818.0,-12.360000610351562,1000,1000
0.9226361000037286,0.80572509765625,-0.392303466796875,-0.3267822265625,-0.30010986328125,0.0,-0.1220703125,0.0,0.76220703125,-0.4371337890625,0.4813232421875,-220.0,195.0,42.0,102818.0,-12.360000610351562,1000,1000
0.9227765000250656,0.805694580078125,-0.392364501953125,-0.32672119140625,-0.300201416015625,-0.1220703125,-0.06103515625,0.1220703125,0.765380859375,-0.440185546875,0.4801025390625,-220.0,195.0,42.0,102818.0,-12.360000610351562,1000,1000
0.9765276000252925,0.805694580078125,-0.392364501953125,-0.32672119140625,-0.300201416015625,0.0,-0.244140625,-0.1220703125,0.7647705078125,-0.4378662109375,0.4798583984375,-220.0,195.0,42.0,102818.0,-12.360000610351562,1000,1000
0.976609900011681,0.805694580078125,-0.392364501953125,-0.326751708984375,-0.300201416015625,-0.06103515625,-0.18310546875,0.0,0.7655029296875,-0.438232421875,0.48046875,-220.0,195.0,42.0,102818.0,-12.360000610351562,1000,1000
0.9766854000044987,0.8056640625,-0.392364501953125,-0.326751708984375,-0.300201416015625,-0.18310546875,-0.18310546875,-0.18310546875,0.76416015625,-0.4376220703125,0.4769287109375,-220.0,195.0,42.0,102818.0,-12.360000610351562,1000,1000
0.976757299999008,0.8056640625,-0.392364501953125,-0.326751708984375,-0.300201416015625,-0.6103515625,-0.30517578125,-0.1220703125,0.763916015625,-0.43994140625,0.4801025390625,-220.0,195.0,42.0,102818.0,-12.360000610351562,1000,1000
0.9768518000200856,0.8056640625,-0.392364501953125,-0.326751708984375,-0.300201416015625,-0.06103515625,-0.1220703125,0.18310546875,0.765625,-0.43701171875,0.480224609375,-220.0,195.0,42.0,102818.0,-12.360000610351562,1000,1000
0.9769273000129033,0.8056640625,-0.392364501953125,-0.326751708984375,-0.300201416015625,-0.06103515625,-0.1220703125,0.18310546875,0.765625,-0.43701171875,0.480224609375,-220.0,195.0,42.0,102818.0,-12.360000610351562,1000,1000
0.9770560000033583,0.8056640625,-0.392364501953125,-0.32672119140625,-0.300201416015625,-0.18310546875,-0.3662109375,0.06103515625,0.76220703125,-0.4376220703125,0.4788818359375,-220.0,195.0,42.0,102818.0,-12.360000610351562,1000,1000
0.9771278999978676,0.8056640625,-0.392364501953125,-0.326751708984375,-0.300201416015625,0.06103515625,-0.06103515625,0.0,0.764404296875,-0.4359130859375,0.4774169921875,-220.0,195.0,42.0,102818.0,-12.360000610351562,1000,1000
0.9771986000123434,0.8056640625,-0.392364501953125,-0.326751708984375,-0.300201416015625,0.06103515625,0.0,0.06103515625,0.7655029296875,-0.4381103515625,0.4776611328125,-220.0,195.0,42.0,102818.0,-12.361001014709473,1000,1000
0.9772730000258889,0.8056640625,-0.39239501953125,-0.326751708984375,-0.300201416015625,-0.30517578125,0.0,-0.244140625,0.7657470703125,-0.4375,0.4766845703125,-220.0,195.0,42.0,102818.0,-12.361001014709473,1000,1000
0.9773437000112608,0.8056640625,-0.39239501953125,-0.326751708984375,-0.300201416015625,-0.1220703125,-0.06103515625,0.06103515625,0.764892578125,-0.4366455078125,0.4775390625,-220.0,195.0,42.0,102818.0,-12.361001014709473,1000,1000
0.97741490000044,0.8056640625,-0.39239501953125,-0.326751708984375,-0.300201416015625,0.0,0.06103515625,0.0,0.7645263671875,-0.4373779296875,0.477783203125,-220.0,195.0,42.0,102818.0,-12.361001014709473,1000,1000
0.9774866000225302,0.8056640625,-0.39239501953125,-0.326751708984375,-0.300201416015625,-0.18310546875,-0.1220703125,-0.1220703125,0.7633056640625,-0.43798828125,0.4791259765625,-220.0,195.0,42.0,102818.0,-12.361001014709473,1000,1000
1.0384918000199832,0.805633544921875,-0.39239501953125,-0.3267822265625,-0.300201416015625,-0.244140625,-0.06103515625,-0.1220703125,0.7635498046875,-0.4383544921875,0.4775390625,-220.0,195.0,42.0,102818.0,-12.361001014709473,1000,1000
1.0385727000248153,0.805633544921875,-0.392425537109375,-0.3267822265625,-0.300201416015625,0.0,-0.18310546875,0.1220703125,0.7666015625,-0.439208984375,0.475341796875,-220.0,195.0,42.0,102818.0,-12.361001014709473,1000,1000
1.0386781000124756,0.805633544921875,-0.392425537109375,-0.3267822265625,-0.3001708984375,-0.06103515625,0.06103515625,0.06103515625,0.7652587890625,-0.4366455078125,0.4774169921875,-220.0,195.0,42.0,102818.0,-12.361001014709473,1000,1000
1.0387524000252597,0.805633544921875,-0.392425537109375,-0.3267822265625,-0.3001708984375,0.0,-0.06103515625,0.06103515625,0.765380859375,-0.437744140625,0.4766845703125,-220.0,194.0,42.0,102818.0,-12.361001014709473,1000,1000
1.0388272000127472,0.805633544921875,-0.3924560546875,-0.326812744140625,-0.3001708984375,0.18310546875,0.0,-0.06103515625,0.7652587890625,-0.439453125,0.47802734375,-220.0,194.0,42.0,102818.0,-12.361001014709473,1000,1000
1.0390002000203822,0.805572509765625,-0.392486572265625,-0.326751708984375,-0.30029296875,-0.06103515625,-0.06103515625,0.1220703125,0.7674560546875,-0.4388427734375,0.478271484375,-220.0,194.0,42.0,102818.0,-12.361001014709473,1000,1000
1.0390803000191227,0.805572509765625,-0.392486572265625,-0.326751708984375,-0.30029296875,0.0,-0.1220703125,-0.1220703125,0.7657470703125,-0.439453125,0.4791259765625,-220.0,194.0,42.0,102818.0,-12.361001014709473,1000,1000
1.039155300008133,0.805572509765625,-0.392486572265625,-0.326751708984375,-0.30029296875,-0.06103515625,-0.244140625,-0.1220703125,0.7655029296875,-0.4371337890625,0.4781494140625,-220.0,194.0,42.0,102818.0,-12.361001014709473,1000,1000
1.039226699998835,0.805572509765625,-0.39251708984375,-0.326751708984375,-0.30029296875,-0.1220703125,-0.30517578125,0.18310546875,0.767333984375,-0.4384765625,0.4779052734375,-220.0,194.0,42.0,102818.0,-12.361001014709473,1000,1000
1.0392969000095036,0.805572509765625,-0.39251708984375,-0.326751708984375,-0.30029296875,-0.1220703125,-0.30517578125,0.18310546875,0.767333984375,-0.4384765625,0.4779052734375,-220.0,194.0,42.0,102818.0,-12.361001014709473,1000,1000
1.0393679999979213,0.805572509765625,-0.39251708984375,-0.326751708984375,-0.300262451171875,-0.06103515625,-0.30517578125,-0.1220703125,0.767333984375,-0.439208984375,0.4764404296875,-220.0,194.0,42.0,102818.0,-12.361001014709473,1000,1000
1.1074995000089984,0.8055419921875,-0.39251708984375,-0.3267822265625,-0.300262451171875,-0.1220703125,-0.1220703125,-0.30517578125,0.7666015625,-0.437744140625,0.479736328125,-220.0,194.0,42.0,102818.0,-12.359000205993652,1000,1000
1.1075766000139993,0.8055419921875,-0.39251708984375,-0.3267822265625,-0.300262451171875,0.0,-0.42724609375,0.1220703125,0.764892578125,-0.43701171875,0.4813232421875,-220.0,194.0,42.0,102818.0,-12.359000205993652,1000,1000
1.107645300013246,0.8055419921875,-0.392547607421875,-0.3267822265625,-0.300262451171875,0.0,-0.30517578125,-0.30517578125,0.7625732421875,-0.437255859375,0.478271484375,-220.0,194.0,42.0,102818.0,-12.359000205993652,1000,1000
1.1077128000033554,0.8055419921875,-0.392547607421875,-0.3267822265625,-0.300262451171875,-0.3662109375,-0.18310546875,-0.1220703125,0.76416015625,-0.43701171875,0.4779052734375,-220.0,194.0,42.0,102818.0,-12.359000205993652,1000,1000
1.1077780000050552,0.8055419921875,-0.392547607421875,-0.3267822265625,-0.300262451171875,-0.3662109375,-0.18310546875,-0.1220703125,0.76416015625,-0.43701171875,0.4779052734375,-220.0,194.0,42.0,102818.0,-12.359000205993652,1000,1000
1.1085234000056516,0.8055419921875,-0.392547607421875,-0.3267822265625,-0.300262451171875,-0.1220703125,-0.48828125,-0.1220703125,0.763427734375,-0.4376220703125,0.4786376953125,-220.0,194.0,42.0,102818.0,-12.359000205993652,1000,1000
1.108594000019366,0.8055419921875,-0.392547607421875,-0.3267822265625,-0.300262451171875,-0.1220703125,-0.48828125,-0.1220703125,0.763427734375,-0.4376220703125,0.4786376953125,-220.0,194.0,42.0,102818.0,-12.359000205993652,1000,1000
1.1087179000023752,0.8055419921875,-0.392547607421875,-0.3267822265625,-0.300262451171875,-0.18310546875,-0.244140625,0.1220703125,0.766845703125,-0.4371337890625,0.4796142578125,-220.0,194.0,42.0,102818.0,-12.359000205993652,1000,1000
1.1087856000231113,0.8055419921875,-0.392547607421875,-0.3267822265625,-0.300262451171875,-0.06103515625,-0.1220703125,-0.06103515625,0.76513671875,-0.4384765625,0.4786376953125,-220.0,194.0,42.0,102818.0,-12.359000205993652,1000,1000
1.1088510999979917,0.8055419921875,-0.392547607421875,-0.3267822265625,-0.300262451171875,-0.42724609375,-0.18310546875,-0.18310546875,0.7672119140625,-0.4388427734375,0.4783935546875,-220.0,194.0,42.0,102818.0,-12.359000205993652,1000,1000
1.1089178000111133,0.8055419921875,-0.392547607421875,-0.3267822265625,-0.300262451171875,0.0,-0.244140625,0.1220703125,0.76513671875,-0.4378662109375,0.4801025390625,-220.0,194.0,42.0,102818.0,-12.359000205993652,1000,1000
1.1718943000014406,0.8055419921875,-0.392547607421875,-0.3267822265625,-0.300262451171875,0.06103515625,-0.30517578125,0.1220703125,0.76513671875,-0.4376220703125,0.4796142578125,-220.0,195.0,42.0,102818.0,-12.359000205993652,1000,1000
1.1719810000213329,0.80548095703125,-0.392608642578125,-0.326751708984375,-0.300384521484375,0.0,-0.30517578125,-0.30517578125,0.76416015625,-0.4375,0.478759765625,-220.0,195.0,42.0,102818.0,-12.359000205993652,1000,1000
1.1720565000141505,0.80548095703125,-0.392608642578125,-0.326751708984375,-0.300384521484375,0.1220703125,0.06103515625,-0.06103515625,0.7657470703125,-0.4376220703125,0.4805908203125,-220.0,195.0,42.0,102818.0,-12.359000205993652,1000,1000
1.1721319000062067,0.80548095703125,-0.392608642578125,-0.326751708984375,-0.300384521484375,-0.06103515625,-0.18310546875,-0.244140625,0.766357421875,-0.4375,0.4796142578125,-220.0,195.0,42.0,102818.0,-12.359000205993652,1000,1000
1.1722095000150148,0.80548095703125,-0.392608642578125,-0.326751708984375,-0.300384521484375,-0.06103515625,-0.18310546875,-0.244140625,0.766357421875,-0.4375,0.4796142578125,-220.0,195.0,42.0,102818.0,-12.359000205993652,1000,1000
1.1722822000156157,0.80548095703125,-0.392608642578125,-0.326751708984375,-0.300384521484375,-0.06103515625,-0.30517578125,0.06103515625,0.7681884765625,-0.435546875,0.4769287109375,-220.0,195.0,42.0,102818.0,-12.359000205993652,1000,1000
1.1723549000162166,0.80548095703125,-0.392608642578125,-0.326751708984375,-0.300384521484375,0.0,-0.18310546875,0.0,0.7655029296875,-0.438720703125,0.4779052734375,-220.0,195.0,42.0,102818.0,-12.359000205993652,1000,1000
1.180404600017937,0.80548095703125,-0.392608642578125,-0.326751708984375,-0.300384521484375,0.06103515625,-0.06103515625,0.1220703125,0.7674560546875,-0.4388427734375,0.4801025390625,-220.0,195.0,42.0,102818.0,-12.359000205993652,1000,1000
1.1804872000066098,0.80548095703125,-0.392608642578125,-0.326751708984375,-0.300384521484375,-0.1220703125,-0.244140625,-0.1220703125,0.7647705078125,-0.4378662109375,0.479736328125,-220.0,195.0,42.0,102818.0,-12.359000205993652,1000,1000
1.180560200009495,0.80548095703125,-0.392608642578125,-0.326751708984375,-0.300384521484375,-0.30517578125,-0.244140625,0.1220703125,0.765380859375,-0.4368896484375,0.4791259765625,-220.0,195.0,42.0,102818.0,-12.359000205993652,1000,1000
1.180631600000197,0.80548095703125,-0.392608642578125,-0.326751708984375,-0.300384521484375,0.1220703125,-0.1220703125,0.1220703125,0.7669677734375,-0.437255859375,0.480712890625,-220.0,195.0,42.0,102818.0,-12.362000465393066,1000,1000
1.1807071000221185,0.80548095703125,-0.392608642578125,-0.326751708984375,-0.300384521484375,0.06103515625,-0.18310546875,0.18310546875,0.763916015625,-0.4371337890625,0.480224609375,-220.0,195.0,42.0,102818.0,-12.362000465393066,1000,1000
1.1807783000112977,0.80548095703125,-0.392608642578125,-0.3267822265625,-0.300384521484375,-0.1220703125,-0.06103515625,0.18310546875,0.7657470703125,-0.4375,0.478759765625,-220.0,195.0,42.0,102818.0,-12.362000465393066,1000,1000
1.2366021000198089,0.80548095703125,-0.392608642578125,-0.3267822265625,-0.300384521484375,-0.18310546875,-0.06103515625,0.0,0.7637939453125,-0.438232421875,0.477783203125,-220.0,195.0,42.0,102818.0,-12.362000465393066,1000,1000
1.2367473000194877,0.80548095703125,-0.392608642578125,-0.3267822265625,-0.300384521484375,-0.18310546875,-0.30517578125,0.1220703125,0.763427734375,-0.4375,0.4794921875,-220.0,195.0,42.0,102818.0,-12.362000465393066,1000,1000
1.236822500010021,0.80548095703125,-0.392608642578125,-0.326751708984375,-0.300384521484375,-0.1220703125,-0.1220703125,-0.18310546875,0.7626953125,-0.43798828125,0.48046875,-220.0,195.0,42.0,102818.0,-12.362000465393066,1000,1000
1.236895000009099,0.80548095703125,-0.392608642578125,-0.326751708984375,-0.300384521484375,-0.18310546875,-0.06103515625,0.0,0.7633056640625,-0.4368896484375,0.478515625,-220.0,195.0,42.0,102818.0,-12.362000465393066,1000,1000
1.236966600001324,0.80548095703125,-0.392608642578125,-0.3267822265625,-0.300384521484375,-0.1220703125,-0.18310546875,0.06103515625,0.763671875,-0.4388427734375,0.4774169921875,-220.0,195.0,42.0,102818.0,-12.362000465393066,1000,1000
1.2370615000254475,0.80548095703125,-0.392608642578125,-0.3267822265625,-0.300384521484375,-0.1220703125,-0.18310546875,0.06103515625,0.763671875,-0.4388427734375,0.4774169921875,-219.0,195.0,43.0,102818.0,-12.362000465393066,1000,1000
1.237148000014713,0.805419921875,-0.392669677734375,-0.32672119140625,-0.30047607421875,0.1220703125,-0.18310546875,-0.06103515625,0.766357421875,-0.4378662109375,0.479736328125,-219.0,195.0,43.0,102818.0,-12.362000465393066,1000,1000
1.238105500000529,0.805419921875,-0.392669677734375,-0.32672119140625,-0.30047607421875,-0.06103515625,-0.30517578125,0.244140625,0.766357421875,-0.4390869140625,0.479248046875,-219.0,195.0,43.0,102818.0,-12.362000465393066,1000,1000
1.2382064000121318,0.805419921875,-0.392669677734375,-0.32672119140625,-0.30047607421875,-0.06103515625,-0.30517578125,0.244140625,0.766357421875,-0.4390869140625,0.479248046875,-219.0,195.0,43.0,102818.0,-12.362000465393066,1000,1000
1.2382820000057109,0.805419921875,-0.392669677734375,-0.32672119140625,-0.30047607421875,0.0,-0.18310546875,-0.06103515625,0.7659912109375,-0.4368896484375,0.476806640625,-219.0,195.0,43.0,102818.0,-12.362000465393066,1000,1000
1.2383548000070732,0.805419921875,-0.392669677734375,-0.326751708984375,-0.30047607421875,-0.1220703125,-0.30517578125,0.0,0.7657470703125,-0.4371337890625,0.4775390625,-219.0,195.0,43.0,102818.0,-12.362000465393066,1000,1000
1.2944536000140943,0.805419921875,-0.3927001953125,-0.326751708984375,-0.30047607421875,-0.1220703125,-0.244140625,-0.18310546875,0.7652587890625,-0.4361572265625,0.4771728515625,-219.0,195.0,43.0,102818.0,-12.362000465393066,1000,1000
1.2945385000202805,0.805419921875,-0.3927001953125,-0.326751708984375,-0.30047607421875,0.06103515625,-0.1220703125,-0.1220703125,0.7646484375,-0.438232421875,0.478515625,-219.0,195.0,43.0,102818.0,-12.362000465393066,1000,1000
1.2946136000100523,0.805389404296875,-0.3927001953125,-0.326751708984375,-0.30047607421875,-0.1220703125,-0.18310546875,0.06103515625,0.767333984375,-0.4375,0.4764404296875,-219.0,195.0,43.0,102818.0,-12.358000755310059,1000,1000
1.2946866000129376,0.805389404296875,-0.392730712890625,-0.326751708984375,-0.30047607421875,-0.06103515625,-0.3662109375,0.0,0.7650146484375,-0.4398193359375,0.4781494140625,-219.0,195.0,43.0,102818.0,-12.358000755310059,1000,1000
1.2947574999998324,0.805389404296875,-0.392730712890625,-0.3267822265625,-0.30047607421875,0.06103515625,-0.06103515625,0.0,0.764892578125,-0.439453125,0.4754638671875,-219.0,195.0,43.0,102818.0,-12.358000755310059,1000,1000
1.298191100009717,0.805389404296875,-0.392730712890625,-0.3267822265625,-0.30047607421875,0.06103515625,-0.06103515625,0.0,0.764892578125,-0.439453125,0.4754638671875,-219.0,195.0,43.0,102818.0,-12.358000755310059,1000,1000
1.2982717000122648,0.805389404296875,-0.392730712890625,-0.3267822265625,-0.30047607421875,-0.244140625,0.0,-0.1220703125,0.7646484375,-0.437744140625,0.4766845703125,-219.0,195.0,43.0,102818.0,-12.358000755310059,1000,1000
1.2984093000122812,0.805389404296875,-0.392730712890625,-0.3267822265625,-0.30047607421875,0.06103515625,-0.244140625,-0.244140625,0.766357421875,-0.436767578125,0.477294921875,-219.0,195.0,43.0,102818.0,-12.358000755310059,1000,1000
1.2984806000022218,0.805389404296875,-0.392730712890625,-0.3267822265625,-0.30047607421875,-0.06103515625,-0.30517578125,0.06103515625,0.765625,-0.43896484375,0.4759521484375,-219.0,195.0,43.0,102818.0,-12.358000755310059,1000,1000
1.2985517000197433,0.80535888671875,-0.392730712890625,-0.326812744140625,-0.30047607421875,0.0,-0.30517578125,-0.06103515625,0.7645263671875,-0.43701171875,0.4757080078125,-219.0,195.0,43.0,102818.0,-12.358000755310059,1000,1000
1.2986232000112068,0.80535888671875,-0.392730712890625,-0.326812744140625,-0.30047607421875,-0.244140625,-0.244140625,0.06103515625,0.7662353515625,-0.4368896484375,0.47705078125,-219.0,195.0,43.0,102818.0,-12.358000755310059,1000,1000
1.3584492000227328,0.8052978515625,-0.392822265625,-0.3267822265625,-0.300567626953125,0.1220703125,-0.244140625,-0.244140625,0.7669677734375,-0.4400634765625,0.4788818359375,-218.0,195.0,42.0,102818.0,-12.358000755310059,1000,1000
1.3585203000111505,0.8052978515625,-0.392822265625,-0.326812744140625,-0.300567626953125,-0.1220703125,-0.06103515625,0.06103515625,0.767822265625,-0.437744140625,0.4774169921875,-218.0,195.0,42.0,102818.0,-12.358000755310059,1000,1000
1.3585904000210576,0.805267333984375,-0.392852783203125,-0.326812744140625,-0.300567626953125,0.0,-0.30517578125,0.06103515625,0.7669677734375,-0.4366455078125,0.4771728515625,-218.0,195.0,42.0,102818.0,-12.358000755310059,1000,1000
1.3586585000157356,0.805267333984375,-0.392852783203125,-0.326812744140625,-0.300567626953125,-0.1220703125,-0.18310546875,-0.30517578125,0.76416015625,-0.4376220703125,0.4769287109375,-218.0,195.0,42.0,102818.0,-12.358000755310059,1000,1000
1.3587318000209052,0.805267333984375,-0.392852783203125,-0.326812744140625,-0.300567626953125,0.06103515625,-0.06103515625,0.0,0.7650146484375,-0.4381103515625,0.4765625,-218.0,195.0,42.0,102818.0,-12.360000610351562,1000,1000
1.3588040000176989,0.805267333984375,-0.392852783203125,-0.326812744140625,-0.300567626953125,-0.06103515625,-0.244140625,-0.06103515625,0.76416015625,-0.43798828125,0.477783203125,-218.0,195.0,42.0,102818.0,-12.360000610351562,1000,1000
1.42483970001922,0.805267333984375,-0.39288330078125,-0.32684326171875,-0.300567626953125,0.18310546875,-0.30517578125,-0.1220703125,0.7667236328125,-0.4385986328125,0.4769287109375,-218.0,195.0,42.0,102818.0,-12.360000610351562,1000,1000
1.4249178000027314,0.805267333984375,-0.39288330078125,-0.32684326171875,-0.300567626953125,-0.1220703125,-0.244140625,0.0,0.7664794921875,-0.4366455078125,0.47802734375,-218.0,195.0,42.0,102818.0,-12.360000610351562,1000,1000
1.4249921000155155,0.80523681640625,-0.39288330078125,-0.32684326171875,-0.300567626953125,-0.06103515625,0.0,-0.06103515625,0.767822265625,-0.4361572265625,0.474365234375,-218.0,195.0,42.0,102818.0,-12.360000610351562,1000,1000
1.425061400019331,0.80523681640625,-0.39288330078125,-0.32684326171875,-0.300567626953125,0.18310546875,0.18310546875,0.06103515625,0.76611328125,-0.4373779296875,0.477294921875,-218.0,195.0,42.0,102818.0,-12.360000610351562,1000,1000
1.4251532000198495,0.80523681640625,-0.392913818359375,-0.32684326171875,-0.300537109375,-0.1220703125,-0.18310546875,0.06103515625,0.7646484375,-0.4415283203125,0.475341796875,-218.0,195.0,42.0,102818.0,-12.360000610351562,1000,1000
1.425426100002369,0.80523681640625,-0.392913818359375,-0.32684326171875,-0.300537109375,-0.1220703125,-0.18310546875,-0.1220703125,0.7640380859375,-0.43798828125,0.4761962890625,-218.0,195.0,42.0,102818.0,-12.360000610351562,1000,1000
1.4255082000163384,0.80523681640625,-0.392913818359375,-0.326873779296875,-0.300537109375,-0.06103515625,0.06103515625,-0.1220703125,0.7630615234375,-0.4365234375,0.4736328125,-218.0,195.0,42.0,102818.0,-12.360000610351562,1000,1000
1.4257438000058755,0.80523681640625,-0.392913818359375,-0.326873779296875,-0.300537109375,-0.06103515625,0.06103515625,-0.1220703125,0.7630615234375,-0.4365234375,0.4736328125,-218.0,195.0,42.0,102818.0,-12.360000610351562,1000,1000
1.4258187000232283,0.805267333984375,-0.39288330078125,-0.326934814453125,-0.3004150390625,-0.06103515625,-0.06103515625,0.1220703125,0.764404296875,-0.4375,0.474609375,-218.0,195.0,40.0,102818.0,-12.360000610351562,1000,1000
1.4258901000139304,0.805267333984375,-0.39288330078125,-0.326934814453125,-0.3004150390625,0.0,-0.1220703125,0.0,0.7652587890625,-0.4368896484375,0.4759521484375,-218.0,195.0,40.0,102818.0,-12.360000610351562,1000,1000
