Time stamp(sec),adc1,adc2,roll_angular_rate,pitch_angular_rate,yaw_angular_rate,acc_X,acc_Y,acc_Z,mag_X,mag_Y,mag_Z,pressure,altitude
0.04111710000142921,0.372283935546875,-0.452301025390625,0.310211181640625,-0.74871826171875,0.06103515625,0.06103515625,0.0,0.446533203125,-0.802734375,0.396728515625,-296.0,151.0,-151.0,101705.0,-3.1660001277923584,0,0
0.04118089999246877,0.372283935546875,-0.452301025390625,0.310211181640625,-0.74871826171875,-0.30517578125,-0.1220703125,-0.06103515625,0.4468994140625,-0.800048828125,0.39697265625,-296.0,151.0,-151.0,101705.0,-3.1660001277923584,0,0
0.0412380000052508,0.372283935546875,-0.452301025390625,0.310211181640625,-0.74871826171875,0.0,-0.244140625,-0.18310546875,0.4462890625,-0.8011474609375,0.3975830078125,-296.0,151.0,-151.0,101705.0,-3.1660001277923584,0,0
0.04129090000060387,0.372283935546875,-0.452301025390625,0.310211181640625,-0.74871826171875,0.18310546875,-0.1220703125,-0.06103515625,0.44677734375,-0.802734375,0.3968505859375,-296.0,151.0,-151.0,101705.0,-3.1660001277923584,0,0
0.041343599994434044,0.372283935546875,-0.452301025390625,0.310211181640625,-0.74871826171875,0.06103515625,-0.1220703125,-0.18310546875,0.4432373046875,-0.80029296875,0.3985595703125,-296.0,151.0,-151.0,101705.0,-3.1660001277923584,0,0
0.04157459999260027,0.372283935546875,-0.452301025390625,0.310211181640625,-0.748687744140625,0.1220703125,-0.1220703125,0.0,0.4459228515625,-0.8006591796875,0.3958740234375,-296.0,151.0,-151.0,101705.0,-3.1660001277923584,0,0
0.04162799999176059,0.372283935546875,-0.452301025390625,0.310211181640625,-0.748687744140625,0.1220703125,-0.1220703125,0.0,0.4459228515625,-0.8006591796875,0.3958740234375,-296.0,151.0,-151.0,101705.0,-3.1660001277923584,0,0
0.0416821999970125,0.372283935546875,-0.452301025390625,0.310211181640625,-0.748687744140625,-0.1220703125,0.0,-0.06103515625,0.4459228515625,-0.7999267578125,0.3968505859375,-296.0,151.0,-151.0,101705.0,-3.1660001277923584,0,0
0.041733199992449954,0.372283935546875,-0.452301025390625,0.310211181640625,-0.748687744140625,0.0,0.0,-0.06103515625,0.4466552734375,-0.8001708984375,0.3980712890625,-296.0,151.0,-151.0,101705.0,-3.1660001277923584,0,0
0.041785599998547696,0.372283935546875,-0.452301025390625,0.310211181640625,-0.748687744140625,-0.244140625,0.06103515625,-0.06103515625,0.446533203125,-0.802734375,0.3975830078125,-296.0,151.0,-151.0,101705.0,-3.1660001277923584,0,0
0.04183990000456106,0.372283935546875,-0.45233154296875,0.310211181640625,-0.748687744140625,-0.06103515625,-0.1220703125,0.06103515625,0.445556640625,-0.8021240234375,0.3970947265625,-296.0,151.0,-151.0,101705.0,-3.1660001277923584,0,0
0.10041810000257101,0.372161865234375,-0.4522705078125,0.310272216796875,-0.748748779296875,-0.244140625,-0.1220703125,0.0,0.44580078125,-0.8016357421875,0.3980712890625,-296.0,151.0,-152.0,101705.0,-3.1660001277923584,0,0
0.10048500000266358,0.372161865234375,-0.4522705078125,0.310302734375,-0.74871826171875,0.1220703125,-0.18310546875,-0.06103515625,0.444091796875,-0.8023681640625,0.396728515625,-296.0,151.0,-152.0,101705.0,-3.1660001277923584,0,0
0.10054569999920204,0.372161865234375,-0.4522705078125,0.310302734375,-0.74871826171875,0.1220703125,-0.18310546875,0.0,0.44677734375,-0.8011474609375,0.3990478515625,-296.0,151.0,-152.0,101705.0,-3.1660001277923584,0,0
0.10060469999734778,0.372161865234375,-0.4522705078125,0.310302734375,-0.74871826171875,0.1220703125,-0.18310546875,0.0,0.44677734375,-0.8011474609375,0.3990478515625,-296.0,151.0,-152.0,101705.0,-3.1660001277923584,0,0
0.10066019999794662,0.372161865234375,-0.4522705078125,0.310302734375,-0.74871826171875,0.1220703125,-0.18310546875,0.0,0.44677734375,-0.8011474609375,0.3990478515625,-296.0,151.0,-152.0,101705.0,-3.1660001277923584,0,0
0.10071379999862984,0.372161865234375,-0.452301025390625,0.310302734375,-0.74871826171875,0.18310546875,-0.1220703125,-0.06103515625,0.4462890625,-0.80126953125,0.3961181640625,-296.0,151.0,-152.0,101705.0,-3.1660001277923584,0,0
0.10076739999931306,0.372161865234375,-0.452301025390625,0.310302734375,-0.74871826171875,0.244140625,-0.06103515625,-0.30517578125,0.447021484375,-0.801513671875,0.3953857421875,-296.0,151.0,-152.0,101705.0,-3.1660001277923584,0,0
0.10084139999526087,0.372161865234375,-0.452301025390625,0.310302734375,-0.74871826171875,-0.30517578125,0.0,0.0,0.4473876953125,-0.80029296875,0.3968505859375,-296.0,151.0,-152.0,101705.0,-3.1660001277923584,0,0
0.10090049999416806,0.372161865234375,-0.452301025390625,0.310302734375,-0.74871826171875,0.54931640625,0.244140625,-0.06103515625,0.4464111328125,-0.8013916015625,0.3966064453125,-296.0,151.0,-152.0,101705.0,-3.1660001277923584,0,0
0.10095569999248255,0.372161865234375,-0.452301025390625,0.310302734375,-0.74871826171875,0.1220703125,-0.244140625,0.06103515625,0.4422607421875,-0.7994384765625,0.395751953125,-296.0,151.0,-152.0,101705.0,-3.1660001277923584,0,0
0.10100850000162609,0.372161865234375,-0.452301025390625,0.310302734375,-0.74871826171875,-0.06103515625,-0.1220703125,-0.1220703125,0.4468994140625,-0.7999267578125,0.3966064453125,-296.0,151.0,-152.0,101705.0,-3.1660001277923584,0,0
0.10106349999841768,0.372161865234375,-0.452301025390625,0.310302734375,-0.74871826171875,0.18310546875,-0.1220703125,-0.18310546875,0.4462890625,-0.80029296875,0.396240234375,-296.0,151.0,-152.0,101705.0,-3.1660001277923584,0,0
0.1011173000006238,0.372161865234375,-0.452301025390625,0.310302734375,-0.74871826171875,-0.06103515625,-0.244140625,-0.1220703125,0.4459228515625,-0.800537109375,0.397216796875,-296.0,151.0,-152.0,101705.0,-3.1660001277923584,0,0
0.16956959999515675,0.37213134765625,-0.45233154296875,0.310302734375,-0.748687744140625,0.18310546875,0.0,-0.1220703125,0.4462890625,-0.8009033203125,0.396728515625,-296.0,151.0,-152.0,101705.0,-3.1660001277923584,0,0
0.16964290000032634,0.37213134765625,-0.45233154296875,0.310302734375,-0.748687744140625,-0.1220703125,0.18310546875,-0.06103515625,0.44775390625,-0.80126953125,0.3958740234375,-296.0,151.0,-152.0,101705.0,-3.1660001277923584,0,0
0.1697029999922961,0.37213134765625,-0.45233154296875,0.310302734375,-0.748687744140625,0.0,0.0,0.18310546875,0.447265625,-0.80078125,0.39794921875,-296.0,151.0,-152.0,101705.0,-3.1660001277923584,0,0
0.1698130000004312,0.37213134765625,-0.45233154296875,0.310302734375,-0.748687744140625,-0.18310546875,-0.06103515625,-0.1220703125,0.4471435546875,-0.800537109375,0.3966064453125,-296.0,151.0,-152.0,101705.0,-3.1660001277923584,0,0
0.16987549999612384,0.37213134765625,-0.452362060546875,0.310333251953125,-0.748687744140625,0.0,-0.06103515625,0.0,0.4473876953125,-0.8016357421875,0.395751953125,-296.0,151.0,-152.0,101705.0,-3.1660001277923584,0,0
0.16995840000163298,0.37213134765625,-0.452362060546875,0.310333251953125,-0.748687744140625,-0.1220703125,-0.06103515625,-0.06103515625,0.4456787109375,-0.8021240234375,0.3966064453125,-295.0,151.0,-150.0,101705.0,-3.1660001277923584,0,0
0.17003330000443384,0.37225341796875,-0.452392578125,0.310272216796875,-0.748626708984375,0.0,-0.06103515625,0.0,0.4462890625,-0.8017578125,0.3973388671875,-295.0,151.0,-150.0,101705.0,-3.1660001277923584,0,0
0.1702134999941336,0.372222900390625,-0.452392578125,0.310272216796875,-0.748626708984375,-0.244140625,-0.06103515625,0.0,0.445068359375,-0.8011474609375,0.3970947265625,-295.0,151.0,-150.0,101705.0,-3.1660001277923584,0,0
0.17027639999287203,0.372222900390625,-0.452392578125,0.310272216796875,-0.748626708984375,-0.244140625,-0.06103515625,0.0,0.445068359375,-0.8011474609375,0.3970947265625,-295.0,151.0,-150.0,101705.0,-3.1660001277923584,0,0
0.17034650000277907,0.372222900390625,-0.452392578125,0.310272216796875,-0.748626708984375,0.0,-0.18310546875,-0.1220703125,0.4476318359375,-0.8001708984375,0.3956298828125,-295.0,151.0,-150.0,101705.0,-3.1660001277923584,0,0
0.17045570000482257,0.372222900390625,-0.452423095703125,0.310272216796875,-0.748626708984375,0.0,-0.06103515625,-0.3662109375,0.4466552734375,-0.8011474609375,0.396484375,-295.0,151.0,-150.0,101705.0,-3.1660001277923584,0,0
0.2304636000044411,0.372222900390625,-0.452423095703125,0.310272216796875,-0.748626708984375,0.0,-0.1220703125,-0.06103515625,0.448486328125,-0.8016357421875,0.3953857421875,-295.0,151.0,-150.0,101705.0,-3.1660001277923584,0,0
0.23052800000004936,0.372222900390625,-0.45245361328125,0.310272216796875,-0.748626708984375,-0.06103515625,-0.18310546875,0.1220703125,0.4478759765625,-0.8009033203125,0.39599609375,-295.0,151.0,-150.0,101705.0,-3.1660001277923584,0,0
0.2305837000021711,0.372222900390625,-0.45245361328125,0.310272216796875,-0.748626708984375,-0.06103515625,0.0,-0.06103515625,0.4466552734375,-0.8031005859375,0.3955078125,-295.0,151.0,-150.0,101705.0,-3.1660001277923584,0,0
0.23063710000133142,0.372222900390625,-0.45245361328125,0.310272216796875,-0.748626708984375,-0.18310546875,-0.18310546875,0.1220703125,0.443359375,-0.8017578125,0.3992919921875,-295.0,151.0,-150.0,101705.0,-3.1660001277923584,0,0
0.23068929999135435,0.372222900390625,-0.45245361328125,0.310302734375,-0.74859619140625,0.06103515625,-0.06103515625,0.0,0.4473876953125,-0.8028564453125,0.3953857421875,-295.0,151.0,-150.0,101705.0,-3.1660001277923584,0,0
0.23075809999136254,0.372222900390625,-0.45245361328125,0.310302734375,-0.74859619140625,0.06103515625,-0.06103515625,0.0,0.4473876953125,-0.8028564453125,0.3953857421875,-295.0,151.0,-150.0,101705.0,-3.1660001277923584,0,0
0.23081079999974463,0.372222900390625,-0.45245361328125,0.310302734375,-0.74859619140625,0.18310546875,0.0,0.30517578125,0.443603515625,-0.802734375,0.3961181640625,-295.0,151.0,-150.0,101705.0,-3.1660001277923584,0,0
0.23086290000355802,0.372222900390625,-0.45245361328125,0.310302734375,-0.74859619140625,0.0,-0.30517578125,0.1220703125,0.4449462890625,-0.802978515625,0.396240234375,-295.0,151.0,-150.0,101705.0,-3.1660001277923584,0,0
0.23091450000356417,0.372222900390625,-0.45245361328125,0.310302734375,-0.74859619140625,0.0,-0.1220703125,-0.06103515625,0.4454345703125,-0.7994384765625,0.3970947265625,-295.0,151.0,-150.0,101705.0,-3.1660001277923584,0,0
0.23097170000255574,0.372222900390625,-0.45245361328125,0.310302734375,-0.74859619140625,-0.06103515625,-0.18310546875,-0.244140625,0.44482421875,-0.7999267578125,0.3975830078125,-295.0,151.0,-150.0,101705.0,-3.1660001277923584,0,0
0.23102360000484623,0.372222900390625,-0.45245361328125,0.310302734375,-0.74859619140625,0.30517578125,-0.30517578125,-0.18310546875,0.4466552734375,-0.802734375,0.3978271484375,-295.0,151.0,-150.0,101705.0,-3.1660001277923584,0,0
0.29083309999259654,0.372222900390625,-0.45245361328125,0.310302734375,-0.74859619140625,0.18310546875,-0.244140625,-0.244140625,0.4468994140625,-0.800048828125,0.3961181640625,-295.0,151.0,-150.0,101705.0,-3.1660001277923584,0,0
0.2909017999918433,0.372222900390625,-0.45245361328125,0.310302734375,-0.74859619140625,0.1220703125,-0.244140625,-0.18310546875,0.4462890625,-0.800537109375,0.397216796875,-295.0,151.0,-150.0,101705.0,-3.1660001277923584,0,0
0.2909613999945577,0.372100830078125,-0.452423095703125,0.31036376953125,-0.7486572265625,0.18310546875,-0.244140625,0.244140625,0.44677734375,-0.7994384765625,0.3978271484375,-295.0,149.0,-150.0,101705.0,-3.1660001277923584,0,0
0.2910193999996409,0.372100830078125,-0.452423095703125,0.31036376953125,-0.7486572265625,0.18310546875,-0.244140625,0.244140625,0.44677734375,-0.7994384765625,0.3978271484375,-295.0,149.0,-150.0,101705.0,-3.1660001277923584,0,0
0.2910783999977866,0.372100830078125,-0.452423095703125,0.31036376953125,-0.748626708984375,0.06103515625,-0.06103515625,0.06103515625,0.4473876953125,-0.803466796875,0.396484375,-295.0,149.0,-150.0,101705.0,-3.1660001277923584,0,0
0.2912623000011081,0.372100830078125,-0.452423095703125,0.31036376953125,-0.748626708984375,0.06103515625,-0.06103515625,0.06103515625,0.4473876953125,-0.803466796875,0.396484375,-295.0,149.0,-150.0,101706.0,-3.1670000553131104,0,0
0.29134179999527987,0.372100830078125,-0.452423095703125,0.31036376953125,-0.748626708984375,-0.244140625,-0.244140625,-0.1220703125,0.444091796875,-0.7994384765625,0.39501953125,-295.0,149.0,-150.0,101706.0,-3.1670000553131104,0,0
0.29181189999508206,0.372100830078125,-0.452423095703125,0.31036376953125,-0.748626708984375,0.06103515625,-0.1220703125,0.0,0.443603515625,-0.8004150390625,0.396728515625,-295.0,149.0,-150.0,101706.0,-3.1670000553131104,0,0
0.29187839999212883,0.372100830078125,-0.452423095703125,0.310394287109375,-0.748626708984375,-0.18310546875,-0.06103515625,-0.18310546875,0.4462890625,-0.802734375,0.394287109375,-295.0,149.0,-150.0,101706.0,-3.1670000553131104,0,0
0.292019699991215,0.372100830078125,-0.45245361328125,0.310394287109375,-0.748626708984375,0.244140625,0.0,-0.06103515625,0.4447021484375,-0.8017578125,0.39453125,-295.0,149.0,-150.0,101706.0,-3.1670000553131104,0,0
0.2920776999962982,0.372100830078125,-0.45245361328125,0.310394287109375,-0.748626708984375,0.42724609375,0.0,-0.18310546875,0.4447021484375,-0.7999267578125,0.3953857421875,-295.0,149.0,-150.0,101706.0,-3.1670000553131104,0,0
0.29213549999985844,0.372100830078125,-0.45245361328125,0.310394287109375,-0.74859619140625,-0.244140625,-0.1220703125,-0.1220703125,0.447998046875,-0.8016357421875,0.3946533203125,-295.0,149.0,-150.0,101706.0,-3.1670000553131104,0,0
0.2921914000035031,0.372100830078125,-0.45245361328125,0.310394287109375,-0.74859619140625,0.48828125,0.0,-0.244140625,0.4462890625,-0.800537109375,0.3941650390625,-295.0,149.0,-150.0,101706.0,-3.1670000553131104,0,0
0.35836519999429584,0.372100830078125,-0.452484130859375,0.310394287109375,-0.74859619140625,0.1220703125,0.1220703125,-0.1220703125,0.4473876953125,-0.8011474609375,0.3970947265625,-295.0,149.0,-150.0,101706.0,-3.1670000553131104,0,0
0.35842930000217166,0.372100830078125,-0.452484130859375,0.310394287109375,-0.74859619140625,0.244140625,-0.06103515625,-0.1220703125,0.4462890625,-0.8016357421875,0.39697265625,-295.0,149.0,-150.0,101706.0,-3.1670000553131104,0,0
0.35848880000412464,0.372100830078125,-0.452484130859375,0.310394287109375,-0.74859619140625,-0.244140625,-0.30517578125,-0.18310546875,0.4462890625,-0.799560546875,0.3975830078125,-295.0,149.0,-150.0,101706.0,-3.1670000553131104,0,0
0.35854590000235476,0.3720703125,-0.452484130859375,0.310394287109375,-0.74859619140625,0.0,0.06103515625,-0.3662109375,0.4482421875,-0.7994384765625,0.3961181640625,-295.0,149.0,-150.0,101706.0,-3.1670000553131104,0,0
0.3586014000029536,0.3720703125,-0.452484130859375,0.310394287109375,-0.74859619140625,-0.1220703125,-0.06103515625,0.06103515625,0.44873046875,-0.80126953125,0.395263671875,-295.0,149.0,-150.0,101706.0,-3.1670000553131104,0,0
0.3586739000020316,0.3720703125,-0.4525146484375,0.310394287109375,-0.74859619140625,0.1220703125,0.0,0.244140625,0.4471435546875,-0.802001953125,0.395263671875,-295.0,149.0,-150.0,101706.0,-3.1670000553131104,0,0
0.3587284999957774,0.3720703125,-0.4525146484375,0.310394287109375,-0.74859619140625,0.42724609375,0.0,0.244140625,0.4486083984375,-0.8018798828125,0.3974609375,-294.0,151.0,-151.0,101706.0,-3.1670000553131104,0,0
0.358787699995446,0.3720703125,-0.4525146484375,0.310394287109375,-0.74859619140625,0.42724609375,0.0,0.244140625,0.4486083984375,-0.8018798828125,0.3974609375,-294.0,151.0,-151.0,101706.0,-3.1670000553131104,0,0
0.35884299999452196,0.3720703125,-0.452484130859375,0.310394287109375,-0.74859619140625,-0.06103515625,-0.06103515625,0.1220703125,0.4443359375,-0.799560546875,0.3985595703125,-294.0,151.0,-151.0,101706.0,-3.1670000553131104,0,0
0.3589992000052007,0.3720703125,-0.452484130859375,0.310394287109375,-0.74859619140625,0.18310546875,-0.244140625,-0.3662109375,0.4456787109375,-0.8023681640625,0.3970947265625,-294.0,151.0,-151.0,101706.0,-3.1670000553131104,0,0
0.35908480000216514,0.372100830078125,-0.452484130859375,0.3104248046875,-0.74859619140625,0.0,0.06103515625,-0.1220703125,0.442626953125,-0.8038330078125,0.39697265625,-294.0,151.0,-151.0,101705.0,-3.1670000553131104,0,0
0.4241442999918945,0.3720703125,-0.4525146484375,0.3104248046875,-0.74859619140625,0.18310546875,0.0,0.06103515625,0.4473876953125,-0.800537109375,0.3968505859375,-294.0,151.0,-151.0,101705.0,-3.1670000553131104,0,0
0.4242060999968089,0.3720703125,-0.4525146484375,0.3104248046875,-0.74859619140625,0.18310546875,0.06103515625,-0.1220703125,0.4462890625,-0.7998046875,0.39697265625,-294.0,151.0,-151.0,101705.0,-3.1670000553131104,0,0
0.4242640000011306,0.3720703125,-0.4525146484375,0.3104248046875,-0.74859619140625,0.18310546875,0.1220703125,-0.1220703125,0.446533203125,-0.8001708984375,0.39697265625,-294.0,151.0,-151.0,101705.0,-3.1670000553131104,0,0
0.4243214000016451,0.3720703125,-0.4525146484375,0.3104248046875,-0.74859619140625,0.06103515625,0.0,-0.30517578125,0.4462890625,-0.8004150390625,0.3946533203125,-294.0,151.0,-151.0,101705.0,-3.1670000553131104,0,0
0.42438149999361485,0.3720703125,-0.4525146484375,0.3104248046875,-0.74859619140625,0.06103515625,0.0,-0.30517578125,0.4462890625,-0.8004150390625,0.3946533203125,-294.0,151.0,-151.0,101705.0,-3.1670000553131104,0,0
0.42447030000039376,0.3720703125,-0.4525146484375,0.3104248046875,-0.74859619140625,0.18310546875,-0.1220703125,-0.06103515625,0.4454345703125,-0.800537109375,0.3955078125,-294.0,151.0,-151.0,101705.0,-3.1670000553131104,0,0
0.4245243000041228,0.3720703125,-0.4525146484375,0.3104248046875,-0.748565673828125,-0.3662109375,-0.1220703125,0.0,0.446533203125,-0.800537109375,0.395751953125,-294.0,151.0,-151.0,101705.0,-3.1670000553131104,0,0
0.4245770999987144,0.3720703125,-0.4525146484375,0.3104248046875,-0.748565673828125,0.0,-0.1220703125,0.18310546875,0.4505615234375,-0.7989501953125,0.3955078125,-294.0,151.0,-151.0,101705.0,-3.1670000553131104,0,0
0.4246296000055736,0.3720703125,-0.452545166015625,0.3104248046875,-0.748565673828125,-0.18310546875,-0.06103515625,0.18310546875,0.4483642578125,-0.7998046875,0.395263671875,-294.0,151.0,-151.0,101705.0,-3.1670000553131104,0,0
0.42468250000092667,0.3720703125,-0.452545166015625,0.3104248046875,-0.748565673828125,0.18310546875,0.0,0.1220703125,0.4473876953125,-0.8011474609375,0.3951416015625,-294.0,151.0,-151.0,101705.0,-3.1670000553131104,0,0
0.42473579999932554,0.372039794921875,-0.452545166015625,0.3104248046875,-0.748565673828125,0.06103515625,-0.18310546875,0.3662109375,0.4453125,-0.8016357421875,0.395751953125,-294.0,151.0,-151.0,101705.0,-3.1670000553131104,0,0
0.4824960999976611,0.372039794921875,-0.452545166015625,0.3104248046875,-0.748565673828125,0.06103515625,0.30517578125,0.06103515625,0.4459228515625,-0.802490234375,0.397216796875,-294.0,151.0,-151.0,101705.0,-3.1670000553131104,0,0
0.48257169999124017,0.372039794921875,-0.452545166015625,0.3104248046875,-0.748565673828125,0.1220703125,-0.1220703125,-0.18310546875,0.4456787109375,-0.8021240234375,0.3948974609375,-294.0,151.0,-151.0,101705.0,-3.1670000553131104,0,0
0.48263569999835454,0.372039794921875,-0.452545166015625,0.3104248046875,-0.748565673828125,0.1220703125,-0.1220703125,-0.18310546875,0.4456787109375,-0.8021240234375,0.3948974609375,-294.0,151.0,-151.0,101705.0,-3.1670000553131104,0,0
0.48269530000106897,0.3720703125,-0.452545166015625,0.3104248046875,-0.748565673828125,-0.1220703125,-0.06103515625,-0.18310546875,0.4453125,-0.801513671875,0.398193359375,-293.0,150.0,-151.0,101705.0,-3.1670000553131104,0,0
0.48274900000251364,0.3719482421875,-0.4525146484375,0.31048583984375,-0.74859619140625,0.18310546875,-0.06103515625,-0.18310546875,0.4473876953125,-0.80126953125,0.396728515625,-293.0,150.0,-151.0,101705.0,-3.1670000553131104,0,0
0.48280199999862816,0.3719482421875,-0.4525146484375,0.310516357421875,-0.74859619140625,0.18310546875,0.0,-0.30517578125,0.444091796875,-0.8017578125,0.3956298828125,-293.0,150.0,-151.0,101705.0,-3.1670000553131104,0,0
0.4828572999977041,0.3719482421875,-0.4525146484375,0.310516357421875,-0.74859619140625,0.244140625,-0.244140625,0.06103515625,0.4461669921875,-0.80126953125,0.3953857421875,-293.0,150.0,-151.0,101705.0,-3.1670000553131104,0,0
0.4834056999970926,0.3719482421875,-0.4525146484375,0.310516357421875,-0.74859619140625,0.244140625,-0.244140625,0.06103515625,0.4461669921875,-0.80126953125,0.3953857421875,-293.0,150.0,-151.0,101705.0,-3.1660001277923584,0,0
0.4834686999965925,0.3719482421875,-0.4525146484375,0.310516357421875,-0.74859619140625,0.1220703125,-0.06103515625,-0.18310546875,0.447509765625,-0.80322265625,0.3975830078125,-293.0,150.0,-151.0,101705.0,-3.1660001277923584,0,0
0.48352429999795277,0.3719482421875,-0.4525146484375,0.310516357421875,-0.74859619140625,0.18310546875,0.1220703125,0.06103515625,0.4466552734375,-0.801025390625,0.3978271484375,-293.0,150.0,-151.0,101705.0,-3.1660001277923584,0,0
0.48357840000244323,0.3719482421875,-0.4525146484375,0.310516357421875,-0.74859619140625,-0.30517578125,0.06103515625,-0.18310546875,0.4454345703125,-0.80224609375,0.396728515625,-293.0,150.0,-151.0,101705.0,-3.1660001277923584,0,0
0.4836334999999963,0.3719482421875,-0.4525146484375,0.310516357421875,-0.74859619140625,-0.06103515625,0.0,0.30517578125,0.447998046875,-0.802734375,0.3994140625,-293.0,150.0,-151.0,101705.0,-3.1660001277923584,0,0
0.4836875000037253,0.3719482421875,-0.4525146484375,0.310516357421875,-0.74859619140625,-0.06103515625,0.0,0.30517578125,0.447998046875,-0.802734375,0.3994140625,-293.0,150.0,-151.0,101705.0,-3.1660001277923584,0,0
0.553313900003559,0.3719482421875,-0.4525146484375,0.310516357421875,-0.74859619140625,0.1220703125,-0.244140625,0.06103515625,0.4468994140625,-0.8001708984375,0.396484375,-293.0,150.0,-151.0,101705.0,-3.1660001277923584,0,0
0.553376500000013,0.3719482421875,-0.4525146484375,0.310516357421875,-0.74859619140625,-0.18310546875,-0.1220703125,-0.244140625,0.446533203125,-0.80029296875,0.3966064453125,-293.0,150.0,-151.0,101705.0,-3.1660001277923584,0,0
0.5534342000028118,0.3719482421875,-0.4525146484375,0.310516357421875,-0.74859619140625,0.1220703125,-0.18310546875,-0.244140625,0.44580078125,-0.8011474609375,0.3958740234375,-293.0,150.0,-151.0,101705.0,-3.1660001277923584,0,0
0.5534876000019722,0.3719482421875,-0.4525146484375,0.310516357421875,-0.74859619140625,-0.06103515625,0.0,0.0,0.447265625,-0.8016357421875,0.3970947265625,-293.0,150.0,-151.0,101705.0,-3.1660001277923584,0,0
0.5535422999964794,0.3719482421875,-0.4525146484375,0.310516357421875,-0.74859619140625,0.18310546875,-0.06103515625,0.06103515625,0.4451904296875,-0.802001953125,0.3963623046875,-293.0,150.0,-151.0,101705.0,-3.1660001277923584,0,0
0.5553332999988925,0.3719482421875,-0.4525146484375,0.310516357421875,-0.74859619140625,0.1220703125,-0.1220703125,-0.18310546875,0.44482421875,-0.8004150390625,0.39697265625,-293.0,150.0,-151.0,101705.0,-3.1660001277923584,0,0
0.5553922999970382,0.3719482421875,-0.4525146484375,0.310516357421875,-0.74859619140625,0.1220703125,-0.1220703125,-0.18310546875,0.44482421875,-0.8004150390625,0.39697265625,-293.0,150.0,-151.0,101705.0,-3.1660001277923584,0,0
0.5554468000045745,0.3719482421875,-0.4525146484375,0.310516357421875,-0.74859619140625,0.0,-0.1220703125,0.0,0.444580078125,-0.800048828125,0.3980712890625,-293.0,150.0,-151.0,101705.0,-3.1660001277923584,0,0
0.5555005999922287,0.3719482421875,-0.4525146484375,0.310516357421875,-0.74859619140625,-0.06103515625,-0.1220703125,0.0,0.4459228515625,-0.8004150390625,0.39599609375,-293.0,150.0,-150.0,101705.0,-3.1660001277923584,0,0
0.5555545999959577,0.3719482421875,-0.452545166015625,0.310516357421875,-0.74859619140625,-0.1220703125,-0.3662109375,0.1220703125,0.4449462890625,-0.8001708984375,0.395263671875,-293.0,150.0,-150.0,101705.0,-3.1660001277923584,0,0
0.5556064999982482,0.3719482421875,-0.4525146484375,0.310516357421875,-0.74859619140625,0.244140625,0.06103515625,0.18310546875,0.4449462890625,-0.801513671875,0.397216796875,-293.0,150.0,-150.0,101705.0,-3.1660001277923584,0,0
0.6096229999966454,0.3719482421875,-0.452545166015625,0.310516357421875,-0.74859619140625,0.06103515625,-0.06103515625,-0.18310546875,0.448486328125,-0.8021240234375,0.3973388671875,-293.0,150.0,-150.0,101705.0,-3.1650002002716064,0,0
0.6096881999983452,0.3719482421875,-0.452545166015625,0.310516357421875,-0.74859619140625,-0.1220703125,-0.1220703125,-0.18310546875,0.44580078125,-0.8028564453125,0.395751953125,-293.0,150.0,-150.0,101705.0,-3.1650002002716064,0,0
0.609748100003344,0.3719482421875,-0.452545166015625,0.310516357421875,-0.74859619140625,0.06103515625,0.0,-0.1220703125,0.446044921875,-0.800048828125,0.3973388671875,-293.0,150.0,-150.0,101705.0,-3.1650002002716064,0,0
0.6098018000047887,0.3719482421875,-0.452545166015625,0.310516357421875,-0.74859619140625,0.06103515625,0.0,-0.1220703125,0.446044921875,-0.800048828125,0.3973388671875,-293.0,150.0,-150.0,101705.0,-3.1650002002716064,0,0
0.6098895000031916,0.3719482421875,-0.452545166015625,0.310516357421875,-0.74859619140625,0.1220703125,-0.06103515625,0.06103515625,0.447265625,-0.8009033203125,0.3978271484375,-293.0,150.0,-150.0,101705.0,-3.1650002002716064,0,0
0.6117881999962265,0.3719482421875,-0.452545166015625,0.310516357421875,-0.74859619140625,0.244140625,-0.42724609375,-0.1220703125,0.447998046875,-0.80078125,0.3970947265625,-293.0,150.0,-150.0,101705.0,-3.1650002002716064,0,0
0.6118472999951337,0.3719482421875,-0.452545166015625,0.310516357421875,-0.74859619140625,-0.1220703125,-0.18310546875,-0.30517578125,0.4464111328125,-0.8011474609375,0.3980712890625,-293.0,150.0,-150.0,101705.0,-3.1650002002716064,0,0
0.6178153999935603,0.3719482421875,-0.452545166015625,0.310516357421875,-0.74859619140625,0.1220703125,-0.06103515625,-0.06103515625,0.4462890625,-0.8006591796875,0.3953857421875,-293.0,150.0,-150.0,101705.0,-3.1650002002716064,0,0
0.6179778999940027,0.3719482421875,-0.452545166015625,0.310516357421875,-0.74859619140625,0.06103515625,0.1220703125,-0.06103515625,0.4443359375,-0.801025390625,0.3975830078125,-293.0,150.0,-150.0,101705.0,-3.1650002002716064,0,0
0.6181074000051012,0.3719482421875,-0.452545166015625,0.310516357421875,-0.74859619140625,0.30517578125,-0.1220703125,-0.1220703125,0.447265625,-0.801025390625,0.3978271484375,-293.0,150.0,-150.0,101705.0,-3.1650002002716064,0,0
0.6182335000048624,0.3719482421875,-0.452545166015625,0.310516357421875,-0.74859619140625,0.1220703125,0.06103515625,0.06103515625,0.4468994140625,-0.79931640625,0.3978271484375,-293.0,150.0,-150.0,101705.0,-3.1650002002716064,0,0
0.6183519000041997,0.3719482421875,-0.452545166015625,0.310516357421875,-0.74859619140625,-0.18310546875,0.0,0.18310546875,0.44677734375,-0.8004150390625,0.3968505859375,-293.0,150.0,-150.0,101705.0,-3.1650002002716064,0,0
0.6829274000047008,0.3719482421875,-0.452545166015625,0.310516357421875,-0.74859619140625,-0.18310546875,0.0,0.18310546875,0.44677734375,-0.8004150390625,0.3968505859375,-293.0,150.0,-150.0,101705.0,-3.1650002002716064,0,0
0.6829976000008173,0.3719482421875,-0.452545166015625,0.310516357421875,-0.74859619140625,0.1220703125,-0.06103515625,-0.1220703125,0.44580078125,-0.7998046875,0.3961181640625,-293.0,150.0,-150.0,101705.0,-3.1650002002716064,0,0
0.6830580999958329,0.3719482421875,-0.452545166015625,0.310516357421875,-0.74859619140625,-0.244140625,-0.244140625,-0.1220703125,0.44921875,-0.8017578125,0.3978271484375,-293.0,150.0,-150.0,101705.0,-3.1650002002716064,0,0
0.6831154999963474,0.3719482421875,-0.452545166015625,0.310516357421875,-0.74859619140625,0.18310546875,0.0,0.0,0.4466552734375,-0.80126953125,0.3968505859375,-293.0,150.0,-150.0,101705.0,-3.1650002002716064,0,0
0.6831716000015149,0.371826171875,-0.4525146484375,0.310577392578125,-0.748626708984375,0.18310546875,0.0,0.0,0.4466552734375,-0.80126953125,0.3968505859375,-293.0,151.0,-150.0,101705.0,-3.1650002002716064,0,0
0.6832278999936534,0.371826171875,-0.4525146484375,0.310577392578125,-0.748626708984375,0.06103515625,-0.3662109375,-0.1220703125,0.44482421875,-0.799560546875,0.396240234375,-293.0,151.0,-150.0,101705.0,-3.1650002002716064,0,0
0.6833088999992469,0.371826171875,-0.4525146484375,0.310577392578125,-0.748626708984375,0.0,-0.1220703125,-0.18310546875,0.4464111328125,-0.800537109375,0.3961181640625,-293.0,151.0,-150.0,101705.0,-3.1650002002716064,0,0
0.6833645000006072,0.371826171875,-0.4525146484375,0.310577392578125,-0.748626708984375,0.0,-0.1220703125,-0.18310546875,0.4464111328125,-0.800537109375,0.3961181640625,-293.0,151.0,-150.0,101705.0,-3.1650002002716064,0,0
0.6834193999966374,0.371826171875,-0.4525146484375,0.310577392578125,-0.748626708984375,0.18310546875,0.0,0.06103515625,0.4461669921875,-0.8026123046875,0.3975830078125,-293.0,151.0,-150.0,101705.0,-3.1650002002716064,0,0
0.6834747999964748,0.371826171875,-0.4525146484375,0.310577392578125,-0.748626708984375,0.244140625,0.06103515625,-0.18310546875,0.44580078125,-0.8004150390625,0.3968505859375,-293.0,151.0,-150.0,101705.0,-3.1650002002716064,0,0
0.683530599999358,0.371826171875,-0.4525146484375,0.310577392578125,-0.748626708984375,0.244140625,0.06103515625,-0.18310546875,0.44580078125,-0.8004150390625,0.3968505859375,-293.0,151.0,-150.0,101705.0,-3.1650002002716064,0,0
0.6835869999922579,0.371826171875,-0.4525146484375,0.310577392578125,-0.748626708984375,0.1220703125,-0.1220703125,-0.06103515625,0.4456787109375,-0.7994384765625,0.3970947265625,-293.0,151.0,-150.0,101705.0,-3.1650002002716064,0,0
0.7410392000019783,0.371826171875,-0.4525146484375,0.310577392578125,-0.748626708984375,0.244140625,-0.06103515625,-0.244140625,0.4468994140625,-0.801513671875,0.3961181640625,-293.0,151.0,-150.0,101705.0,-3.1650002002716064,0,0
0.7411028999922564,0.371826171875,-0.4525146484375,0.310577392578125,-0.748626708984375,0.06103515625,-0.06103515625,0.1220703125,0.446533203125,-0.8001708984375,0.3953857421875,-293.0,151.0,-150.0,101705.0,-3.1650002002716064,0,0
0.7411616000026697,0.371826171875,-0.4525146484375,0.310577392578125,-0.748626708984375,0.06103515625,0.0,0.0,0.4461669921875,-0.8023681640625,0.3984375,-293.0,151.0,-150.0,101705.0,-3.1650002002716064,0,0
0.7412221999984467,0.371826171875,-0.4525146484375,0.310577392578125,-0.748626708984375,-0.18310546875,0.06103515625,-0.244140625,0.4454345703125,-0.802490234375,0.3955078125,-293.0,151.0,-150.0,101705.0,-3.1650002002716064,0,0
0.7412780000013299,0.371826171875,-0.4525146484375,0.310577392578125,-0.748626708984375,0.18310546875,-0.18310546875,-0.244140625,0.4466552734375,-0.8004150390625,0.3963623046875,-293.0,151.0,-150.0,101705.0,-3.1650002002716064,0,0
0.7426762999966741,0.371826171875,-0.4525146484375,0.310577392578125,-0.748626708984375,0.18310546875,-0.18310546875,-0.244140625,0.4466552734375,-0.8004150390625,0.3963623046875,-293.0,151.0,-150.0,101705.0,-3.1650002002716064,0,0
0.7427344000025187,0.371826171875,-0.4525146484375,0.31060791015625,-0.748626708984375,0.18310546875,-0.06103515625,-0.244140625,0.44580078125,-0.8035888671875,0.3961181640625,-293.0,151.0,-150.0,101705.0,-3.1650002002716064,0,0
0.7427889999962645,0.371826171875,-0.4525146484375,0.31060791015625,-0.748626708984375,-0.1220703125,-0.244140625,0.06103515625,0.4482421875,-0.79931640625,0.396240234375,-293.0,151.0,-150.0,101705.0,-3.1650002002716064,0,0
0.7428445999976248,0.371826171875,-0.4525146484375,0.31060791015625,-0.748626708984375,0.0,0.06103515625,-0.1220703125,0.4468994140625,-0.8013916015625,0.3978271484375,-293.0,151.0,-150.0,101705.0,-3.1650002002716064,0,0
0.7429010000050766,0.371826171875,-0.4525146484375,0.31060791015625,-0.748626708984375,-0.18310546875,0.0,-0.06103515625,0.4462890625,-0.8006591796875,0.396484375,-293.0,151.0,-150.0,101705.0,-3.1650002002716064,0,0
0.7429573999979766,0.371826171875,-0.452545166015625,0.310577392578125,-0.748626708984375,-0.1220703125,-0.1220703125,-0.18310546875,0.447265625,-0.8004150390625,0.3963623046875,-294.0,151.0,-149.0,101705.0,-3.1650002002716064,0,0
0.8006396999990102,0.371826171875,-0.452545166015625,0.31060791015625,-0.748626708984375,0.18310546875,-0.18310546875,0.1220703125,0.447509765625,-0.802490234375,0.3966064453125,-294.0,151.0,-149.0,101705.0,-3.1650002002716064,0,0
0.8007096999936039,0.371826171875,-0.452545166015625,0.31060791015625,-0.748626708984375,0.18310546875,-0.18310546875,0.1220703125,0.447509765625,-0.802490234375,0.3966064453125,-294.0,151.0,-149.0,101705.0,-3.1650002002716064,0,0
0.8007694999978412,0.371826171875,-0.452545166015625,0.31060791015625,-0.748626708984375,-0.244140625,0.0,-0.1220703125,0.4437255859375,-0.800537109375,0.3956298828125,-294.0,151.0,-149.0,101705.0,-3.1650002002716064,0,0
0.8008273000014015,0.371826171875,-0.452545166015625,0.31060791015625,-0.74859619140625,0.0,-0.18310546875,-0.1220703125,0.4442138671875,-0.80126953125,0.3963623046875,-294.0,151.0,-149.0,101705.0,-3.1650002002716064,0,0
0.8008849000034388,0.371826171875,-0.452545166015625,0.31060791015625,-0.74859619140625,0.06103515625,-0.244140625,0.06103515625,0.4453125,-0.80078125,0.396484375,-294.0,151.0,-149.0,101705.0,-3.1650002002716064,0,0
0.8012724000000162,0.371826171875,-0.452545166015625,0.31060791015625,-0.74859619140625,0.0,-0.06103515625,0.0,0.4466552734375,-0.8021240234375,0.3958740234375,-294.0,151.0,-149.0,101705.0,-3.1650002002716064,0,0
0.8013309999951161,0.371826171875,-0.452545166015625,0.31060791015625,-0.74859619140625,0.06103515625,0.06103515625,-0.18310546875,0.4466552734375,-0.802734375,0.3970947265625,-294.0,151.0,-149.0,101705.0,-3.1650002002716064,0,0
0.8013871000002837,0.371826171875,-0.452545166015625,0.31060791015625,-0.74859619140625,-0.244140625,-0.06103515625,0.06103515625,0.4444580078125,-0.80126953125,0.395751953125,-294.0,151.0,-149.0,101705.0,-3.1650002002716064,0,0
0.8014446000015596,0.371826171875,-0.452545166015625,0.310638427734375,-0.74859619140625,-0.06103515625,-0.3662109375,0.1220703125,0.446044921875,-0.8006591796875,0.3955078125,-294.0,151.0,-149.0,101705.0,-3.1650002002716064,0,0
0.8015014999982668,0.371826171875,-0.452545166015625,0.310638427734375,-0.74859619140625,-0.06103515625,-0.18310546875,0.0,0.4449462890625,-0.8017578125,0.39599609375,-294.0,151.0,-149.0,101705.0,-3.1650002002716064,0,0
0.8015581999934511,0.371826171875,-0.452545166015625,0.310638427734375,-0.74859619140625,0.1220703125,-0.244140625,0.06103515625,0.4447021484375,-0.801513671875,0.3978271484375,-294.0,151.0,-149.0,101705.0,-3.1650002002716064,0,0
0.8016208000044571,0.371826171875,-0.452545166015625,0.310638427734375,-0.74859619140625,0.1220703125,-0.244140625,0.06103515625,0.4447021484375,-0.801513671875,0.3978271484375,-294.0,151.0,-149.0,101705.0,-3.1650002002716064,0,0
0.8703854000050342,0.371826171875,-0.452545166015625,0.310638427734375,-0.74859619140625,0.1220703125,0.0,-0.18310546875,0.4488525390625,-0.8013916015625,0.3980712890625,-294.0,151.0,-149.0,101705.0,-3.1650002002716064,0,0
0.8704522000043653,0.371826171875,-0.452545166015625,0.310638427734375,-0.74859619140625,0.06103515625,0.0,-0.06103515625,0.445556640625,-0.8009033203125,0.3978271484375,-294.0,151.0,-149.0,101705.0,-3.1650002002716064,0,0
0.8705101999948965,0.371826171875,-0.452545166015625,0.310638427734375,-0.74859619140625,0.18310546875,0.0,-0.1220703125,0.445556640625,-0.801513671875,0.3953857421875,-294.0,151.0,-149.0,101705.0,-3.1650002002716064,0,0
0.8705663000000641,0.371826171875,-0.452545166015625,0.310638427734375,-0.74859619140625,0.18310546875,0.06103515625,-0.1220703125,0.4481201171875,-0.8018798828125,0.396240234375,-294.0,151.0,-149.0,101705.0,-3.1650002002716064,0,0
0.8706230999960098,0.371826171875,-0.452545166015625,0.310638427734375,-0.74859619140625,-0.1220703125,-0.06103515625,-0.06103515625,0.4462890625,-0.8006591796875,0.396240234375,-294.0,151.0,-149.0,101705.0,-3.1650002002716064,0,0
0.8706796000042232,0.371826171875,-0.452545166015625,0.310638427734375,-0.74859619140625,0.3662109375,-0.06103515625,0.0,0.4454345703125,-0.802001953125,0.39599609375,-294.0,151.0,-149.0,101705.0,-3.1650002002716064,0,0
0.870752499991795,0.372039794921875,-0.45263671875,0.310516357421875,-0.74847412109375,0.3662109375,-0.06103515625,0.0,0.4454345703125,-0.802001953125,0.39599609375,-295.0,151.0,-149.0,101705.0,-3.1650002002716064,0,0
0.8708085999969626,0.372039794921875,-0.45263671875,0.310516357421875,-0.74847412109375,-0.1220703125,0.1220703125,0.06103515625,0.4478759765625,-0.7999267578125,0.396484375,-295.0,151.0,-149.0,101705.0,-3.1650002002716064,0,0
0.8708641999983229,0.372039794921875,-0.45263671875,0.310516357421875,-0.74847412109375,-0.1220703125,0.1220703125,0.06103515625,0.4478759765625,-0.7999267578125,0.396484375,-295.0,151.0,-149.0,101705.0,-3.1650002002716064,0,0
0.870920200002729,0.372039794921875,-0.45263671875,0.310516357421875,-0.74847412109375,-0.54931640625,-0.18310546875,0.0,0.4451904296875,-0.79931640625,0.396240234375,-295.0,151.0,-149.0,101705.0,-3.1650002002716064,0,0
0.8711405999929411,0.372039794921875,-0.45263671875,0.310516357421875,-0.74847412109375,-0.1220703125,0.0,0.0,0.4442138671875,-0.8013916015625,0.3955078125,-295.0,151.0,-149.0,101705.0,-3.1650002002716064,0,0
0.8711989000003086,0.372039794921875,-0.45263671875,0.310516357421875,-0.74847412109375,0.244140625,0.0,0.0,0.4461669921875,-0.8011474609375,0.395263671875,-295.0,151.0,-149.0,101705.0,-3.1650002002716064,0,0
0.9305845999915618,0.37200927734375,-0.452667236328125,0.310516357421875,-0.74847412109375,-0.06103515625,0.18310546875,-0.1220703125,0.4478759765625,-0.8021240234375,0.3974609375,-295.0,151.0,-149.0,101705.0,-3.1650002002716064,0,0
0.9306526000000304,0.37200927734375,-0.452667236328125,0.310516357421875,-0.74847412109375,-0.06103515625,-0.244140625,0.0,0.4468994140625,-0.8017578125,0.3970947265625,-295.0,151.0,-149.0,101705.0,-3.1650002002716064,0,0
0.9307120000012219,0.37200927734375,-0.452667236328125,0.310516357421875,-0.74847412109375,0.06103515625,0.06103515625,-0.1220703125,0.447998046875,-0.80126953125,0.396728515625,-295.0,151.0,-149.0,101705.0,-3.1650002002716064,0,0
0.9307706999970833,0.37200927734375,-0.452667236328125,0.310516357421875,-0.74847412109375,0.18310546875,0.0,-0.1220703125,0.4459228515625,-0.801513671875,0.395263671875,-295.0,151.0,-149.0,101705.0,-3.1650002002716064,0,0
0.9308733999932883,0.37200927734375,-0.452667236328125,0.310516357421875,-0.74847412109375,0.18310546875,0.0,-0.1220703125,0.4459228515625,-0.801513671875,0.395263671875,-295.0,151.0,-149.0,101705.0,-3.1650002002716064,0,0
0.9312208000046667,0.37200927734375,-0.452667236328125,0.310516357421875,-0.74847412109375,0.06103515625,0.0,0.1220703125,0.4459228515625,-0.7989501953125,0.3978271484375,-295.0,151.0,-149.0,101705.0,-3.1660001277923584,0,0
0.9312790999974823,0.37200927734375,-0.452667236328125,0.310516357421875,-0.74847412109375,-0.06103515625,0.0,-0.06103515625,0.4454345703125,-0.80126953125,0.3958740234375,-295.0,151.0,-149.0,101705.0,-3.1660001277923584,0,0
0.9313366999995196,0.37200927734375,-0.452667236328125,0.310516357421875,-0.74847412109375,-0.244140625,-0.18310546875,-0.06103515625,0.4449462890625,-0.8001708984375,0.396728515625,-295.0,151.0,-149.0,101705.0,-3.1660001277923584,0,0
0.9313935999962268,0.37200927734375,-0.452667236328125,0.310516357421875,-0.74847412109375,-0.06103515625,0.0,-0.1220703125,0.446044921875,-0.79931640625,0.395751953125,-295.0,151.0,-149.0,101705.0,-3.1660001277923584,0,0
0.9314489999960642,0.37200927734375,-0.452667236328125,0.310516357421875,-0.74847412109375,0.30517578125,-0.1220703125,-0.1220703125,0.445068359375,-0.80078125,0.395263671875,-295.0,151.0,-149.0,101705.0,-3.1660001277923584,0,0
0.9315035000036005,0.37200927734375,-0.452667236328125,0.310516357421875,-0.74847412109375,0.1220703125,0.0,-0.1220703125,0.4462890625,-0.801025390625,0.3973388671875,-295.0,151.0,-149.0,101705.0,-3.1660001277923584,0,0
0.931558700001915,0.37200927734375,-0.452667236328125,0.310516357421875,-0.74847412109375,-0.1220703125,-0.1220703125,-0.1220703125,0.445068359375,-0.80029296875,0.3974609375,-295.0,151.0,-149.0,101705.0,-3.1660001277923584,0,0
0.9920105000055628,0.37213134765625,-0.45269775390625,0.31048583984375,-0.7484130859375,0.06103515625,-0.18310546875,-0.06103515625,0.4461669921875,-0.8017578125,0.398193359375,-295.0,151.0,-149.0,101705.0,-3.1660001277923584,0,0
0.9920853999938117,0.37213134765625,-0.45269775390625,0.31048583984375,-0.7484130859375,0.3662109375,-0.1220703125,-0.1220703125,0.4451904296875,-0.802734375,0.3983154296875,-295.0,151.0,-149.0,101705.0,-3.1660001277923584,0,0
0.9921476000017719,0.37213134765625,-0.45269775390625,0.31048583984375,-0.7484130859375,-0.06103515625,-0.06103515625,0.1220703125,0.4478759765625,-0.8026123046875,0.395263671875,-295.0,151.0,-149.0,101705.0,-3.1660001277923584,0,0
0.9922070000029635,0.37213134765625,-0.45269775390625,0.31048583984375,-0.7484130859375,0.3662109375,-0.06103515625,-0.1220703125,0.446533203125,-0.80224609375,0.3975830078125,-295.0,151.0,-149.0,101705.0,-3.1660001277923584,0,0
0.9922817000042414,0.37213134765625,-0.452728271484375,0.31048583984375,-0.7484130859375,0.06103515625,-0.06103515625,0.06103515625,0.44775390625,-0.8009033203125,0.3973388671875,-295.0,151.0,-149.0,101705.0,-3.1660001277923584,0,0
0.9923392000055173,0.37213134765625,-0.452728271484375,0.31048583984375,-0.7484130859375,0.18310546875,0.1220703125,0.0,0.447265625,-0.800048828125,0.3958740234375,-295.0,151.0,-149.0,101705.0,-3.1660001277923584,0,0
0.992395299996133,0.37213134765625,-0.452728271484375,0.31048583984375,-0.7484130859375,0.42724609375,0.06103515625,-0.1220703125,0.44677734375,-0.8021240234375,0.396484375,-295.0,151.0,-149.0,101705.0,-3.1660001277923584,0,0
0.992450399993686,0.372100830078125,-0.452728271484375,0.31048583984375,-0.7484130859375,0.06103515625,-0.1220703125,-0.244140625,0.44677734375,-0.8011474609375,0.395751953125,-295.0,151.0,-149.0,101705.0,-3.1660001277923584,0,0
0.9925072000041837,0.372100830078125,-0.452728271484375,0.31048583984375,-0.7484130859375,0.06103515625,-0.1220703125,-0.244140625,0.44677734375,-0.8011474609375,0.395751953125,-295.0,151.0,-149.0,101705.0,-3.1660001277923584,0,0
0.9925624000024982,0.372100830078125,-0.452728271484375,0.31048583984375,-0.7484130859375,0.06103515625,-0.1220703125,-0.244140625,0.44677734375,-0.8011474609375,0.395751953125,-295.0,151.0,-149.0,101705.0,-3.1660001277923584,0,0
0.9926188999961596,0.372100830078125,-0.452728271484375,0.310455322265625,-0.7484130859375,0.0,-0.30517578125,-0.1220703125,0.4461669921875,-0.8006591796875,0.3966064453125,-295.0,151.0,-149.0,101705.0,-3.1660001277923584,0,0
1.0636188999924343,0.372100830078125,-0.452728271484375,0.310455322265625,-0.7484130859375,0.244140625,-0.30517578125,0.06103515625,0.4478759765625,-0.7991943359375,0.39794921875,-295.0,151.0,-149.0,101705.0,-3.1660001277923584,0,0
1.0636798999912571,0.372100830078125,-0.452728271484375,0.310455322265625,-0.7484130859375,0.244140625,-0.30517578125,0.06103515625,0.4478759765625,-0.7991943359375,0.39794921875,-295.0,151.0,-149.0,101705.0,-3.1650002002716064,0,0
1.0637351000041235,0.372100830078125,-0.452728271484375,0.310455322265625,-0.7484130859375,-0.18310546875,-0.18310546875,-0.1220703125,0.4462890625,-0.800048828125,0.396728515625,-295.0,151.0,-149.0,101705.0,-3.1650002002716064,0,0
1.0637887000048067,0.372100830078125,-0.452728271484375,0.310455322265625,-0.7484130859375,0.06103515625,-0.1220703125,0.1220703125,0.4461669921875,-0.802734375,0.3961181640625,-295.0,151.0,-149.0,101705.0,-3.1650002002716064,0,0
1.0638426999939838,0.372100830078125,-0.452728271484375,0.310455322265625,-0.7484130859375,-0.244140625,0.06103515625,-0.244140625,0.44775390625,-0.8001708984375,0.3955078125,-295.0,151.0,-149.0,101705.0,-3.1650002002716064,0,0
1.0646856999956071,0.372100830078125,-0.452728271484375,0.310455322265625,-0.7484130859375,0.0,0.0,-0.06103515625,0.4471435546875,-0.8021240234375,0.3970947265625,-295.0,151.0,-149.0,101705.0,-3.1650002002716064,0,0
1.065226699996856,0.372100830078125,-0.452728271484375,0.310455322265625,-0.7484130859375,0.18310546875,-0.244140625,-0.06103515625,0.4453125,-0.800537109375,0.3963623046875,-295.0,151.0,-149.0,101705.0,-3.1650002002716064,0,0
1.0652843999996549,0.372100830078125,-0.452728271484375,0.310455322265625,-0.7484130859375,0.18310546875,-0.244140625,-0.06103515625,0.4453125,-0.800537109375,0.3963623046875,-295.0,151.0,-149.0,101705.0,-3.1650002002716064,0,0
1.0653378999995766,0.372100830078125,-0.452728271484375,0.310455322265625,-0.7484130859375,0.30517578125,0.0,-0.244140625,0.4456787109375,-0.8016357421875,0.39697265625,-295.0,152.0,-149.0,101705.0,-3.1650002002716064,0,0
1.065391099997214,0.372314453125,-0.45281982421875,0.310333251953125,-0.748321533203125,-0.1220703125,0.0,-0.18310546875,0.4476318359375,-0.8004150390625,0.3975830078125,-295.0,152.0,-149.0,101705.0,-3.1650002002716064,0,0
1.0654434000025503,0.372283935546875,-0.452850341796875,0.310333251953125,-0.748321533203125,0.1220703125,-0.48828125,0.18310546875,0.44580078125,-0.8013916015625,0.39697265625,-295.0,152.0,-149.0,101705.0,-3.1650002002716064,0,0
1.0654958999948576,0.372283935546875,-0.452850341796875,0.310333251953125,-0.748321533203125,0.1220703125,-0.18310546875,0.1220703125,0.449462890625,-0.802490234375,0.3968505859375,-295.0,152.0,-149.0,101705.0,-3.1650002002716064,0,0
1.0655475999956252,0.372283935546875,-0.452850341796875,0.310333251953125,-0.748321533203125,0.0,0.0,0.18310546875,0.4451904296875,-0.801025390625,0.3955078125,-295.0,152.0,-149.0,101705.0,-3.1650002002716064,0,0
1.122303700001794,0.372283935546875,-0.452850341796875,0.310333251953125,-0.748291015625,-0.06103515625,-0.18310546875,-0.06103515625,0.4462890625,-0.8013916015625,0.396728515625,-295.0,152.0,-149.0,101705.0,-3.1650002002716064,0,0
1.1223634000052698,0.372283935546875,-0.452850341796875,0.310333251953125,-0.748291015625,0.18310546875,0.0,-0.06103515625,0.447509765625,-0.80029296875,0.3948974609375,-295.0,152.0,-149.0,101705.0,-3.1650002002716064,0,0
1.1224210999935167,0.372283935546875,-0.452850341796875,0.310333251953125,-0.748291015625,0.18310546875,0.0,-0.06103515625,0.447509765625,-0.80029296875,0.3948974609375,-295.0,152.0,-149.0,101705.0,-3.1650002002716064,0,0
1.1227354000002379,0.372283935546875,-0.452850341796875,0.310333251953125,-0.748291015625,0.1220703125,-0.18310546875,0.18310546875,0.4462890625,-0.80126953125,0.3951416015625,-295.0,152.0,-149.0,101705.0,-3.1650002002716064,0,0
1.1230849999992643,0.372283935546875,-0.452850341796875,0.31036376953125,-0.748291015625,-0.06103515625,0.0,-0.244140625,0.444091796875,-0.800048828125,0.3968505859375,-295.0,152.0,-149.0,101705.0,-3.1650002002716064,0,0
1.1231456999958027,0.372283935546875,-0.452850341796875,0.310333251953125,-0.748291015625,0.18310546875,0.0,-0.1220703125,0.4473876953125,-0.8001708984375,0.3970947265625,-295.0,152.0,-149.0,101705.0,-3.1650002002716064,0,0
1.1232004000048619,0.372283935546875,-0.452850341796875,0.310333251953125,-0.748291015625,-0.1220703125,-0.1220703125,-0.1220703125,0.4478759765625,-0.80029296875,0.39697265625,-295.0,152.0,-149.0,101706.0,-3.1670000553131104,0,0
1.123254399994039,0.372283935546875,-0.452850341796875,0.310333251953125,-0.748291015625,0.1220703125,-0.18310546875,-0.18310546875,0.4468994140625,-0.80322265625,0.3970947265625,-295.0,152.0,-149.0,101706.0,-3.1670000553131104,0,0
1.1233076999924378,0.372283935546875,-0.452850341796875,0.310333251953125,-0.748291015625,0.0,0.06103515625,0.1220703125,0.4462890625,-0.799072265625,0.396728515625,-295.0,152.0,-149.0,101706.0,-3.1670000553131104,0,0
1.123361499994644,0.372283935546875,-0.452850341796875,0.310333251953125,-0.748291015625,0.244140625,0.0,0.0,0.446044921875,-0.8004150390625,0.396484375,-295.0,152.0,-149.0,101706.0,-3.1670000553131104,0,0
1.1234135999984574,0.372283935546875,-0.452850341796875,0.310333251953125,-0.748291015625,0.0,0.0,-0.1220703125,0.4473876953125,-0.8004150390625,0.3980712890625,-295.0,152.0,-149.0,101706.0,-3.1670000553131104,0,0
1.1865541000006488,0.372283935546875,-0.452850341796875,0.310333251953125,-0.748291015625,-0.06103515625,-0.1220703125,-0.06103515625,0.4459228515625,-0.7999267578125,0.396484375,-295.0,153.0,-150.0,101706.0,-3.1670000553131104,0,0
1.1866180999932112,0.372283935546875,-0.452850341796875,0.310333251953125,-0.748291015625,-0.06103515625,-0.1220703125,-0.1220703125,0.448486328125,-0.8018798828125,0.397216796875,-295.0,153.0,-150.0,101706.0,-3.1670000553131104,0,0
1.1866771999921184,0.372283935546875,-0.452850341796875,0.310333251953125,-0.748291015625,0.06103515625,-0.06103515625,-0.1220703125,0.4456787109375,-0.8016357421875,0.3968505859375,-295.0,153.0,-150.0,101706.0,-3.1670000553131104,0,0
1.18673439999111,0.372283935546875,-0.452850341796875,0.310333251953125,-0.748291015625,-0.1220703125,0.0,-0.1220703125,0.448486328125,-0.8028564453125,0.3968505859375,-295.0,153.0,-150.0,101706.0,-3.1670000553131104,0,0
1.186806500001694,0.372283935546875,-0.452850341796875,0.310333251953125,-0.748291015625,0.1220703125,-0.1220703125,-0.06103515625,0.4462890625,-0.8001708984375,0.3988037109375,-295.0,153.0,-150.0,101706.0,-3.1670000553131104,0,0
1.1871015999931842,0.372283935546875,-0.452850341796875,0.310333251953125,-0.748321533203125,-0.18310546875,-0.1220703125,0.1220703125,0.4462890625,-0.79931640625,0.3975830078125,-295.0,153.0,-150.0,101706.0,-3.1670000553131104,0,0
1.1871668999956455,0.372283935546875,-0.452850341796875,0.310333251953125,-0.748321533203125,0.18310546875,-0.06103515625,0.06103515625,0.44580078125,-0.80078125,0.39794921875,-295.0,153.0,-150.0,101706.0,-3.1670000553131104,0,0
1.1872243999969214,0.372283935546875,-0.452850341796875,0.310333251953125,-0.748321533203125,0.06103515625,-0.30517578125,-0.06103515625,0.4464111328125,-0.8017578125,0.3978271484375,-295.0,153.0,-150.0,101706.0,-3.1670000553131104,0,0
1.1872790999914287,0.372283935546875,-0.452850341796875,0.310333251953125,-0.748321533203125,0.06103515625,-0.30517578125,-0.06103515625,0.4464111328125,-0.8017578125,0.3978271484375,-295.0,153.0,-150.0,101706.0,-3.1670000553131104,0,0
1.1873363000049721,0.372283935546875,-0.452850341796875,0.310333251953125,-0.748291015625,0.0,0.0,0.0,0.4471435546875,-0.8011474609375,0.395751953125,-295.0,153.0,-150.0,101706.0,-3.1670000553131104,0,0
1.1873947999993106,0.372283935546875,-0.452850341796875,0.310333251953125,-0.748291015625,0.06103515625,-0.18310546875,0.06103515625,0.44580078125,-0.8001708984375,0.3955078125,-295.0,153.0,-150.0,101706.0,-3.1670000553131104,0,0
1.2497059000015724,0.372283935546875,-0.452850341796875,0.310333251953125,-0.748291015625,0.3662109375,-0.18310546875,0.06103515625,0.445068359375,-0.8009033203125,0.3963623046875,-295.0,153.0,-150.0,101706.0,-3.1670000553131104,0,0
1.2497752999915974,0.372283935546875,-0.452850341796875,0.31036376953125,-0.748291015625,-0.1220703125,-0.1220703125,-0.06103515625,0.4451904296875,-0.802001953125,0.3980712890625,-295.0,153.0,-150.0,101706.0,-3.1670000553131104,0,0
1.249837800001842,0.372283935546875,-0.452850341796875,0.31036376953125,-0.748291015625,0.1220703125,0.18310546875,0.06103515625,0.4464111328125,-0.80224609375,0.3975830078125,-295.0,153.0,-150.0,101706.0,-3.1670000553131104,0,0
1.2498956000054022,0.372283935546875,-0.452850341796875,0.31036376953125,-0.748291015625,0.1220703125,0.18310546875,0.06103515625,0.4464111328125,-0.80224609375,0.3975830078125,-295.0,153.0,-150.0,101705.0,-3.1660001277923584,0,0
1.2499540999997407,0.372283935546875,-0.452850341796875,0.310333251953125,-0.748291015625,0.30517578125,0.0,-0.1220703125,0.4462890625,-0.80078125,0.3966064453125,-295.0,153.0,-150.0,101705.0,-3.1660001277923584,0,0
1.2500104999926407,0.372283935546875,-0.452850341796875,0.310333251953125,-0.748291015625,-0.06103515625,-0.244140625,0.0,0.4461669921875,-0.8001708984375,0.396240234375,-295.0,153.0,-150.0,101705.0,-3.1660001277923584,0,0
1.2503532999980962,0.372283935546875,-0.452850341796875,0.310333251953125,-0.748291015625,-0.06103515625,-0.244140625,0.0,0.4461669921875,-0.8001708984375,0.396240234375,-295.0,153.0,-150.0,101705.0,-3.1660001277923584,0,0
1.2504211000050418,0.372314453125,-0.452850341796875,0.31036376953125,-0.748291015625,0.0,0.0,0.1220703125,0.44482421875,-0.8028564453125,0.39697265625,-295.0,153.0,-150.0,101705.0,-3.1660001277923584,0,0
1.2504811999970116,0.372314453125,-0.45281982421875,0.31036376953125,-0.748291015625,-0.244140625,-0.06103515625,-0.244140625,0.445068359375,-0.8011474609375,0.3966064453125,-295.0,153.0,-150.0,101705.0,-3.1660001277923584,0,0
1.2505792000010842,0.372314453125,-0.45281982421875,0.31036376953125,-0.748291015625,0.18310546875,-0.1220703125,-0.1220703125,0.445556640625,-0.7996826171875,0.3985595703125,-295.0,153.0,-152.0,101705.0,-3.1660001277923584,0,0
1.2506485999911092,0.3721923828125,-0.452789306640625,0.3104248046875,-0.74835205078125,-0.06103515625,0.0,0.0,0.4439697265625,-0.8006591796875,0.3956298828125,-295.0,153.0,-152.0,101705.0,-3.1660001277923584,0,0
1.2507092000014381,0.3721923828125,-0.452789306640625,0.3104248046875,-0.74835205078125,-0.06103515625,0.06103515625,-0.18310546875,0.4462890625,-0.8037109375,0.3966064453125,-295.0,153.0,-152.0,101705.0,-3.1660001277923584,0,0
1.2507664000004297,0.3721923828125,-0.452789306640625,0.3104248046875,-0.74835205078125,-0.1220703125,-0.1220703125,-0.06103515625,0.4447021484375,-0.8006591796875,0.3975830078125,-295.0,153.0,-152.0,101705.0,-3.1660001277923584,0,0
1.380142199996044,0.372222900390625,-0.4527587890625,0.310394287109375,-0.748382568359375,-0.18310546875,-0.1220703125,-0.1220703125,0.4462890625,-0.80322265625,0.399658203125,-295.0,153.0,-152.0,101706.0,-3.1670000553131104,0,0
1.3802066999924136,0.372222900390625,-0.4527587890625,0.310394287109375,-0.748382568359375,0.0,-0.1220703125,-0.06103515625,0.4473876953125,-0.8017578125,0.39990234375,-295.0,153.0,-152.0,101706.0,-3.1670000553131104,0,0
1.380265200001304,0.372100830078125,-0.45269775390625,0.310455322265625,-0.748443603515625,0.18310546875,0.06103515625,-0.1220703125,0.4461669921875,-0.8021240234375,0.3985595703125,-295.0,152.0,-151.0,101706.0,-3.1670000553131104,0,0
1.3803232999925967,0.37213134765625,-0.45269775390625,0.310455322265625,-0.748443603515625,0.0,-0.18310546875,0.18310546875,0.446533203125,-0.80078125,0.3984375,-295.0,152.0,-151.0,101706.0,-3.1670000553131104,0,0
1.380381099996157,0.372100830078125,-0.45269775390625,0.310455322265625,-0.748443603515625,0.18310546875,0.0,-0.1220703125,0.447509765625,-0.801513671875,0.399169921875,-295.0,152.0,-151.0,101706.0,-3.1670000553131104,0,0
1.380453399993712,0.37213134765625,-0.45269775390625,0.310455322265625,-0.748443603515625,-0.1220703125,-0.18310546875,-0.06103515625,0.4447021484375,-0.801513671875,0.3990478515625,-295.0,152.0,-151.0,101706.0,-3.1670000553131104,0,0
1.3805111999972723,0.37213134765625,-0.45269775390625,0.310455322265625,-0.748443603515625,-0.06103515625,-0.18310546875,0.06103515625,0.4459228515625,-0.8018798828125,0.398193359375,-295.0,152.0,-151.0,101706.0,-3.1670000553131104,0,0
1.3805654000025243,0.37213134765625,-0.45269775390625,0.310455322265625,-0.748443603515625,-0.06103515625,-0.18310546875,0.06103515625,0.4459228515625,-0.8018798828125,0.398193359375,-295.0,152.0,-151.0,101706.0,-3.1670000553131104,0,0
1.38061999999627,0.37213134765625,-0.45269775390625,0.3104248046875,-0.748443603515625,0.18310546875,0.0,-0.06103515625,0.4466552734375,-0.8001708984375,0.3983154296875,-295.0,152.0,-151.0,101706.0,-3.1670000553131104,0,0
1.3807830000005197,0.37213134765625,-0.452667236328125,0.3104248046875,-0.748443603515625,0.0,-0.1220703125,0.1220703125,0.44482421875,-0.7996826171875,0.3980712890625,-295.0,152.0,-151.0,101706.0,-3.1670000553131104,0,0
1.3808409000048414,0.37213134765625,-0.452667236328125,0.3104248046875,-0.748443603515625,0.06103515625,-0.30517578125,-0.1220703125,0.4459228515625,-0.8009033203125,0.3983154296875,-295.0,152.0,-151.0,101706.0,-3.1670000553131104,0,0
1.4412029999948572,0.37213134765625,-0.452667236328125,0.3104248046875,-0.748443603515625,-0.06103515625,0.06103515625,-0.18310546875,0.4482421875,-0.800048828125,0.398681640625,-295.0,152.0,-151.0,101706.0,-3.1670000553131104,0,0
1.4412730000040028,0.37213134765625,-0.452667236328125,0.3104248046875,-0.748443603515625,0.1220703125,0.0,0.0,0.4444580078125,-0.8016357421875,0.3980712890625,-295.0,152.0,-151.0,101706.0,-3.1670000553131104,0,0
1.441332499991404,0.37213134765625,-0.452667236328125,0.3104248046875,-0.748443603515625,0.244140625,-0.18310546875,-0.06103515625,0.446533203125,-0.80126953125,0.3974609375,-295.0,152.0,-151.0,101706.0,-3.1670000553131104,0,0
1.441389400002663,0.37213134765625,-0.452667236328125,0.3104248046875,-0.748443603515625,0.06103515625,0.0,-0.244140625,0.44677734375,-0.7999267578125,0.398193359375,-295.0,152.0,-151.0,101706.0,-3.1670000553131104,0,0
1.441457699998864,0.37213134765625,-0.452667236328125,0.3104248046875,-0.748443603515625,0.244140625,0.06103515625,-0.1220703125,0.444091796875,-0.7989501953125,0.3983154296875,-295.0,152.0,-151.0,101706.0,-3.1670000553131104,0,0
1.4415157000039471,0.37213134765625,-0.452667236328125,0.3104248046875,-0.748443603515625,0.244140625,0.06103515625,-0.1220703125,0.444091796875,-0.7989501953125,0.3983154296875,-295.0,152.0,-151.0,101706.0,-3.1670000553131104,0,0
1.4416465999966022,0.37213134765625,-0.452667236328125,0.3104248046875,-0.74847412109375,-0.18310546875,-0.06103515625,0.06103515625,0.4456787109375,-0.80029296875,0.398681640625,-295.0,152.0,-151.0,101705.0,-3.1650002002716064,0,0
1.4417492999928072,0.37213134765625,-0.452667236328125,0.3104248046875,-0.74847412109375,0.1220703125,-0.18310546875,-0.06103515625,0.4473876953125,-0.7994384765625,0.3961181640625,-295.0,152.0,-151.0,101705.0,-3.1650002002716064,0,0
1.441815800004406,0.37213134765625,-0.452667236328125,0.3104248046875,-0.74847412109375,0.0,-0.244140625,0.0,0.445068359375,-0.800048828125,0.398193359375,-295.0,152.0,-151.0,101705.0,-3.1650002002716064,0,0
1.44187399999646,0.37213134765625,-0.452667236328125,0.3104248046875,-0.74847412109375,0.0,-0.1220703125,-0.06103515625,0.445556640625,-0.80126953125,0.3975830078125,-295.0,152.0,-151.0,101705.0,-3.1650002002716064,0,0
1.4419330999953672,0.37213134765625,-0.452667236328125,0.310394287109375,-0.74847412109375,-0.18310546875,-0.06103515625,-0.06103515625,0.44677734375,-0.800048828125,0.3984375,-295.0,152.0,-151.0,101705.0,-3.1650002002716064,0,0
1.4419902999943588,0.37213134765625,-0.452667236328125,0.310394287109375,-0.74847412109375,0.3662109375,0.0,-0.06103515625,0.446533203125,-0.8011474609375,0.3978271484375,-295.0,151.0,-150.0,101705.0,-3.1650002002716064,0,0
1.4420474999933504,0.37213134765625,-0.452667236328125,0.310394287109375,-0.74847412109375,-0.06103515625,-0.18310546875,-0.30517578125,0.4476318359375,-0.8017578125,0.3992919921875,-295.0,151.0,-150.0,101705.0,-3.1650002002716064,0,0
1.5064109999948414,0.37213134765625,-0.45263671875,0.310394287109375,-0.74847412109375,0.3662109375,-0.06103515625,-0.3662109375,0.4481201171875,-0.80078125,0.3990478515625,-295.0,151.0,-150.0,101705.0,-3.1650002002716064,0,0
1.5064787000010256,0.37213134765625,-0.45263671875,0.310394287109375,-0.74847412109375,0.1220703125,-0.06103515625,-0.06103515625,0.4444580078125,-0.800048828125,0.3963623046875,-295.0,151.0,-150.0,101705.0,-3.1650002002716064,0,0
1.5065408999944339,0.37213134765625,-0.45263671875,0.310394287109375,-0.74847412109375,0.1220703125,-0.1220703125,0.06103515625,0.4476318359375,-0.7996826171875,0.3983154296875,-295.0,151.0,-150.0,101705.0,-3.1650002002716064,0,0
1.506597999992664,0.37213134765625,-0.45263671875,0.310394287109375,-0.748504638671875,0.06103515625,-0.30517578125,-0.42724609375,0.446044921875,-0.8001708984375,0.4002685546875,-295.0,151.0,-150.0,101705.0,-3.1650002002716064,0,0
1.506657499994617,0.37213134765625,-0.45263671875,0.31036376953125,-0.748504638671875,0.1220703125,-0.1220703125,-0.06103515625,0.4461669921875,-0.80126953125,0.3990478515625,-295.0,151.0,-150.0,101705.0,-3.1650002002716064,0,0
1.5067484000028344,0.37213134765625,-0.45263671875,0.31036376953125,-0.748504638671875,-0.244140625,-0.244140625,-0.30517578125,0.4468994140625,-0.799560546875,0.39697265625,-295.0,151.0,-150.0,101705.0,-3.1650002002716064,0,0
