Time stamp(sec),adc1,adc2,roll_angular_rate,pitch_angular_rate,yaw_angular_rate,acc_X,acc_Y,acc_Z,mag_X,mag_Y,mag_Z,pressure,altitude
0.031096799997612834,0.369232177734375,-0.45068359375,0.312347412109375,-0.75030517578125,0.244140625,0.1220703125,0.0,0.446533203125,-0.79931640625,0.4000244140625,-294.0,150.0,-152.0,101701.0,-3.13100004196167,0,0
0.031176100004813634,0.369232177734375,-0.45068359375,0.312347412109375,-0.75030517578125,-0.18310546875,0.06103515625,0.06103515625,0.447509765625,-0.8011474609375,0.4000244140625,-294.0,150.0,-152.0,101701.0,-3.13100004196167,0,0
0.03123379999306053,0.369232177734375,-0.45068359375,0.312347412109375,-0.75030517578125,0.06103515625,0.0,-0.18310546875,0.4461669921875,-0.8028564453125,0.3988037109375,-294.0,150.0,-152.0,101701.0,-3.13100004196167,0,0
0.03128850000211969,0.369232177734375,-0.45068359375,0.312347412109375,-0.75030517578125,0.1220703125,-0.06103515625,0.0,0.445556640625,-0.80224609375,0.400146484375,-294.0,150.0,-152.0,101701.0,-3.13100004196167,0,0
0.031358199994429015,0.369232177734375,-0.45068359375,0.312347412109375,-0.75030517578125,0.0,-0.06103515625,-0.1220703125,0.4466552734375,-0.802001953125,0.4002685546875,-294.0,150.0,-152.0,101701.0,-3.130000114440918,0,0
0.031415999997989275,0.369232177734375,-0.45068359375,0.312347412109375,-0.75030517578125,-0.06103515625,-0.3662109375,-0.1220703125,0.4447021484375,-0.8023681640625,0.3985595703125,-294.0,150.0,-152.0,101701.0,-3.130000114440918,0,0
0.03147499999613501,0.369232177734375,-0.45068359375,0.312347412109375,-0.75030517578125,-0.18310546875,-0.18310546875,-0.30517578125,0.445556640625,-0.7994384765625,0.3988037109375,-294.0,150.0,-152.0,101701.0,-3.130000114440918,0,0
0.031577300003846176,0.369232177734375,-0.450653076171875,0.312347412109375,-0.75030517578125,0.0,-0.1220703125,0.0,0.4468994140625,-0.801025390625,0.3997802734375,-294.0,150.0,-152.0,101701.0,-3.130000114440918,0,0
0.03165249999437947,0.369232177734375,-0.450653076171875,0.312347412109375,-0.75030517578125,0.1220703125,-0.1220703125,-0.42724609375,0.444091796875,-0.7999267578125,0.4005126953125,-294.0,150.0,-152.0,101701.0,-3.130000114440918,0,0
0.031708700000308454,0.369232177734375,-0.450653076171875,0.312347412109375,-0.75030517578125,0.1220703125,-0.1220703125,-0.42724609375,0.444091796875,-0.7999267578125,0.4005126953125,-294.0,150.0,-152.0,101701.0,-3.130000114440918,0,0
0.03176270000403747,0.369232177734375,-0.450653076171875,0.312347412109375,-0.75030517578125,0.0,-0.18310546875,-0.1220703125,0.4466552734375,-0.8021240234375,0.4007568359375,-294.0,150.0,-152.0,101701.0,-3.130000114440918,0,0
0.09861650000675581,0.369232177734375,-0.450653076171875,0.31231689453125,-0.75030517578125,0.06103515625,-0.1220703125,0.0,0.4466552734375,-0.8026123046875,0.3984375,-294.0,150.0,-152.0,101701.0,-3.130000114440918,0,0
0.09868060000007972,0.369232177734375,-0.450653076171875,0.312347412109375,-0.75030517578125,-0.06103515625,-0.1220703125,-0.18310546875,0.4437255859375,-0.79931640625,0.399169921875,-294.0,150.0,-152.0,101701.0,-3.130000114440918,0,0
0.09873690000677016,0.369232177734375,-0.450653076171875,0.31231689453125,-0.75030517578125,0.1220703125,0.1220703125,0.1220703125,0.445068359375,-0.8009033203125,0.397216796875,-294.0,150.0,-152.0,101701.0,-3.130000114440918,0,0
0.09879299999738578,0.369232177734375,-0.450653076171875,0.31231689453125,-0.75030517578125,0.0,0.18310546875,-0.244140625,0.4454345703125,-0.7991943359375,0.3992919921875,-293.0,151.0,-151.0,101701.0,-3.130000114440918,0,0
0.09884930000407621,0.369232177734375,-0.450653076171875,0.31231689453125,-0.75030517578125,-0.06103515625,0.06103515625,-0.244140625,0.4447021484375,-0.802001953125,0.39794921875,-293.0,151.0,-151.0,101701.0,-3.130000114440918,0,0
0.09890850000374485,0.369110107421875,-0.45062255859375,0.3123779296875,-0.7503662109375,0.18310546875,0.1220703125,-0.06103515625,0.4476318359375,-0.8001708984375,0.400390625,-293.0,151.0,-151.0,101701.0,-3.130000114440918,0,0
0.10249350000231061,0.369110107421875,-0.45062255859375,0.3123779296875,-0.7503662109375,0.244140625,-0.06103515625,0.244140625,0.446533203125,-0.802490234375,0.4002685546875,-293.0,151.0,-151.0,101701.0,-3.130000114440918,0,0
0.10254750000603963,0.369140625,-0.450592041015625,0.3123779296875,-0.7503662109375,0.0,0.1220703125,0.18310546875,0.445556640625,-0.8031005859375,0.399658203125,-293.0,151.0,-151.0,101701.0,-3.130000114440918,0,0
0.10260050000215415,0.369140625,-0.450592041015625,0.3123779296875,-0.7503662109375,0.0,0.1220703125,0.18310546875,0.445556640625,-0.8031005859375,0.399658203125,-293.0,151.0,-151.0,101701.0,-3.130000114440918,0,0
0.10265369999979157,0.369140625,-0.450592041015625,0.3123779296875,-0.7503662109375,0.06103515625,0.06103515625,0.06103515625,0.4454345703125,-0.8023681640625,0.4000244140625,-293.0,151.0,-151.0,101701.0,-3.130000114440918,0,0
0.10270459999446757,0.369140625,-0.450592041015625,0.3123779296875,-0.7503662109375,0.06103515625,0.18310546875,0.0,0.445556640625,-0.802734375,0.4002685546875,-293.0,151.0,-151.0,101701.0,-3.130000114440918,0,0
0.10275639999599662,0.369140625,-0.450592041015625,0.3123779296875,-0.7503662109375,-0.244140625,0.06103515625,-0.18310546875,0.4456787109375,-0.8018798828125,0.3988037109375,-293.0,151.0,-151.0,101701.0,-3.130000114440918,0,0
0.10281110000505578,0.369140625,-0.450592041015625,0.3123779296875,-0.7503662109375,0.06103515625,-0.1220703125,-0.244140625,0.4443359375,-0.8006591796875,0.3992919921875,-293.0,151.0,-151.0,101701.0,-3.130000114440918,0,0
0.1621309000038309,0.369140625,-0.450592041015625,0.3123779296875,-0.7503662109375,0.67138671875,-0.42724609375,-0.244140625,0.446044921875,-0.802734375,0.399169921875,-293.0,151.0,-151.0,101701.0,-3.130000114440918,0,0
0.16219030000502244,0.369140625,-0.450592041015625,0.3123779296875,-0.7503662109375,-0.1220703125,-0.244140625,0.0,0.4471435546875,-0.799072265625,0.3990478515625,-293.0,151.0,-151.0,101701.0,-3.130000114440918,0,0
0.16224210000655148,0.369140625,-0.450592041015625,0.3123779296875,-0.7503662109375,0.06103515625,-0.18310546875,-0.06103515625,0.4456787109375,-0.80126953125,0.399169921875,-293.0,151.0,-151.0,101701.0,-3.130000114440918,0,0
0.1622944999980973,0.369140625,-0.450592041015625,0.3123779296875,-0.7503662109375,0.06103515625,-0.18310546875,-0.06103515625,0.4456787109375,-0.80126953125,0.399169921875,-293.0,151.0,-151.0,101701.0,-3.130000114440918,0,0
0.16253000000142492,0.369140625,-0.450592041015625,0.3123779296875,-0.7503662109375,0.1220703125,0.1220703125,0.0,0.446533203125,-0.7989501953125,0.3992919921875,-293.0,151.0,-151.0,101701.0,-3.130000114440918,0,0
0.16266020000330172,0.369140625,-0.450592041015625,0.3123779296875,-0.750396728515625,0.0,-0.1220703125,-0.06103515625,0.44677734375,-0.7996826171875,0.3985595703125,-293.0,151.0,-151.0,101701.0,-3.130000114440918,0,0
0.16271809999307152,0.369140625,-0.450592041015625,0.3123779296875,-0.750396728515625,0.1220703125,0.0,-0.1220703125,0.4464111328125,-0.8016357421875,0.39794921875,-293.0,151.0,-151.0,101701.0,-3.130000114440918,0,0
0.16277199999603909,0.369140625,-0.450592041015625,0.3123779296875,-0.7503662109375,0.0,0.0,0.06103515625,0.4449462890625,-0.8013916015625,0.397216796875,-293.0,151.0,-151.0,101701.0,-3.130000114440918,0,0
0.1628255999967223,0.369140625,-0.450592041015625,0.3123779296875,-0.7503662109375,0.0,0.0,0.06103515625,0.4449462890625,-0.8013916015625,0.397216796875,-293.0,151.0,-151.0,101701.0,-3.130000114440918,0,0
0.1628781000035815,0.369140625,-0.450592041015625,0.3123779296875,-0.7503662109375,0.18310546875,0.0,0.06103515625,0.4464111328125,-0.80078125,0.3988037109375,-293.0,151.0,-151.0,101701.0,-3.130000114440918,0,0
0.162930000005872,0.369140625,-0.450592041015625,0.3123779296875,-0.7503662109375,0.18310546875,0.0,0.06103515625,0.4464111328125,-0.80078125,0.3988037109375,-292.0,152.0,-151.0,101701.0,-3.130000114440918,0,0
0.16298429999733344,0.3690185546875,-0.4505615234375,0.31243896484375,-0.75042724609375,-0.06103515625,-0.06103515625,0.1220703125,0.4447021484375,-0.8023681640625,0.39794921875,-292.0,152.0,-151.0,101701.0,-3.130000114440918,0,0
0.22371780000685249,0.369049072265625,-0.4505615234375,0.31243896484375,-0.75042724609375,0.06103515625,-0.30517578125,-0.18310546875,0.445556640625,-0.8031005859375,0.3988037109375,-292.0,152.0,-151.0,101701.0,-3.130000114440918,0,0
0.2237779999995837,0.3690185546875,-0.4505615234375,0.31243896484375,-0.75042724609375,0.06103515625,-0.06103515625,-0.1220703125,0.4464111328125,-0.8026123046875,0.3985595703125,-292.0,152.0,-151.0,101701.0,-3.130000114440918,0,0
0.22383139999874402,0.369049072265625,-0.4505615234375,0.31243896484375,-0.75042724609375,-0.30517578125,0.06103515625,-0.06103515625,0.44580078125,-0.8021240234375,0.399169921875,-292.0,152.0,-151.0,101701.0,-3.130000114440918,0,0
0.2238835000025574,0.369049072265625,-0.4505615234375,0.31243896484375,-0.75042724609375,-0.18310546875,0.0,-0.30517578125,0.4453125,-0.801513671875,0.3994140625,-292.0,152.0,-151.0,101701.0,-3.130000114440918,0,0
0.22393720000400208,0.3690185546875,-0.4505615234375,0.31243896484375,-0.75042724609375,0.06103515625,-0.18310546875,0.0,0.4466552734375,-0.8011474609375,0.3975830078125,-292.0,152.0,-151.0,101701.0,-3.130000114440918,0,0
0.22404960000130814,0.3690185546875,-0.4505615234375,0.31243896484375,-0.75042724609375,0.48828125,0.0,-0.244140625,0.4453125,-0.800537109375,0.3973388671875,-292.0,152.0,-151.0,101701.0,-3.130000114440918,0,0
0.22410510000190698,0.3690185546875,-0.4505615234375,0.31243896484375,-0.75042724609375,0.48828125,0.0,-0.244140625,0.4453125,-0.800537109375,0.3973388671875,-292.0,152.0,-151.0,101701.0,-3.130000114440918,0,0
0.22415759999421425,0.3690185546875,-0.4505615234375,0.31243896484375,-0.75042724609375,0.18310546875,0.06103515625,-0.06103515625,0.446044921875,-0.799560546875,0.397216796875,-292.0,152.0,-151.0,101701.0,-3.130000114440918,0,0
0.22421299999405164,0.3690185546875,-0.4505615234375,0.31243896484375,-0.75042724609375,0.18310546875,0.06103515625,-0.06103515625,0.446044921875,-0.799560546875,0.397216796875,-292.0,152.0,-151.0,101701.0,-3.130000114440918,0,0
0.22429499999270774,0.369049072265625,-0.4505615234375,0.31243896484375,-0.75042724609375,-0.06103515625,0.0,0.06103515625,0.445068359375,-0.7998046875,0.39892578125,-292.0,152.0,-151.0,101701.0,-3.130000114440918,0,0
0.22434820000489708,0.369049072265625,-0.4505615234375,0.31243896484375,-0.75042724609375,-0.1220703125,-0.18310546875,0.06103515625,0.4464111328125,-0.8055419921875,0.3978271484375,-292.0,152.0,-151.0,101701.0,-3.130000114440918,0,0
0.2904578000016045,0.369049072265625,-0.4505615234375,0.312469482421875,-0.75042724609375,0.42724609375,0.06103515625,0.3662109375,0.4468994140625,-0.8052978515625,0.4017333984375,-292.0,152.0,-151.0,101701.0,-3.130000114440918,0,0
0.29052260000025854,0.369049072265625,-0.4505615234375,0.312469482421875,-0.75042724609375,-0.18310546875,0.06103515625,0.244140625,0.446533203125,-0.8043212890625,0.3990478515625,-292.0,152.0,-151.0,101701.0,-3.130000114440918,0,0
0.2907255000027362,0.369049072265625,-0.450531005859375,0.312469482421875,-0.750396728515625,0.06103515625,-0.18310546875,-0.06103515625,0.4422607421875,-0.80419921875,0.396728515625,-292.0,152.0,-151.0,101701.0,-3.130000114440918,0,0
0.2907861999992747,0.369049072265625,-0.450531005859375,0.312469482421875,-0.750396728515625,-0.06103515625,-0.18310546875,-0.30517578125,0.4393310546875,-0.8001708984375,0.39697265625,-292.0,152.0,-151.0,101701.0,-3.130000114440918,0,0
0.2908432999975048,0.369049072265625,-0.450531005859375,0.312469482421875,-0.750396728515625,-0.244140625,-0.3662109375,-0.3662109375,0.44482421875,-0.7982177734375,0.3975830078125,-292.0,152.0,-151.0,101701.0,-3.130000114440918,0,0
0.2932381999999052,0.369049072265625,-0.450531005859375,0.312469482421875,-0.750396728515625,0.244140625,-0.244140625,-0.67138671875,0.4437255859375,-0.797119140625,0.396240234375,-292.0,153.0,-151.0,101701.0,-3.130000114440918,0,0
0.29354119999334216,0.369049072265625,-0.450531005859375,0.312469482421875,-0.750396728515625,0.1220703125,-0.1220703125,-0.54931640625,0.4437255859375,-0.7957763671875,0.39501953125,-292.0,153.0,-151.0,101701.0,-3.130000114440918,0,0
0.29360030000680126,0.369049072265625,-0.450531005859375,0.312469482421875,-0.750396728515625,0.1220703125,-0.1220703125,-0.54931640625,0.4437255859375,-0.7957763671875,0.39501953125,-292.0,153.0,-151.0,101701.0,-3.130000114440918,0,0
0.2936541999952169,0.368927001953125,-0.45050048828125,0.312530517578125,-0.750457763671875,0.0,-0.06103515625,-0.06103515625,0.445068359375,-0.7989501953125,0.39794921875,-292.0,153.0,-151.0,101701.0,-3.130000114440918,0,0
0.2963757999968948,0.368927001953125,-0.450531005859375,0.3125,-0.750457763671875,-0.244140625,-0.1220703125,0.244140625,0.4471435546875,-0.800048828125,0.3978271484375,-292.0,153.0,-151.0,101701.0,-3.130000114440918,0,0
0.29645870000240393,0.368927001953125,-0.450531005859375,0.3125,-0.750457763671875,0.18310546875,0.244140625,0.3662109375,0.447265625,-0.801025390625,0.39892578125,-292.0,153.0,-151.0,101701.0,-3.130000114440918,0,0
0.29651850000664126,0.368927001953125,-0.45050048828125,0.3125,-0.750457763671875,-0.06103515625,0.18310546875,0.30517578125,0.4454345703125,-0.80322265625,0.40087890625,-292.0,153.0,-151.0,101701.0,-3.130000114440918,0,0
0.2965734000026714,0.368927001953125,-0.45050048828125,0.3125,-0.75048828125,0.0,0.1220703125,0.6103515625,0.4443359375,-0.801513671875,0.4012451171875,-292.0,153.0,-151.0,101701.0,-3.130000114440918,0,0
0.3558571000030497,0.368927001953125,-0.45050048828125,0.3125,-0.75048828125,0.06103515625,0.0,0.18310546875,0.44580078125,-0.806396484375,0.3990478515625,-292.0,153.0,-151.0,101701.0,-3.130000114440918,0,0
0.3559199000010267,0.368927001953125,-0.45050048828125,0.3125,-0.75048828125,0.06103515625,0.0,0.18310546875,0.44580078125,-0.806396484375,0.3990478515625,-292.0,153.0,-151.0,101701.0,-3.130000114440918,0,0
0.35597540000162553,0.368927001953125,-0.45050048828125,0.312530517578125,-0.750457763671875,0.18310546875,0.0,-0.30517578125,0.4454345703125,-0.8033447265625,0.3983154296875,-292.0,153.0,-151.0,101701.0,-3.130000114440918,0,0
0.3560308000014629,0.368927001953125,-0.45050048828125,0.312530517578125,-0.750457763671875,0.1220703125,-0.244140625,-0.79345703125,0.4432373046875,-0.8021240234375,0.3968505859375,-292.0,153.0,-151.0,101701.0,-3.130000114440918,0,0
0.3560871999943629,0.368927001953125,-0.45050048828125,0.312530517578125,-0.750457763671875,0.244140625,-0.48828125,-0.732421875,0.4443359375,-0.800048828125,0.396240234375,-292.0,153.0,-151.0,101701.0,-3.130000114440918,0,0
0.3561596999934409,0.368927001953125,-0.45050048828125,0.312530517578125,-0.750457763671875,0.244140625,-0.18310546875,-0.91552734375,0.4447021484375,-0.8009033203125,0.3955078125,-292.0,153.0,-151.0,101701.0,-3.130000114440918,0,0
0.3562136999971699,0.368927001953125,-0.45050048828125,0.312530517578125,-0.750457763671875,0.06103515625,-0.06103515625,-0.48828125,0.4427490234375,-0.796630859375,0.3968505859375,-292.0,153.0,-151.0,101701.0,-3.130000114440918,0,0
0.35626899999624584,0.368927001953125,-0.450531005859375,0.312530517578125,-0.750457763671875,0.244140625,0.06103515625,-0.1220703125,0.4537353515625,-0.8023681640625,0.399658203125,-292.0,153.0,-151.0,101701.0,-3.130000114440918,0,0
0.3563212000008207,0.368927001953125,-0.450531005859375,0.3125,-0.750457763671875,0.1220703125,0.1220703125,0.1220703125,0.4468994140625,-0.7965087890625,0.39794921875,-292.0,153.0,-151.0,101701.0,-3.130000114440918,0,0
0.3563748000015039,0.368927001953125,-0.450531005859375,0.3125,-0.750457763671875,-0.18310546875,-0.06103515625,0.1220703125,0.444091796875,-0.79638671875,0.3983154296875,-292.0,153.0,-151.0,101701.0,-3.130000114440918,0,0
0.3564279999991413,0.368896484375,-0.450531005859375,0.3125,-0.750457763671875,-0.06103515625,-0.06103515625,0.3662109375,0.44775390625,-0.798828125,0.3968505859375,-292.0,153.0,-151.0,101701.0,-3.130000114440918,0,0
0.42003520000434946,0.368804931640625,-0.45050048828125,0.31256103515625,-0.750518798828125,0.244140625,0.244140625,0.79345703125,0.4493408203125,-0.8056640625,0.4012451171875,-291.0,153.0,-152.0,101701.0,-3.130000114440918,0,0
0.4200958000001265,0.368804931640625,-0.45050048828125,0.31256103515625,-0.750518798828125,-0.06103515625,-0.1220703125,0.0,0.44482421875,-0.800537109375,0.3985595703125,-291.0,153.0,-152.0,101701.0,-3.130000114440918,0,0
0.4201500000053784,0.368804931640625,-0.45050048828125,0.31256103515625,-0.750518798828125,0.06103515625,0.0,-0.30517578125,0.442626953125,-0.80224609375,0.4010009765625,-291.0,153.0,-152.0,101701.0,-3.130000114440918,0,0
0.42020269999920856,0.368804931640625,-0.45050048828125,0.31256103515625,-0.750518798828125,-0.06103515625,-0.244140625,-0.244140625,0.444091796875,-0.80322265625,0.401611328125,-291.0,153.0,-152.0,101701.0,-3.130000114440918,0,0
0.42025520000606775,0.368804931640625,-0.45050048828125,0.31256103515625,-0.750518798828125,0.06103515625,-0.30517578125,-0.18310546875,0.4447021484375,-0.80419921875,0.3955078125,-291.0,153.0,-152.0,101701.0,-3.130000114440918,0,0
0.42042350000701845,0.368804931640625,-0.45050048828125,0.312591552734375,-0.750518798828125,0.3662109375,-0.18310546875,-0.1220703125,0.4442138671875,-0.7994384765625,0.39794921875,-291.0,153.0,-152.0,101701.0,-3.130000114440918,0,0
0.42047899999306537,0.368804931640625,-0.45050048828125,0.31256103515625,-0.750518798828125,0.06103515625,-0.244140625,-0.42724609375,0.4461669921875,-0.8009033203125,0.40087890625,-291.0,153.0,-152.0,101701.0,-3.130000114440918,0,0
0.4205327999952715,0.368804931640625,-0.45050048828125,0.31256103515625,-0.750518798828125,0.06103515625,-0.244140625,-0.42724609375,0.4461669921875,-0.8009033203125,0.40087890625,-291.0,153.0,-152.0,101701.0,-3.130000114440918,0,0
0.42058649999671616,0.368804931640625,-0.45050048828125,0.31256103515625,-0.750518798828125,-0.18310546875,-0.06103515625,-0.244140625,0.4483642578125,-0.80126953125,0.4010009765625,-291.0,153.0,-152.0,101701.0,-3.130000114440918,0,0
0.42063839999900665,0.368804931640625,-0.45050048828125,0.31256103515625,-0.750518798828125,-0.06103515625,-0.06103515625,0.06103515625,0.446044921875,-0.8018798828125,0.3995361328125,-291.0,153.0,-152.0,101701.0,-3.130000114440918,0,0
0.42069159999664407,0.368804931640625,-0.45050048828125,0.31256103515625,-0.750518798828125,0.0,-0.1220703125,0.3662109375,0.4459228515625,-0.799560546875,0.398681640625,-291.0,153.0,-152.0,101701.0,-3.130000114440918,0,0
0.480170700000599,0.368804931640625,-0.450469970703125,0.31256103515625,-0.750518798828125,-0.1220703125,-0.06103515625,0.1220703125,0.44482421875,-0.8011474609375,0.4002685546875,-291.0,153.0,-152.0,101701.0,-3.130000114440918,0,0
0.48023770000145305,0.368804931640625,-0.450469970703125,0.31256103515625,-0.750518798828125,-0.06103515625,-0.06103515625,0.1220703125,0.44384765625,-0.8026123046875,0.3974609375,-291.0,153.0,-152.0,101701.0,-3.130000114440918,0,0
0.4802973000041675,0.368804931640625,-0.45050048828125,0.31256103515625,-0.750518798828125,-0.06103515625,0.0,-0.06103515625,0.4468994140625,-0.8043212890625,0.399658203125,-291.0,153.0,-152.0,101701.0,-3.130000114440918,0,0
0.4803561000007903,0.368804931640625,-0.45050048828125,0.31256103515625,-0.750518798828125,0.1220703125,-0.06103515625,0.1220703125,0.4481201171875,-0.803955078125,0.399169921875,-291.0,153.0,-152.0,101701.0,-3.130000114440918,0,0
0.4804135000013048,0.368804931640625,-0.45050048828125,0.31256103515625,-0.750518798828125,0.06103515625,-0.1220703125,-0.18310546875,0.4443359375,-0.8028564453125,0.398193359375,-291.0,153.0,-152.0,101701.0,-3.130000114440918,0,0
0.4804697999934433,0.368804931640625,-0.45050048828125,0.31256103515625,-0.750518798828125,-0.30517578125,-0.30517578125,-0.18310546875,0.4453125,-0.8017578125,0.3978271484375,-291.0,153.0,-152.0,101701.0,-3.130000114440918,0,0
0.4805447999970056,0.368804931640625,-0.45050048828125,0.31256103515625,-0.750518798828125,-0.30517578125,-0.30517578125,-0.18310546875,0.4453125,-0.8017578125,0.3978271484375,-291.0,153.0,-152.0,101701.0,-3.130000114440918,0,0
0.4806029000028502,0.368804931640625,-0.45050048828125,0.312591552734375,-0.750518798828125,0.0,-0.18310546875,-0.3662109375,0.44677734375,-0.8023681640625,0.3975830078125,-291.0,152.0,-151.0,101701.0,-3.130000114440918,0,0
0.48085120000177994,0.368804931640625,-0.45050048828125,0.312591552734375,-0.750518798828125,0.30517578125,-0.30517578125,-0.42724609375,0.44677734375,-0.800537109375,0.3973388671875,-291.0,152.0,-151.0,101701.0,-3.130000114440918,0,0
0.48090989999764133,0.36859130859375,-0.450408935546875,0.31268310546875,-0.7506103515625,0.244140625,-0.244140625,-0.48828125,0.445556640625,-0.7999267578125,0.3988037109375,-291.0,152.0,-151.0,101701.0,-3.130000114440918,0,0
0.48096640000585467,0.36859130859375,-0.450408935546875,0.312713623046875,-0.7506103515625,0.06103515625,-0.244140625,-0.54931640625,0.44384765625,-0.79931640625,0.3975830078125,-291.0,152.0,-151.0,101701.0,-3.130000114440918,0,0
0.4810219000064535,0.36859130859375,-0.450408935546875,0.31268310546875,-0.7506103515625,-0.1220703125,0.06103515625,0.06103515625,0.44873046875,-0.80029296875,0.3966064453125,-291.0,152.0,-151.0,101701.0,-3.130000114440918,0,0
0.4810767000017222,0.36859130859375,-0.450408935546875,0.31268310546875,-0.7506103515625,0.06103515625,-0.06103515625,0.18310546875,0.4444580078125,-0.7994384765625,0.396484375,-291.0,152.0,-151.0,101701.0,-3.130000114440918,0,0
0.5429588999977568,0.36859130859375,-0.450408935546875,0.31268310546875,-0.7506103515625,-0.06103515625,-0.1220703125,0.244140625,0.446533203125,-0.800048828125,0.39990234375,-291.0,152.0,-151.0,101701.0,-3.130000114440918,0,0
0.5430313999968348,0.36859130859375,-0.450408935546875,0.31268310546875,-0.7506103515625,-0.244140625,-0.06103515625,0.30517578125,0.44482421875,-0.8011474609375,0.3990478515625,-291.0,152.0,-151.0,101701.0,-3.130000114440918,0,0
0.5430950000009034,0.36859130859375,-0.450408935546875,0.31268310546875,-0.7506103515625,0.1220703125,-0.06103515625,0.0,0.4453125,-0.80126953125,0.398681640625,-291.0,152.0,-151.0,101701.0,-3.130000114440918,0,0
0.5431992999947397,0.36859130859375,-0.450408935546875,0.31268310546875,-0.7506103515625,0.06103515625,0.1220703125,-0.06103515625,0.4454345703125,-0.8018798828125,0.3980712890625,-291.0,152.0,-151.0,101701.0,-3.130000114440918,0,0
0.543262399995001,0.36859130859375,-0.450408935546875,0.31268310546875,-0.7506103515625,0.1220703125,-0.3662109375,-0.1220703125,0.4443359375,-0.80126953125,0.4002685546875,-291.0,152.0,-151.0,101701.0,-3.130000114440918,0,0
0.5433411999983946,0.368621826171875,-0.450408935546875,0.31268310546875,-0.7506103515625,-0.06103515625,0.1220703125,-0.18310546875,0.4443359375,-0.8023681640625,0.3980712890625,-291.0,152.0,-151.0,101701.0,-3.130000114440918,0,0
0.5434012000041548,0.368621826171875,-0.450408935546875,0.312713623046875,-0.7506103515625,0.0,-0.18310546875,-0.42724609375,0.4432373046875,-0.8026123046875,0.3988037109375,-291.0,152.0,-151.0,101701.0,-3.130000114440918,0,0
0.5434631999960402,0.368621826171875,-0.450408935546875,0.312713623046875,-0.7506103515625,0.1220703125,-0.18310546875,-0.30517578125,0.4454345703125,-0.8013916015625,0.3984375,-291.0,152.0,-151.0,101701.0,-3.130000114440918,0,0
0.5435249000001932,0.36859130859375,-0.450408935546875,0.31268310546875,-0.7506103515625,0.18310546875,-0.1220703125,-0.244140625,0.4468994140625,-0.7994384765625,0.399169921875,-291.0,152.0,-151.0,101701.0,-3.130000114440918,0,0
0.5436393999989377,0.368621826171875,-0.450408935546875,0.31268310546875,-0.7506103515625,0.18310546875,0.0,0.0,0.4461669921875,-0.8017578125,0.400146484375,-291.0,152.0,-151.0,101701.0,-3.130000114440918,0,0
0.5437117999972543,0.368621826171875,-0.450408935546875,0.31268310546875,-0.7506103515625,0.18310546875,0.0,0.0,0.4461669921875,-0.8017578125,0.400146484375,-291.0,152.0,-151.0,101701.0,-3.130000114440918,0,0
0.6067084999958752,0.36859130859375,-0.450408935546875,0.31268310546875,-0.7506103515625,0.0,0.0,0.0,0.4466552734375,-0.801025390625,0.3975830078125,-291.0,152.0,-151.0,101701.0,-3.133000135421753,0,0
0.6067788999935146,0.368408203125,-0.4503173828125,0.31280517578125,-0.750732421875,0.1220703125,0.06103515625,0.3662109375,0.4456787109375,-0.8023681640625,0.3975830078125,-291.0,152.0,-151.0,101701.0,-3.133000135421753,0,0
0.6068433000036748,0.368408203125,-0.4503173828125,0.312835693359375,-0.750701904296875,0.244140625,-0.1220703125,0.18310546875,0.4461669921875,-0.802734375,0.3955078125,-291.0,152.0,-151.0,101701.0,-3.133000135421753,0,0
0.6069063000031747,0.368408203125,-0.4503173828125,0.312835693359375,-0.750701904296875,-0.06103515625,-0.1220703125,0.06103515625,0.444580078125,-0.8011474609375,0.3968505859375,-291.0,152.0,-151.0,101701.0,-3.133000135421753,0,0
0.6069677000050433,0.368408203125,-0.450347900390625,0.312835693359375,-0.750701904296875,-0.1220703125,-0.1220703125,-0.1220703125,0.445556640625,-0.8018798828125,0.3961181640625,-291.0,152.0,-151.0,101701.0,-3.133000135421753,0,0
0.6075661999930162,0.368408203125,-0.450347900390625,0.312835693359375,-0.750701904296875,0.1220703125,0.06103515625,-0.1220703125,0.4468994140625,-0.8011474609375,0.3990478515625,-291.0,152.0,-151.0,101701.0,-3.133000135421753,0,0
0.6076376999990316,0.368408203125,-0.450347900390625,0.312835693359375,-0.750701904296875,0.1220703125,0.06103515625,-0.1220703125,0.4468994140625,-0.8011474609375,0.3990478515625,-291.0,152.0,-151.0,101701.0,-3.133000135421753,0,0
0.6077007999992929,0.368377685546875,-0.450347900390625,0.312835693359375,-0.750701904296875,0.18310546875,0.1220703125,-0.18310546875,0.4449462890625,-0.80078125,0.3978271484375,-291.0,152.0,-151.0,101701.0,-3.133000135421753,0,0
0.6077627000049688,0.368377685546875,-0.450347900390625,0.312835693359375,-0.750701904296875,0.06103515625,-0.1220703125,0.0,0.446044921875,-0.80224609375,0.3992919921875,-291.0,152.0,-151.0,101701.0,-3.133000135421753,0,0
0.6078246999968542,0.368377685546875,-0.450347900390625,0.312835693359375,-0.750701904296875,0.06103515625,-0.1220703125,-0.1220703125,0.4461669921875,-0.802978515625,0.399169921875,-291.0,152.0,-151.0,101701.0,-3.133000135421753,0,0
0.6078852999926312,0.368377685546875,-0.450347900390625,0.312835693359375,-0.750701904296875,0.06103515625,-0.1220703125,-0.1220703125,0.4461669921875,-0.802978515625,0.399169921875,-291.0,152.0,-151.0,101701.0,-3.133000135421753,0,0
0.6786572999990312,0.368377685546875,-0.4503173828125,0.312835693359375,-0.750701904296875,0.0,-0.18310546875,0.0,0.44482421875,-0.800537109375,0.3992919921875,-291.0,152.0,-151.0,101701.0,-3.133000135421753,0,0
0.6787248000036925,0.368377685546875,-0.4503173828125,0.312835693359375,-0.750701904296875,0.3662109375,-0.18310546875,-0.06103515625,0.445556640625,-0.8013916015625,0.3978271484375,-291.0,152.0,-151.0,101701.0,-3.133000135421753,0,0
0.6787811999965925,0.368377685546875,-0.450347900390625,0.312835693359375,-0.750701904296875,0.06103515625,0.1220703125,0.18310546875,0.44580078125,-0.8006591796875,0.3980712890625,-291.0,152.0,-151.0,101701.0,-3.133000135421753,0,0
0.6788358000048902,0.368377685546875,-0.450347900390625,0.312835693359375,-0.750701904296875,0.1220703125,0.18310546875,-0.06103515625,0.447509765625,-0.8017578125,0.3980712890625,-291.0,152.0,-151.0,101701.0,-3.133000135421753,0,0
0.678891300005489,0.368377685546875,-0.450347900390625,0.312835693359375,-0.750701904296875,0.06103515625,0.0,0.18310546875,0.44482421875,-0.8011474609375,0.3990478515625,-291.0,152.0,-151.0,101701.0,-3.133000135421753,0,0
0.6789458999992348,0.368377685546875,-0.450347900390625,0.312835693359375,-0.750701904296875,0.06103515625,0.0,0.18310546875,0.44482421875,-0.8011474609375,0.3990478515625,-291.0,152.0,-151.0,101701.0,-3.133000135421753,0,0
0.678999499999918,0.368408203125,-0.450347900390625,0.312835693359375,-0.750701904296875,0.0,0.06103515625,-0.06103515625,0.4453125,-0.802734375,0.3975830078125,-291.0,152.0,-151.0,101701.0,-3.133000135421753,0,0
0.679404099995736,0.368408203125,-0.450347900390625,0.312835693359375,-0.750701904296875,0.1220703125,-0.18310546875,0.06103515625,0.4453125,-0.80322265625,0.399169921875,-291.0,152.0,-151.0,101701.0,-3.133000135421753,0,0
0.6794599999993807,0.368377685546875,-0.450347900390625,0.312835693359375,-0.750701904296875,0.18310546875,-0.1220703125,-0.1220703125,0.445556640625,-0.8026123046875,0.3975830078125,-291.0,152.0,-151.0,101701.0,-3.133000135421753,0,0
0.6795158000022639,0.368377685546875,-0.450347900390625,0.312835693359375,-0.750701904296875,-0.42724609375,-0.18310546875,-0.18310546875,0.445556640625,-0.8001708984375,0.3963623046875,-290.0,152.0,-151.0,101701.0,-3.13100004196167,0,0
0.6795702999952482,0.368377685546875,-0.450347900390625,0.312835693359375,-0.750701904296875,-0.42724609375,-0.18310546875,-0.18310546875,0.445556640625,-0.8001708984375,0.3963623046875,-290.0,152.0,-151.0,101701.0,-3.13100004196167,0,0
0.6796252000058303,0.3681640625,-0.45025634765625,0.312957763671875,-0.75079345703125,0.1220703125,-0.30517578125,-0.3662109375,0.4462890625,-0.801025390625,0.396240234375,-290.0,152.0,-151.0,101701.0,-3.13100004196167,0,0
0.6796778999996604,0.3681640625,-0.45025634765625,0.312957763671875,-0.75079345703125,0.06103515625,-0.06103515625,0.0,0.44580078125,-0.8011474609375,0.3980712890625,-290.0,152.0,-151.0,101701.0,-3.13100004196167,0,0
0.7387355999962892,0.3681640625,-0.450286865234375,0.312957763671875,-0.75079345703125,-0.1220703125,0.06103515625,-0.06103515625,0.4449462890625,-0.8009033203125,0.3983154296875,-290.0,152.0,-151.0,101701.0,-3.13100004196167,0,0
0.738801900006365,0.3681640625,-0.450286865234375,0.312957763671875,-0.75079345703125,0.18310546875,-0.244140625,-0.06103515625,0.446044921875,-0.8017578125,0.3988037109375,-290.0,152.0,-151.0,101701.0,-3.13100004196167,0,0
0.7388574999931734,0.3681640625,-0.45025634765625,0.312957763671875,-0.75079345703125,0.06103515625,-0.1220703125,-0.06103515625,0.44384765625,-0.7999267578125,0.396240234375,-290.0,152.0,-151.0,101701.0,-3.13100004196167,0,0
0.7389450000046054,0.3681640625,-0.45025634765625,0.312957763671875,-0.75079345703125,0.1220703125,-0.1220703125,-0.18310546875,0.4439697265625,-0.800537109375,0.399169921875,-290.0,152.0,-151.0,101701.0,-3.13100004196167,0,0
0.7389989999937825,0.3681640625,-0.45025634765625,0.312957763671875,-0.75079345703125,-0.18310546875,-0.06103515625,0.06103515625,0.446044921875,-0.8004150390625,0.39892578125,-290.0,152.0,-151.0,101701.0,-3.13100004196167,0,0
0.7394727000064449,0.3681640625,-0.45025634765625,0.312957763671875,-0.75079345703125,-0.06103515625,-0.06103515625,0.0,0.444091796875,-0.8028564453125,0.3983154296875,-290.0,152.0,-151.0,101701.0,-3.13100004196167,0,0
0.7395336000045063,0.3681640625,-0.45025634765625,0.31298828125,-0.75079345703125,0.244140625,0.0,-0.1220703125,0.4447021484375,-0.8026123046875,0.398681640625,-290.0,152.0,-151.0,101701.0,-3.13100004196167,0,0
0.7395895999943605,0.3681640625,-0.450286865234375,0.31298828125,-0.75079345703125,0.06103515625,-0.18310546875,-0.1220703125,0.4462890625,-0.802490234375,0.3974609375,-290.0,152.0,-151.0,101701.0,-3.13100004196167,0,0
0.7396429999935208,0.3681640625,-0.450286865234375,0.31298828125,-0.75079345703125,0.06103515625,-0.18310546875,-0.1220703125,0.4462890625,-0.802490234375,0.3974609375,-290.0,152.0,-151.0,101701.0,-3.13100004196167,0,0
0.7396953999996185,0.3681640625,-0.450286865234375,0.31298828125,-0.75079345703125,-0.18310546875,-0.244140625,0.0,0.446044921875,-0.801513671875,0.3970947265625,-290.0,152.0,-151.0,101701.0,-3.13100004196167,0,0
0.7397486999980174,0.3681640625,-0.450286865234375,0.31298828125,-0.75079345703125,0.06103515625,-0.1220703125,0.06103515625,0.444091796875,-0.80078125,0.398193359375,-290.0,152.0,-151.0,101701.0,-3.13100004196167,0,0
0.8346208000002662,0.3681640625,-0.450286865234375,0.31298828125,-0.75079345703125,0.06103515625,-0.1220703125,-0.3662109375,0.4461669921875,-0.80029296875,0.39697265625,-290.0,152.0,-151.0,101701.0,-3.13100004196167,0,0
0.8346926999947755,0.3681640625,-0.450286865234375,0.31298828125,-0.75079345703125,0.1220703125,-0.1220703125,0.18310546875,0.445556640625,-0.802734375,0.3978271484375,-290.0,152.0,-151.0,101701.0,-3.133000135421753,0,0
0.8347491000022274,0.3681640625,-0.450286865234375,0.31298828125,-0.75079345703125,-0.1220703125,-0.1220703125,0.0,0.4471435546875,-0.802978515625,0.3975830078125,-290.0,150.0,-151.0,101701.0,-3.133000135421753,0,0
0.8348389000020688,0.367950439453125,-0.4501953125,0.3131103515625,-0.750885009765625,-0.06103515625,-0.244140625,0.06103515625,0.445556640625,-0.800537109375,0.400634765625,-290.0,150.0,-151.0,101701.0,-3.133000135421753,0,0
0.8348920999997063,0.367950439453125,-0.4501953125,0.3131103515625,-0.750885009765625,-0.18310546875,-0.06103515625,0.1220703125,0.4459228515625,-0.8017578125,0.39892578125,-290.0,150.0,-151.0,101701.0,-3.133000135421753,0,0
0.8349594000028446,0.367950439453125,-0.4501953125,0.3131103515625,-0.750885009765625,-0.18310546875,-0.06103515625,0.1220703125,0.4459228515625,-0.8017578125,0.39892578125,-290.0,150.0,-151.0,101701.0,-3.133000135421753,0,0
0.8350137999950675,0.367950439453125,-0.450225830078125,0.3131103515625,-0.750885009765625,0.1220703125,-0.1220703125,-0.18310546875,0.4468994140625,-0.80029296875,0.3974609375,-290.0,150.0,-151.0,101701.0,-3.133000135421753,0,0
0.8350662000011653,0.367950439453125,-0.450225830078125,0.3131103515625,-0.750885009765625,0.0,-0.1220703125,0.0,0.4471435546875,-0.800537109375,0.3978271484375,-290.0,150.0,-151.0,101701.0,-3.133000135421753,0,0
0.8351182000042172,0.367950439453125,-0.450225830078125,0.3131103515625,-0.750885009765625,0.244140625,-0.18310546875,-0.18310546875,0.447998046875,-0.8011474609375,0.3958740234375,-290.0,150.0,-151.0,101701.0,-3.133000135421753,0,0
0.8351701000065077,0.367950439453125,-0.450225830078125,0.3131103515625,-0.750885009765625,0.0,-0.06103515625,-0.06103515625,0.4464111328125,-0.8017578125,0.39892578125,-290.0,150.0,-151.0,101701.0,-3.133000135421753,0,0
0.8352231000026222,0.367950439453125,-0.450225830078125,0.3131103515625,-0.750885009765625,0.244140625,0.0,0.1220703125,0.446044921875,-0.7998046875,0.3963623046875,-290.0,150.0,-151.0,101701.0,-3.133000135421753,0,0
0.861854000002495,0.367950439453125,-0.450225830078125,0.3131103515625,-0.750885009765625,0.0,0.0,-0.18310546875,0.446044921875,-0.799560546875,0.399169921875,-290.0,150.0,-151.0,101701.0,-3.133000135421753,0,0
0.8619185999996262,0.367950439453125,-0.450225830078125,0.3131103515625,-0.750885009765625,0.1220703125,-0.18310546875,-0.1220703125,0.4451904296875,-0.7998046875,0.3975830078125,-290.0,150.0,-151.0,101701.0,-3.133000135421753,0,0
0.8619756999978563,0.367950439453125,-0.450225830078125,0.3131103515625,-0.750885009765625,0.06103515625,-0.18310546875,-0.18310546875,0.444580078125,-0.8017578125,0.3990478515625,-290.0,150.0,-151.0,101701.0,-3.133000135421753,0,0
0.862032699995325,0.367950439453125,-0.450225830078125,0.3131103515625,-0.750885009765625,0.06103515625,-0.18310546875,-0.18310546875,0.444580078125,-0.8017578125,0.3990478515625,-290.0,150.0,-151.0,101701.0,-3.133000135421753,0,0
0.8620862999960082,0.367950439453125,-0.450225830078125,0.313079833984375,-0.750885009765625,0.0,-0.18310546875,-0.1220703125,0.4486083984375,-0.80126953125,0.398681640625,-290.0,150.0,-151.0,101701.0,-3.133000135421753,0,0
0.8621402999997372,0.367950439453125,-0.450225830078125,0.313079833984375,-0.750885009765625,0.1220703125,0.0,0.1220703125,0.445556640625,-0.8018798828125,0.3990478515625,-290.0,150.0,-151.0,101701.0,-3.133000135421753,0,0
0.8621953999972902,0.367950439453125,-0.450225830078125,0.3131103515625,-0.750885009765625,0.06103515625,0.0,-0.06103515625,0.4454345703125,-0.8009033203125,0.3955078125,-290.0,150.0,-151.0,101701.0,-3.133000135421753,0,0
0.8635982999985572,0.367950439453125,-0.45025634765625,0.3131103515625,-0.750885009765625,0.1220703125,-0.06103515625,-0.244140625,0.444091796875,-0.8009033203125,0.3961181640625,-290.0,150.0,-151.0,101701.0,-3.133000135421753,0,0
0.8636579000012716,0.367950439453125,-0.45025634765625,0.3131103515625,-0.750885009765625,0.244140625,-0.1220703125,-0.244140625,0.4451904296875,-0.8018798828125,0.396728515625,-290.0,150.0,-151.0,101701.0,-3.133000135421753,0,0
0.8637132000003476,0.367950439453125,-0.45025634765625,0.3131103515625,-0.750885009765625,0.30517578125,-0.1220703125,0.1220703125,0.4444580078125,-0.7999267578125,0.398193359375,-290.0,150.0,-151.0,101701.0,-3.133000135421753,0,0
0.8637669000017922,0.367950439453125,-0.45025634765625,0.3131103515625,-0.750885009765625,0.18310546875,-0.06103515625,0.06103515625,0.44287109375,-0.8021240234375,0.3994140625,-290.0,150.0,-151.0,101701.0,-3.133000135421753,0,0
0.8638532000040868,0.367950439453125,-0.45025634765625,0.3131103515625,-0.750885009765625,0.18310546875,-0.06103515625,0.06103515625,0.44287109375,-0.8021240234375,0.3994140625,-290.0,150.0,-150.0,101701.0,-3.132000207901001,0,0
0.8639090999931796,0.36773681640625,-0.450164794921875,0.313232421875,-0.7509765625,-0.06103515625,-0.1220703125,0.1220703125,0.4451904296875,-0.8023681640625,0.3973388671875,-290.0,150.0,-150.0,101701.0,-3.132000207901001,0,0
0.9315523999975994,0.36773681640625,-0.450164794921875,0.313232421875,-0.7509765625,-0.30517578125,-0.244140625,-0.1220703125,0.446044921875,-0.802490234375,0.39990234375,-290.0,150.0,-150.0,101701.0,-3.132000207901001,0,0
0.9321030999999493,0.36773681640625,-0.450164794921875,0.313232421875,-0.7509765625,0.244140625,-0.1220703125,-0.1220703125,0.4481201171875,-0.8016357421875,0.39892578125,-290.0,150.0,-150.0,101701.0,-3.132000207901001,0,0
0.9321724000037648,0.36773681640625,-0.450164794921875,0.313232421875,-0.7509765625,-0.06103515625,-0.244140625,0.1220703125,0.446533203125,-0.80029296875,0.3973388671875,-290.0,150.0,-150.0,101701.0,-3.132000207901001,0,0
0.9322705999948084,0.36773681640625,-0.450164794921875,0.313232421875,-0.750946044921875,-0.244140625,-0.1220703125,-0.244140625,0.4449462890625,-0.8013916015625,0.3974609375,-290.0,150.0,-150.0,101701.0,-3.132000207901001,0,0
0.9323245999985375,0.36773681640625,-0.450164794921875,0.313232421875,-0.750946044921875,-0.1220703125,0.0,0.1220703125,0.446533203125,-0.80322265625,0.396728515625,-290.0,150.0,-150.0,101701.0,-3.132000207901001,0,0
0.9330799000017578,0.36773681640625,-0.4501953125,0.313232421875,-0.750946044921875,0.1220703125,0.18310546875,-0.1220703125,0.4462890625,-0.8001708984375,0.3978271484375,-290.0,150.0,-150.0,101701.0,-3.132000207901001,0,0
0.9331379999930505,0.36773681640625,-0.4501953125,0.313232421875,-0.750946044921875,0.18310546875,0.1220703125,-0.06103515625,0.4461669921875,-0.8018798828125,0.3966064453125,-290.0,150.0,-150.0,101701.0,-3.132000207901001,0,0
0.9331937999959337,0.36773681640625,-0.4501953125,0.313232421875,-0.750946044921875,0.18310546875,0.1220703125,-0.06103515625,0.4461669921875,-0.8018798828125,0.3966064453125,-290.0,150.0,-150.0,101701.0,-3.132000207901001,0,0
0.9332454999967013,0.36773681640625,-0.450164794921875,0.313232421875,-0.750946044921875,0.0,-0.1220703125,0.0,0.4459228515625,-0.8023681640625,0.3983154296875,-290.0,150.0,-150.0,101701.0,-3.132000207901001,0,0
0.933296999995946,0.36773681640625,-0.4501953125,0.313232421875,-0.750946044921875,-0.06103515625,0.1220703125,0.1220703125,0.448974609375,-0.8011474609375,0.3978271484375,-290.0,150.0,-150.0,101701.0,-3.132000207901001,0,0
0.9333492000005208,0.36773681640625,-0.4501953125,0.313232421875,-0.7509765625,0.0,-0.244140625,-0.18310546875,0.4459228515625,-0.80029296875,0.399169921875,-290.0,150.0,-150.0,101701.0,-3.132000207901001,0,0
0.9890876999998,0.367706298828125,-0.4501953125,0.313232421875,-0.750946044921875,0.06103515625,0.0,-0.06103515625,0.44580078125,-0.802001953125,0.3975830078125,-290.0,150.0,-150.0,101701.0,-3.132000207901001,0,0
0.9891476000047987,0.36773681640625,-0.4501953125,0.313232421875,-0.750946044921875,0.244140625,-0.1220703125,-0.1220703125,0.443603515625,-0.8013916015625,0.3984375,-290.0,150.0,-150.0,101701.0,-3.132000207901001,0,0
0.9892027000023518,0.36773681640625,-0.450164794921875,0.313232421875,-0.7509765625,0.06103515625,0.0,-0.30517578125,0.4447021484375,-0.80029296875,0.39892578125,-290.0,150.0,-150.0,101701.0,-3.132000207901001,0,0
0.9894593000062741,0.36773681640625,-0.4501953125,0.313232421875,-0.750946044921875,0.42724609375,0.06103515625,0.18310546875,0.444580078125,-0.802001953125,0.396728515625,-290.0,150.0,-150.0,101701.0,-3.133000135421753,0,0
0.9895237000018824,0.36773681640625,-0.4501953125,0.313232421875,-0.750946044921875,0.42724609375,0.06103515625,0.18310546875,0.444580078125,-0.802001953125,0.396728515625,-290.0,150.0,-150.0,101701.0,-3.133000135421753,0,0
0.9899418999993941,0.367523193359375,-0.450103759765625,0.3133544921875,-0.751068115234375,0.1220703125,-0.06103515625,-0.244140625,0.4444580078125,-0.80029296875,0.3973388671875,-290.0,151.0,-151.0,101701.0,-3.133000135421753,0,0
0.9900053000019398,0.367523193359375,-0.450103759765625,0.3133544921875,-0.751068115234375,0.18310546875,-0.06103515625,-0.18310546875,0.4471435546875,-0.8011474609375,0.39697265625,-290.0,151.0,-151.0,101701.0,-3.133000135421753,0,0
0.9900597999949241,0.367523193359375,-0.450103759765625,0.313385009765625,-0.751068115234375,0.18310546875,0.1220703125,-0.1220703125,0.443359375,-0.799072265625,0.397216796875,-290.0,151.0,-151.0,101701.0,-3.133000135421753,0,0
0.9901116999972146,0.367523193359375,-0.450103759765625,0.313385009765625,-0.751068115234375,0.06103515625,0.0,0.06103515625,0.4449462890625,-0.8009033203125,0.3975830078125,-290.0,151.0,-151.0,101701.0,-3.133000135421753,0,0
0.990166000003228,0.367523193359375,-0.450103759765625,0.313385009765625,-0.75103759765625,0.0,0.0,-0.244140625,0.44580078125,-0.8004150390625,0.3961181640625,-290.0,151.0,-151.0,101701.0,-3.133000135421753,0,0
0.9902183999947738,0.36749267578125,-0.450103759765625,0.313385009765625,-0.75103759765625,-0.06103515625,-0.06103515625,-0.1220703125,0.4488525390625,-0.8006591796875,0.396728515625,-290.0,151.0,-151.0,101701.0,-3.133000135421753,0,0
1.0536433999950532,0.36749267578125,-0.450103759765625,0.3133544921875,-0.75103759765625,0.1220703125,0.0,-0.3662109375,0.4471435546875,-0.800537109375,0.3992919921875,-290.0,151.0,-151.0,101701.0,-3.133000135421753,0,0
1.0537091000005603,0.36749267578125,-0.450103759765625,0.3133544921875,-0.75103759765625,0.0,-0.244140625,-0.06103515625,0.445556640625,-0.801025390625,0.3970947265625,-290.0,151.0,-151.0,101701.0,-3.133000135421753,0,0
1.0537634999927832,0.36749267578125,-0.450103759765625,0.3133544921875,-0.75103759765625,0.0,-0.244140625,-0.06103515625,0.445556640625,-0.801025390625,0.3970947265625,-290.0,151.0,-151.0,101701.0,-3.133000135421753,0,0
1.053818100001081,0.36749267578125,-0.45013427734375,0.313385009765625,-0.75103759765625,0.0,-0.06103515625,0.1220703125,0.4449462890625,-0.8017578125,0.395751953125,-290.0,151.0,-151.0,101701.0,-3.133000135421753,0,0
1.0538724999933038,0.36749267578125,-0.45013427734375,0.313385009765625,-0.75103759765625,0.244140625,-0.18310546875,-0.1220703125,0.44580078125,-0.801025390625,0.39794921875,-290.0,151.0,-151.0,101701.0,-3.133000135421753,0,0
1.0539256000047317,0.36749267578125,-0.45013427734375,0.313385009765625,-0.75103759765625,-0.18310546875,-0.1220703125,-0.244140625,0.4466552734375,-0.8004150390625,0.3968505859375,-290.0,151.0,-151.0,101701.0,-3.133000135421753,0,0
1.0539781999978004,0.36749267578125,-0.45013427734375,0.313385009765625,-0.75103759765625,0.18310546875,-0.18310546875,-0.18310546875,0.4442138671875,-0.8009033203125,0.3975830078125,-290.0,151.0,-151.0,101701.0,-3.133000135421753,0,0
1.054197399993427,0.36749267578125,-0.45013427734375,0.313385009765625,-0.75103759765625,-0.54931640625,-0.30517578125,-0.1220703125,0.4425048828125,-0.802001953125,0.396484375,-290.0,151.0,-151.0,101701.0,-3.133000135421753,0,0
1.0542581000045175,0.36749267578125,-0.45013427734375,0.313385009765625,-0.75103759765625,0.06103515625,0.1220703125,0.06103515625,0.44580078125,-0.802734375,0.3970947265625,-290.0,151.0,-151.0,101701.0,-3.133000135421753,0,0
1.0543119999929331,0.36749267578125,-0.45013427734375,0.313385009765625,-0.75103759765625,-0.06103515625,-0.42724609375,-0.3662109375,0.4456787109375,-0.80029296875,0.3975830078125,-290.0,151.0,-151.0,101701.0,-3.133000135421753,0,0
1.0543648000020767,0.36749267578125,-0.45013427734375,0.31341552734375,-0.75103759765625,0.244140625,-0.1220703125,0.06103515625,0.442626953125,-0.802978515625,0.397216796875,-290.0,151.0,-151.0,101701.0,-3.133000135421753,0,0
1.0544176999974297,0.36749267578125,-0.45013427734375,0.31341552734375,-0.75103759765625,0.244140625,-0.06103515625,0.06103515625,0.4423828125,-0.8017578125,0.39697265625,-290.0,151.0,-151.0,101701.0,-3.133000135421753,0,0
1.0544697000004817,0.36749267578125,-0.45013427734375,0.31341552734375,-0.75103759765625,0.244140625,-0.06103515625,0.06103515625,0.4423828125,-0.8017578125,0.39697265625,-290.0,151.0,-151.0,101701.0,-3.133000135421753,0,0
1.1213488999928813,0.367401123046875,-0.450103759765625,0.3134765625,-0.751068115234375,-0.06103515625,-0.06103515625,-0.1220703125,0.4444580078125,-0.8004150390625,0.3953857421875,-291.0,150.0,-151.0,101702.0,-3.134000062942505,0,0
1.1214108999993186,0.367401123046875,-0.450103759765625,0.3134765625,-0.751068115234375,0.06103515625,-0.06103515625,-0.3662109375,0.4466552734375,-0.8013916015625,0.3968505859375,-291.0,150.0,-151.0,101702.0,-3.134000062942505,0,0
1.1214651000045706,0.367401123046875,-0.450103759765625,0.3134765625,-0.751068115234375,0.06103515625,-0.1220703125,0.0,0.4456787109375,-0.7999267578125,0.3973388671875,-291.0,150.0,-151.0,101702.0,-3.134000062942505,0,0
1.1215224000043236,0.367401123046875,-0.450103759765625,0.3134765625,-0.751068115234375,0.06103515625,-0.1220703125,-0.30517578125,0.445068359375,-0.80029296875,0.39794921875,-291.0,150.0,-151.0,101702.0,-3.134000062942505,0,0
1.121578899997985,0.367401123046875,-0.450103759765625,0.3134765625,-0.751068115234375,0.18310546875,0.0,-0.06103515625,0.44580078125,-0.8018798828125,0.3980712890625,-291.0,150.0,-151.0,101702.0,-3.134000062942505,0,0
1.1216508000070462,0.367401123046875,-0.450103759765625,0.3134765625,-0.751068115234375,-0.06103515625,0.0,0.1220703125,0.4453125,-0.802734375,0.396240234375,-291.0,150.0,-151.0,101702.0,-3.134000062942505,0,0
1.1217030999978306,0.367401123046875,-0.450103759765625,0.3134765625,-0.751068115234375,-0.06103515625,0.0,0.1220703125,0.4453125,-0.802734375,0.396240234375,-291.0,150.0,-151.0,101702.0,-3.134000062942505,0,0
1.1217561999947065,0.367401123046875,-0.450103759765625,0.313507080078125,-0.75103759765625,-0.1220703125,-0.18310546875,-0.06103515625,0.444580078125,-0.802978515625,0.396728515625,-291.0,150.0,-151.0,101702.0,-3.134000062942505,0,0
1.1218086000008043,0.367401123046875,-0.450103759765625,0.313507080078125,-0.75103759765625,0.18310546875,-0.1220703125,-0.06103515625,0.444580078125,-0.8001708984375,0.3968505859375,-291.0,150.0,-151.0,101702.0,-3.134000062942505,0,0
1.1218629999930272,0.367401123046875,-0.450103759765625,0.313507080078125,-0.75103759765625,-0.1220703125,0.30517578125,-0.244140625,0.4461669921875,-0.8028564453125,0.397216796875,-291.0,150.0,-151.0,101702.0,-3.134000062942505,0,0
1.1219162000052165,0.367401123046875,-0.45013427734375,0.313507080078125,-0.75103759765625,-0.244140625,0.0,-0.06103515625,0.443115234375,-0.801513671875,0.3974609375,-291.0,150.0,-151.0,101702.0,-3.134000062942505,0,0
1.1825791000010213,0.367401123046875,-0.45013427734375,0.313507080078125,-0.75103759765625,0.244140625,0.0,-0.244140625,0.446533203125,-0.8013916015625,0.3984375,-291.0,150.0,-151.0,101702.0,-3.134000062942505,0,0
1.1826482000033138,0.367401123046875,-0.45013427734375,0.313507080078125,-0.75103759765625,0.18310546875,-0.06103515625,-0.18310546875,0.4466552734375,-0.8011474609375,0.397216796875,-291.0,150.0,-151.0,101702.0,-3.134000062942505,0,0
1.182710799999768,0.367401123046875,-0.45013427734375,0.313507080078125,-0.75103759765625,0.244140625,-0.18310546875,-0.18310546875,0.4432373046875,-0.8009033203125,0.395263671875,-291.0,150.0,-151.0,101702.0,-3.134000062942505,0,0
1.1827705000032438,0.367401123046875,-0.45013427734375,0.313507080078125,-0.75103759765625,0.244140625,-0.18310546875,-0.18310546875,0.4432373046875,-0.8009033203125,0.395263671875,-291.0,150.0,-151.0,101702.0,-3.134000062942505,0,0
1.1828280000045197,0.367401123046875,-0.45013427734375,0.313507080078125,-0.75103759765625,-0.244140625,-0.1220703125,0.06103515625,0.4451904296875,-0.80029296875,0.3968505859375,-291.0,150.0,-151.0,101702.0,-3.134000062942505,0,0
1.1830171000037808,0.367401123046875,-0.45013427734375,0.31353759765625,-0.75103759765625,0.06103515625,-0.18310546875,-0.06103515625,0.44482421875,-0.802001953125,0.3968505859375,-291.0,150.0,-151.0,101701.0,-3.133000135421753,0,0
1.183087199999136,0.367401123046875,-0.45013427734375,0.31353759765625,-0.75103759765625,0.06103515625,0.0,0.18310546875,0.4461669921875,-0.8004150390625,0.3973388671875,-291.0,150.0,-151.0,101701.0,-3.133000135421753,0,0
1.183146299998043,0.367279052734375,-0.450103759765625,0.3135986328125,-0.751068115234375,0.06103515625,-0.244140625,-0.06103515625,0.44482421875,-0.8021240234375,0.39697265625,-291.0,150.0,-151.0,101701.0,-3.133000135421753,0,0
1.1832041000016034,0.367279052734375,-0.450103759765625,0.3135986328125,-0.751068115234375,0.3662109375,0.0,0.06103515625,0.4449462890625,-0.802490234375,0.3975830078125,-291.0,150.0,-151.0,101701.0,-3.133000135421753,0,0
1.1832621000066865,0.3673095703125,-0.450103759765625,0.3135986328125,-0.751068115234375,0.0,-0.06103515625,-0.1220703125,0.445068359375,-0.80126953125,0.3975830078125,-291.0,150.0,-151.0,101701.0,-3.133000135421753,0,0
1.1833202999987407,0.367279052734375,-0.450103759765625,0.3135986328125,-0.751068115234375,-0.244140625,-0.244140625,-0.06103515625,0.4464111328125,-0.800537109375,0.3958740234375,-291.0,150.0,-151.0,101701.0,-3.133000135421753,0,0
1.1833771999954479,0.367279052734375,-0.450103759765625,0.3135986328125,-0.751068115234375,0.244140625,-0.244140625,0.30517578125,0.4454345703125,-0.8021240234375,0.396484375,-291.0,150.0,-151.0,101701.0,-3.133000135421753,0,0
1.2473459000029834,0.367279052734375,-0.450103759765625,0.3135986328125,-0.751068115234375,0.244140625,-0.244140625,0.30517578125,0.4454345703125,-0.8021240234375,0.396484375,-291.0,150.0,-151.0,101701.0,-3.133000135421753,0,0
1.2474201000004541,0.367279052734375,-0.45013427734375,0.3135986328125,-0.751068115234375,0.0,-0.06103515625,0.0,0.4481201171875,-0.8018798828125,0.3988037109375,-291.0,150.0,-151.0,101701.0,-3.133000135421753,0,0
1.2474825999961467,0.367279052734375,-0.45013427734375,0.3135986328125,-0.751068115234375,-0.06103515625,-0.244140625,0.0,0.4454345703125,-0.8023681640625,0.3963623046875,-291.0,150.0,-151.0,101701.0,-3.133000135421753,0,0
1.2475427000026684,0.367279052734375,-0.45013427734375,0.3135986328125,-0.751068115234375,-0.18310546875,-0.18310546875,-0.1220703125,0.4449462890625,-0.8011474609375,0.396240234375,-291.0,150.0,-151.0,101701.0,-3.133000135421753,0,0
1.2476012999977684,0.367279052734375,-0.45013427734375,0.3135986328125,-0.751068115234375,0.1220703125,0.0,-0.06103515625,0.4473876953125,-0.801513671875,0.396484375,-291.0,150.0,-151.0,101701.0,-3.133000135421753,0,0
1.2476587999990443,0.367279052734375,-0.45013427734375,0.3135986328125,-0.751068115234375,0.06103515625,0.0,-0.18310546875,0.4449462890625,-0.7996826171875,0.3978271484375,-291.0,150.0,-151.0,101701.0,-3.133000135421753,0,0
1.2479223999980604,0.367279052734375,-0.45013427734375,0.3135986328125,-0.75103759765625,-0.06103515625,-0.1220703125,0.1220703125,0.4453125,-0.8013916015625,0.3961181640625,-291.0,150.0,-151.0,101701.0,-3.133000135421753,0,0
1.2479907999950228,0.367279052734375,-0.45013427734375,0.3135986328125,-0.75103759765625,-0.1220703125,-0.30517578125,0.06103515625,0.4466552734375,-0.8009033203125,0.397216796875,-291.0,150.0,-151.0,101701.0,-3.133000135421753,0,0
1.2480505999992602,0.367279052734375,-0.45013427734375,0.3135986328125,-0.75103759765625,0.0,0.0,-0.06103515625,0.4461669921875,-0.8013916015625,0.3968505859375,-291.0,150.0,-151.0,101701.0,-3.133000135421753,0,0
1.2481087000051048,0.367279052734375,-0.45013427734375,0.3135986328125,-0.75103759765625,0.42724609375,0.0,-0.1220703125,0.44580078125,-0.8023681640625,0.3968505859375,-291.0,150.0,-151.0,101701.0,-3.133000135421753,0,0
1.2481661000056192,0.367279052734375,-0.45013427734375,0.3135986328125,-0.75103759765625,0.42724609375,0.0,-0.1220703125,0.44580078125,-0.8023681640625,0.3968505859375,-291.0,150.0,-151.0,101701.0,-3.133000135421753,0,0
1.248222700000042,0.367279052734375,-0.450164794921875,0.313629150390625,-0.75103759765625,-0.1220703125,-0.18310546875,-0.18310546875,0.44482421875,-0.8009033203125,0.3946533203125,-291.0,150.0,-151.0,101701.0,-3.133000135421753,0,0
1.3185876000061398,0.367279052734375,-0.450164794921875,0.313629150390625,-0.75103759765625,-0.06103515625,0.06103515625,0.0,0.445068359375,-0.801025390625,0.3956298828125,-291.0,150.0,-150.0,101701.0,-3.13100004196167,0,0
1.3186558000015793,0.367279052734375,-0.450164794921875,0.313629150390625,-0.75103759765625,0.1220703125,-0.18310546875,-0.18310546875,0.4461669921875,-0.8023681640625,0.395751953125,-291.0,150.0,-150.0,101701.0,-3.13100004196167,0,0
1.3187171000026865,0.367279052734375,-0.450164794921875,0.313629150390625,-0.751007080078125,0.06103515625,-0.18310546875,0.0,0.4439697265625,-0.802734375,0.3955078125,-291.0,150.0,-150.0,101701.0,-3.13100004196167,0,0
1.3187766000046395,0.367279052734375,-0.450164794921875,0.313629150390625,-0.751007080078125,0.48828125,-0.06103515625,-0.06103515625,0.4473876953125,-0.7999267578125,0.3956298828125,-291.0,150.0,-150.0,101701.0,-3.13100004196167,0,0
1.3188361000065925,0.367279052734375,-0.450164794921875,0.31365966796875,-0.751007080078125,0.18310546875,-0.1220703125,0.06103515625,0.4454345703125,-0.801025390625,0.396728515625,-291.0,150.0,-150.0,101701.0,-3.13100004196167,0,0
1.318959399999585,0.367279052734375,-0.450164794921875,0.31365966796875,-0.751007080078125,0.18310546875,-0.1220703125,0.06103515625,0.4454345703125,-0.801025390625,0.396728515625,-291.0,150.0,-150.0,101701.0,-3.13100004196167,0,0
1.3190191000030609,0.367279052734375,-0.450164794921875,0.31365966796875,-0.751007080078125,0.0,0.06103515625,0.0,0.447509765625,-0.8031005859375,0.395751953125,-291.0,150.0,-150.0,101701.0,-3.13100004196167,0,0
1.3190769999928307,0.367279052734375,-0.4501953125,0.31365966796875,-0.751007080078125,-0.244140625,-0.18310546875,0.06103515625,0.4459228515625,-0.802001953125,0.396240234375,-291.0,150.0,-150.0,101701.0,-3.13100004196167,0,0
1.3191365999955451,0.36724853515625,-0.4501953125,0.31365966796875,-0.751007080078125,0.0,-0.1220703125,-0.1220703125,0.4449462890625,-0.7996826171875,0.396240234375,-291.0,150.0,-150.0,101701.0,-3.13100004196167,0,0
1.319196099997498,0.36724853515625,-0.4501953125,0.31365966796875,-0.751007080078125,-0.06103515625,0.0,-0.1220703125,0.4454345703125,-0.800537109375,0.3955078125,-291.0,150.0,-150.0,101701.0,-3.13100004196167,0,0
1.3192572999978438,0.36724853515625,-0.4501953125,0.31365966796875,-0.751007080078125,0.1220703125,-0.1220703125,-0.244140625,0.443359375,-0.8009033203125,0.3966064453125,-291.0,150.0,-150.0,101701.0,-3.13100004196167,0,0
1.3745133000047645,0.36724853515625,-0.450225830078125,0.31365966796875,-0.7509765625,0.06103515625,0.18310546875,-0.244140625,0.445556640625,-0.80224609375,0.398193359375,-291.0,150.0,-150.0,101701.0,-3.13100004196167,0,0
1.374585500001558,0.36724853515625,-0.450225830078125,0.313690185546875,-0.7509765625,0.06103515625,-0.18310546875,0.0,0.4464111328125,-0.8040771484375,0.396484375,-291.0,150.0,-150.0,101701.0,-3.13100004196167,0,0
1.3746454000065569,0.36724853515625,-0.450225830078125,0.313690185546875,-0.7509765625,0.06103515625,-0.18310546875,0.0,0.4464111328125,-0.8040771484375,0.396484375,-291.0,150.0,-150.0,101701.0,-3.13100004196167,0,0
1.37470270000631,0.36724853515625,-0.450225830078125,0.313690185546875,-0.7509765625,0.18310546875,0.0,-0.1220703125,0.447509765625,-0.802978515625,0.39697265625,-291.0,150.0,-150.0,101701.0,-3.13100004196167,0,0
1.3747595000022557,0.36724853515625,-0.450225830078125,0.313690185546875,-0.7509765625,-0.18310546875,0.06103515625,0.06103515625,0.446533203125,-0.8004150390625,0.3939208984375,-291.0,150.0,-150.0,101701.0,-3.13100004196167,0,0
1.3748340000020107,0.36724853515625,-0.450225830078125,0.313690185546875,-0.7509765625,0.0,-0.1220703125,-0.1220703125,0.4456787109375,-0.7999267578125,0.3958740234375,-291.0,150.0,-150.0,101701.0,-3.13100004196167,0,0
1.3748899000056554,0.36724853515625,-0.45025634765625,0.313690185546875,-0.7509765625,-0.1220703125,-0.18310546875,-0.18310546875,0.4451904296875,-0.798828125,0.394775390625,-291.0,150.0,-150.0,101701.0,-3.13100004196167,0,0
1.3749455999932252,0.36724853515625,-0.45025634765625,0.313690185546875,-0.7509765625,0.244140625,-0.1220703125,0.06103515625,0.445068359375,-0.8021240234375,0.394287109375,-291.0,150.0,-150.0,101701.0,-3.130000114440918,0,0
1.3750016999983927,0.36724853515625,-0.45025634765625,0.313690185546875,-0.7509765625,0.3662109375,0.06103515625,0.0,0.4437255859375,-0.8009033203125,0.395263671875,-293.0,150.0,-150.0,101701.0,-3.130000114440918,0,0
1.3750587999966228,0.36724853515625,-0.45025634765625,0.313690185546875,-0.7509765625,-0.1220703125,-0.18310546875,0.0,0.443603515625,-0.7999267578125,0.3961181640625,-293.0,150.0,-150.0,101701.0,-3.130000114440918,0,0
1.3751153000048362,0.36724853515625,-0.45025634765625,0.313720703125,-0.750946044921875,0.06103515625,-0.06103515625,-0.1220703125,0.445068359375,-0.8040771484375,0.394287109375,-293.0,150.0,-150.0,101701.0,-3.130000114440918,0,0
1.3751713999954518,0.36724853515625,-0.45025634765625,0.313720703125,-0.750946044921875,0.06103515625,-0.06103515625,-0.1220703125,0.445068359375,-0.8040771484375,0.394287109375,-293.0,150.0,-150.0,101701.0,-3.130000114440918,0,0
1.4383162000012817,0.36724853515625,-0.45025634765625,0.313720703125,-0.750946044921875,0.06103515625,-0.244140625,0.244140625,0.4456787109375,-0.8021240234375,0.393798828125,-293.0,150.0,-150.0,101701.0,-3.130000114440918,0,0
1.4383843999967212,0.36724853515625,-0.45025634765625,0.313720703125,-0.750946044921875,0.1220703125,-0.244140625,-0.06103515625,0.445068359375,-0.8048095703125,0.395263671875,-293.0,150.0,-150.0,101701.0,-3.130000114440918,0,0
1.4384444000024814,0.36724853515625,-0.450286865234375,0.313720703125,-0.750946044921875,0.06103515625,-0.06103515625,0.06103515625,0.446533203125,-0.8031005859375,0.3953857421875,-293.0,150.0,-150.0,101701.0,-3.130000114440918,0,0
1.4385018000029959,0.36724853515625,-0.450286865234375,0.313720703125,-0.750946044921875,0.06103515625,0.0,-0.244140625,0.4471435546875,-0.802734375,0.396240234375,-293.0,150.0,-150.0,101701.0,-3.130000114440918,0,0
1.438557600005879,0.367218017578125,-0.450286865234375,0.313751220703125,-0.75091552734375,0.18310546875,-0.06103515625,0.0,0.44580078125,-0.8033447265625,0.39453125,-293.0,150.0,-150.0,101701.0,-3.130000114440918,0,0
1.4386148000048706,0.367218017578125,-0.450286865234375,0.313751220703125,-0.75091552734375,0.244140625,0.0,0.0,0.4476318359375,-0.80078125,0.393798828125,-293.0,150.0,-150.0,101701.0,-3.130000114440918,0,0
1.4394215999927837,0.367218017578125,-0.4503173828125,0.313751220703125,-0.75091552734375,0.06103515625,-0.06103515625,-0.1220703125,0.4464111328125,-0.8021240234375,0.395263671875,-293.0,150.0,-150.0,101701.0,-3.130000114440918,0,0
1.4394874999998137,0.367218017578125,-0.4503173828125,0.313751220703125,-0.75091552734375,0.244140625,-0.06103515625,-0.244140625,0.44482421875,-0.7996826171875,0.39599609375,-293.0,150.0,-150.0,101701.0,-3.130000114440918,0,0
