Time stamp(sec),quaternion_0,quaternion_1,quaternion_2,quaternion_3,roll_angular_rate,pitch_angular_rate,yaw_angular_rate,acc_X,acc_Y,acc_Z,mag_X,mag_Y,mag_Z,pressure,altitude
82.016996,0.003204345703125,0.672637939453125,0.739471435546875,0.02655029296875,0.0,0.0,0.3662109375,0.0284423828125,0.0426025390625,-1.0128173828125,225.0,115.0,-91.0,101446.0,-1.0080000162124634,0,0
82.023995,0.003204345703125,0.672637939453125,0.739471435546875,0.026519775390625,-0.18310546875,-0.06103515625,-0.06103515625,0.0291748046875,0.0411376953125,-1.012939453125,225.0,115.0,-91.0,101446.0,-1.0080000162124634,0,0
82.030994,0.003204345703125,0.672637939453125,0.739471435546875,0.026519775390625,0.0,0.1220703125,0.18310546875,0.030029296875,0.042236328125,-1.0123291015625,225.0,115.0,-91.0,101446.0,-1.0080000162124634,0,0
82.037998,0.003204345703125,0.672637939453125,0.739471435546875,0.0264892578125,0.1220703125,0.06103515625,-0.1220703125,0.0296630859375,0.043701171875,-1.0137939453125,225.0,115.0,-91.0,101444.0,-0.9960000514984131,0,0
82.044998,0.003204345703125,0.672637939453125,0.739471435546875,0.026458740234375,-0.18310546875,-0.1220703125,0.18310546875,0.0272216796875,0.04150390625,-1.0126953125,225.0,115.0,-91.0,101444.0,-0.9960000514984131,0,0
82.051997,0.003204345703125,0.672637939453125,0.739471435546875,0.026458740234375,-0.42724609375,-0.30517578125,-0.06103515625,0.02978515625,0.0433349609375,-1.0140380859375,225.0,115.0,-91.0,101444.0,-0.9960000514984131,0,0
82.058996,0.003204345703125,0.672637939453125,0.739471435546875,0.026458740234375,-0.42724609375,0.244140625,0.18310546875,0.02880859375,0.042724609375,-1.0145263671875,225.0,115.0,-91.0,101444.0,-0.9960000514984131,0,0
82.065996,0.00323486328125,0.672637939453125,0.739471435546875,0.02642822265625,0.0,-0.1220703125,0.1220703125,0.0299072265625,0.0430908203125,-1.01220703125,225.0,115.0,-91.0,101444.0,-0.9960000514984131,0,0
82.072995,0.00323486328125,0.672637939453125,0.739471435546875,0.02642822265625,0.48828125,0.18310546875,0.42724609375,0.0302734375,0.04052734375,-1.0101318359375,225.0,115.0,-91.0,101444.0,-0.9960000514984131,0,0
82.079996,0.00323486328125,0.672637939453125,0.739471435546875,0.02642822265625,-0.732421875,-0.244140625,0.06103515625,0.031494140625,0.0439453125,-1.0137939453125,225.0,115.0,-91.0,101444.0,-0.9960000514984131,0,0
82.086027,0.00323486328125,0.672637939453125,0.739471435546875,0.02642822265625,-0.732421875,-0.244140625,0.06103515625,0.031494140625,0.0439453125,-1.0137939453125,225.0,115.0,-91.0,101444.0,-0.9960000514984131,0,0
82.106996,0.003021240234375,0.665985107421875,0.745452880859375,0.026397705078125,-0.06103515625,0.18310546875,-0.06103515625,0.0283203125,0.043212890625,-1.0120849609375,232.0,113.0,-96.0,101444.0,-0.9960000514984131,0,0
82.113995,0.003021240234375,0.665985107421875,0.745452880859375,0.026397705078125,-0.244140625,0.06103515625,0.0,0.027099609375,0.0435791015625,-1.0147705078125,232.0,113.0,-96.0,101444.0,-0.9960000514984131,0,0
82.120994,0.0030517578125,0.665985107421875,0.745452880859375,0.0263671875,-0.06103515625,0.0,-0.18310546875,0.0279541015625,0.0418701171875,-1.012451171875,232.0,113.0,-96.0,101444.0,-0.9960000514984131,0,0
82.127998,0.003082275390625,0.665985107421875,0.745452880859375,0.0263671875,-0.06103515625,-0.1220703125,0.1220703125,0.029296875,0.044189453125,-1.013916015625,232.0,113.0,-96.0,101444.0,-0.9960000514984131,0,0
82.134998,0.003082275390625,0.665985107421875,0.745452880859375,0.0263671875,0.06103515625,0.06103515625,0.30517578125,0.025390625,0.0433349609375,-1.0133056640625,232.0,113.0,-96.0,101444.0,-0.9960000514984131,0,0
82.141997,0.003082275390625,0.665985107421875,0.745452880859375,0.026336669921875,-0.06103515625,0.18310546875,-0.06103515625,0.02734375,0.0458984375,-1.013671875,232.0,113.0,-96.0,101446.0,-1.0080000162124634,0,0
82.148996,0.00311279296875,0.665985107421875,0.745452880859375,0.026336669921875,0.3662109375,0.06103515625,0.30517578125,0.0264892578125,0.0440673828125,-1.01318359375,232.0,113.0,-96.0,101446.0,-1.0080000162124634,0,0
82.155996,0.00311279296875,0.665985107421875,0.745452880859375,0.02630615234375,-0.244140625,0.0,0.1220703125,0.029296875,0.0445556640625,-1.014892578125,232.0,113.0,-96.0,101446.0,-1.0080000162124634,0,0
82.162995,0.00311279296875,0.665985107421875,0.745452880859375,0.02630615234375,-0.1220703125,0.0,0.18310546875,0.0284423828125,0.0439453125,-1.0157470703125,232.0,113.0,-96.0,101446.0,-1.0080000162124634,0,0
82.17,0.00311279296875,0.665985107421875,0.745452880859375,0.02630615234375,-0.1220703125,-0.06103515625,0.1220703125,0.0303955078125,0.04052734375,-1.014404296875,232.0,113.0,-96.0,101446.0,-1.0080000162124634,0,0
82.176999,0.00311279296875,0.665985107421875,0.745452880859375,0.026275634765625,-0.06103515625,-0.06103515625,0.0,0.029541015625,0.0445556640625,-1.0164794921875,232.0,113.0,-96.0,101446.0,-1.0080000162124634,0,0
82.183032,0.00311279296875,0.665985107421875,0.745452880859375,0.026275634765625,-0.06103515625,-0.06103515625,0.0,0.029541015625,0.0445556640625,-1.0164794921875,232.0,113.0,-96.0,101446.0,-1.0080000162124634,0,0
82.189996,0.00311279296875,0.665985107421875,0.745452880859375,0.026275634765625,-0.06103515625,0.0,-0.06103515625,0.03173828125,0.0419921875,-1.01611328125,232.0,113.0,-96.0,101446.0,-1.0080000162124634,0,0
82.197,0.00286865234375,0.659881591796875,0.750885009765625,0.026275634765625,-0.18310546875,0.244140625,0.0,0.02978515625,0.041015625,-1.012939453125,237.0,111.0,-101.0,101446.0,-1.0080000162124634,0,0
82.203999,0.002899169921875,0.659881591796875,0.750885009765625,0.026275634765625,-0.1220703125,0.0,0.244140625,0.02880859375,0.0433349609375,-1.0128173828125,237.0,111.0,-101.0,101446.0,-1.0080000162124634,0,0
82.210999,0.00286865234375,0.659881591796875,0.750885009765625,0.026275634765625,-0.18310546875,0.18310546875,-0.18310546875,0.02978515625,0.0430908203125,-1.0133056640625,237.0,111.0,-101.0,101446.0,-1.0080000162124634,0,0
82.217998,0.002899169921875,0.659881591796875,0.750885009765625,0.0262451171875,-0.18310546875,0.18310546875,-0.1220703125,0.0296630859375,0.0435791015625,-1.0146484375,237.0,111.0,-101.0,101446.0,-1.0080000162124634,0,0
82.224998,0.002899169921875,0.659881591796875,0.750885009765625,0.0262451171875,0.0,0.06103515625,0.0,0.0286865234375,0.0423583984375,-1.01220703125,237.0,111.0,-101.0,101446.0,-1.0080000162124634,0,0
82.231997,0.002899169921875,0.659881591796875,0.750885009765625,0.026214599609375,0.0,-0.1220703125,-0.06103515625,0.02734375,0.0439453125,-1.01513671875,237.0,111.0,-101.0,101446.0,-1.0080000162124634,0,0
82.238996,0.002899169921875,0.659881591796875,0.750885009765625,0.026214599609375,0.0,0.18310546875,-0.18310546875,0.02880859375,0.0421142578125,-1.0142822265625,237.0,111.0,-101.0,101446.0,-1.0080000162124634,0,0
82.245996,0.0029296875,0.659881591796875,0.750885009765625,0.026214599609375,0.0,0.1220703125,0.06103515625,0.0274658203125,0.044677734375,-1.01513671875,237.0,111.0,-101.0,101445.0,-0.999000072479248,0,0
82.252996,0.002899169921875,0.659881591796875,0.750885009765625,0.02618408203125,-0.244140625,0.0,0.06103515625,0.02880859375,0.046630859375,-1.0152587890625,237.0,111.0,-101.0,101445.0,-0.999000072479248,0,0
82.259996,0.0029296875,0.659881591796875,0.750885009765625,0.02618408203125,0.1220703125,0.30517578125,-0.06103515625,0.027587890625,0.044677734375,-1.0152587890625,237.0,111.0,-101.0,101445.0,-0.999000072479248,0,0
82.279995,0.0029296875,0.659881591796875,0.750885009765625,0.026153564453125,0.1220703125,0.06103515625,-0.06103515625,0.0301513671875,0.0426025390625,-1.016845703125,237.0,111.0,-101.0,101445.0,-0.999000072479248,0,0
82.286996,0.0029296875,0.659881591796875,0.750885009765625,0.026123046875,0.0,-0.06103515625,0.06103515625,0.0296630859375,0.0435791015625,-1.0145263671875,237.0,111.0,-101.0,101445.0,-0.999000072479248,0,0
82.293995,0.0029296875,0.659881591796875,0.750885009765625,0.026123046875,0.18310546875,0.06103515625,-0.1220703125,0.026611328125,0.0411376953125,-1.015380859375,242.0,106.0,-104.0,101445.0,-0.999000072479248,0,0
82.300994,0.00274658203125,0.654541015625,0.75555419921875,0.026123046875,0.06103515625,0.0,-0.30517578125,0.0302734375,0.0418701171875,-1.0140380859375,242.0,106.0,-104.0,101445.0,-0.999000072479248,0,0
82.307998,0.00274658203125,0.654541015625,0.75555419921875,0.026123046875,-0.18310546875,0.06103515625,0.0,0.027587890625,0.0428466796875,-1.0146484375,242.0,106.0,-104.0,101445.0,-0.999000072479248,0,0
82.314998,0.002777099609375,0.654541015625,0.75555419921875,0.026123046875,0.1220703125,0.244140625,0.244140625,0.0289306640625,0.045654296875,-1.0152587890625,242.0,106.0,-104.0,101445.0,-0.999000072479248,0,0
82.321997,0.002777099609375,0.654541015625,0.75555419921875,0.026123046875,0.1220703125,0.18310546875,0.30517578125,0.0306396484375,0.042236328125,-1.01513671875,242.0,106.0,-104.0,101445.0,-0.999000072479248,0,0
82.328996,0.002777099609375,0.654541015625,0.75555419921875,0.026123046875,0.18310546875,-0.1220703125,-0.1220703125,0.03076171875,0.0438232421875,-1.0152587890625,242.0,106.0,-104.0,101445.0,-0.999000072479248,0,0
82.335996,0.002777099609375,0.654541015625,0.75555419921875,0.026092529296875,0.0,0.18310546875,-0.06103515625,0.0291748046875,0.0433349609375,-1.0150146484375,242.0,106.0,-104.0,101445.0,-0.999000072479248,0,0
82.342995,0.002777099609375,0.654541015625,0.75555419921875,0.026092529296875,0.18310546875,0.0,-0.1220703125,0.027099609375,0.0445556640625,-1.01708984375,242.0,106.0,-104.0,101446.0,-1.0070000886917114,0,0
82.349996,0.0028076171875,0.654541015625,0.75555419921875,0.026092529296875,0.06103515625,-0.06103515625,0.18310546875,0.0264892578125,0.0438232421875,-1.0135498046875,242.0,106.0,-104.0,101446.0,-1.0070000886917114,0,0
82.370026,0.0028076171875,0.654541015625,0.75555419921875,0.02606201171875,0.1220703125,0.3662109375,-0.06103515625,0.0274658203125,0.0450439453125,-1.01611328125,242.0,106.0,-104.0,101446.0,-1.0070000886917114,0,0
82.376996,0.002838134765625,0.654541015625,0.75555419921875,0.026031494140625,0.18310546875,0.06103515625,-0.3662109375,0.028564453125,0.04052734375,-1.0152587890625,242.0,106.0,-104.0,101446.0,-1.0070000886917114,0,0
82.383995,0.002838134765625,0.654541015625,0.75555419921875,0.026031494140625,-0.18310546875,0.0,-0.06103515625,0.02734375,0.0458984375,-1.0140380859375,242.0,106.0,-104.0,101446.0,-1.0070000886917114,0,0
82.390994,0.00286865234375,0.654541015625,0.75555419921875,0.026031494140625,0.0,-0.1220703125,0.06103515625,0.0267333984375,0.04345703125,-1.01611328125,242.0,106.0,-104.0,101446.0,-1.0070000886917114,0,0
82.397998,0.002685546875,0.64984130859375,0.759613037109375,0.026031494140625,0.0,-0.06103515625,0.0,0.0279541015625,0.04150390625,-1.0155029296875,246.0,102.0,-108.0,101446.0,-1.0070000886917114,0,0
82.404998,0.002716064453125,0.64984130859375,0.759613037109375,0.026031494140625,-0.06103515625,0.30517578125,0.06103515625,0.0296630859375,0.0452880859375,-1.0164794921875,246.0,102.0,-108.0,101446.0,-1.0070000886917114,0,0
82.411997,0.002685546875,0.64984130859375,0.759613037109375,0.0260009765625,-0.18310546875,-0.06103515625,-0.06103515625,0.0313720703125,0.04248046875,-1.014892578125,246.0,102.0,-108.0,101446.0,-1.0070000886917114,0,0
82.418996,0.002685546875,0.64984130859375,0.759613037109375,0.026031494140625,-0.1220703125,0.244140625,0.06103515625,0.03173828125,0.04296875,-1.012939453125,246.0,102.0,-108.0,101446.0,-1.0070000886917114,0,0
82.425996,0.002685546875,0.64984130859375,0.759613037109375,0.0260009765625,-0.30517578125,0.18310546875,0.42724609375,0.0294189453125,0.043212890625,-1.0155029296875,246.0,102.0,-108.0,101446.0,-1.0070000886917114,0,0
82.432995,0.002685546875,0.64984130859375,0.759613037109375,0.0260009765625,-0.244140625,-0.18310546875,0.1220703125,0.0306396484375,0.04296875,-1.015625,246.0,102.0,-108.0,101446.0,-1.0070000886917114,0,0
82.439996,0.002685546875,0.64984130859375,0.759613037109375,0.0260009765625,0.06103515625,-0.06103515625,0.18310546875,0.0286865234375,0.0457763671875,-1.0150146484375,246.0,102.0,-108.0,101445.0,-1.0,0,0
82.446995,0.002685546875,0.64984130859375,0.759613037109375,0.0260009765625,-0.244140625,0.1220703125,0.1220703125,0.029052734375,0.043212890625,-1.013671875,246.0,102.0,-108.0,101445.0,-1.0,0,0
82.453994,0.002685546875,0.64984130859375,0.759613037109375,0.025970458984375,0.6103515625,0.06103515625,0.1220703125,0.0296630859375,0.0445556640625,-1.0146484375,246.0,102.0,-108.0,101445.0,-1.0,0,0
82.460026,0.002685546875,0.64984130859375,0.759613037109375,0.025970458984375,0.6103515625,0.06103515625,0.1220703125,0.0296630859375,0.0445556640625,-1.0146484375,246.0,102.0,-108.0,101445.0,-1.0,0,0
82.467,0.002685546875,0.64984130859375,0.759613037109375,0.025970458984375,-0.18310546875,0.0,0.06103515625,0.0284423828125,0.043701171875,-1.0155029296875,246.0,102.0,-108.0,101445.0,-1.0,0,0
82.473999,0.002716064453125,0.64984130859375,0.759613037109375,0.02593994140625,-0.06103515625,0.244140625,-0.18310546875,0.0286865234375,0.0439453125,-1.015869140625,246.0,102.0,-108.0,101445.0,-1.0,0,0
82.480999,0.002716064453125,0.64984130859375,0.759613037109375,0.02593994140625,0.06103515625,0.0,0.244140625,0.0284423828125,0.0439453125,-1.01611328125,246.0,102.0,-108.0,101445.0,-1.0,0,0
82.487998,0.002716064453125,0.64984130859375,0.759613037109375,0.02593994140625,-0.42724609375,-0.244140625,-0.18310546875,0.026123046875,0.0433349609375,-1.0155029296875,246.0,102.0,-108.0,101445.0,-1.0,0,0
82.494998,0.002716064453125,0.64984130859375,0.759613037109375,0.02593994140625,0.06103515625,0.06103515625,-0.1220703125,0.02783203125,0.0430908203125,-1.015625,248.0,100.0,-110.0,101445.0,-1.0,0,0
82.501997,0.002593994140625,0.645477294921875,0.7633056640625,0.02593994140625,0.1220703125,-0.06103515625,0.1220703125,0.026123046875,0.04443359375,-1.0152587890625,248.0,100.0,-110.0,101445.0,-1.0,0,0
82.508996,0.002593994140625,0.645477294921875,0.7633056640625,0.02593994140625,0.06103515625,0.244140625,0.0,0.026611328125,0.0443115234375,-1.0146484375,248.0,100.0,-110.0,101445.0,-1.0,0,0
82.515996,0.002593994140625,0.645477294921875,0.7633056640625,0.02593994140625,-0.244140625,0.0,0.06103515625,0.030029296875,0.0438232421875,-1.0166015625,248.0,100.0,-110.0,101445.0,-1.0,0,0
82.522996,0.002593994140625,0.645477294921875,0.7633056640625,0.02593994140625,0.06103515625,0.1220703125,0.0,0.03173828125,0.041259765625,-1.0152587890625,248.0,100.0,-110.0,101445.0,-1.0,0,0
82.543999,0.0025634765625,0.645477294921875,0.7633056640625,0.02587890625,0.6103515625,0.0,-0.06103515625,0.030029296875,0.041748046875,-1.015869140625,248.0,100.0,-110.0,101446.0,-1.0070000886917114,0,0
82.550998,0.0025634765625,0.645477294921875,0.7633056640625,0.025848388671875,-0.18310546875,0.0,0.0,0.0291748046875,0.0416259765625,-1.0147705078125,248.0,100.0,-110.0,101446.0,-1.0070000886917114,0,0
82.557026,0.0025634765625,0.645477294921875,0.7633056640625,0.025848388671875,-0.18310546875,0.0,0.0,0.0291748046875,0.0416259765625,-1.0147705078125,248.0,100.0,-110.0,101446.0,-1.0070000886917114,0,0
82.563995,0.002532958984375,0.645477294921875,0.7633056640625,0.02581787109375,0.8544921875,0.1220703125,0.1220703125,0.0286865234375,0.044921875,-1.0164794921875,248.0,100.0,-110.0,101446.0,-1.0070000886917114,0,0
82.570994,0.0025634765625,0.645477294921875,0.7633056640625,0.02581787109375,0.42724609375,0.06103515625,0.244140625,0.0283203125,0.0438232421875,-1.0142822265625,248.0,100.0,-110.0,101446.0,-1.0070000886917114,0,0
82.577998,0.0025634765625,0.645477294921875,0.7633056640625,0.02581787109375,-0.06103515625,0.18310546875,0.30517578125,0.026611328125,0.0452880859375,-1.017578125,248.0,100.0,-110.0,101446.0,-1.0070000886917114,0,0
82.584998,0.0025634765625,0.645477294921875,0.7633056640625,0.025787353515625,0.244140625,0.1220703125,-0.06103515625,0.0299072265625,0.042724609375,-1.01611328125,248.0,100.0,-110.0,101446.0,-1.0070000886917114,0,0
82.591997,0.0025634765625,0.645477294921875,0.7633056640625,0.025787353515625,-0.54931640625,0.3662109375,0.0,0.0289306640625,0.04345703125,-1.017333984375,248.0,100.0,-110.0,101446.0,-1.0070000886917114,0,0
82.598996,0.00244140625,0.641510009765625,0.766632080078125,0.02581787109375,-0.1220703125,0.30517578125,0.06103515625,0.0289306640625,0.0430908203125,-1.016357421875,249.0,99.0,-109.0,101446.0,-1.0070000886917114,0,0
82.605996,0.00244140625,0.641510009765625,0.766632080078125,0.02581787109375,0.1220703125,0.244140625,-0.30517578125,0.031982421875,0.04296875,-1.0137939453125,249.0,99.0,-109.0,101446.0,-1.0070000886917114,0,0
82.626995,0.00244140625,0.641510009765625,0.766632080078125,0.025787353515625,0.0,0.1220703125,0.48828125,0.0274658203125,0.0428466796875,-1.0147705078125,249.0,99.0,-109.0,101446.0,-1.0070000886917114,0,0
82.633994,0.00244140625,0.641510009765625,0.766632080078125,0.025787353515625,0.06103515625,0.18310546875,0.1220703125,0.0291748046875,0.0423583984375,-1.01953125,249.0,99.0,-109.0,101446.0,-1.0070000886917114,0,0
82.640998,0.00244140625,0.641510009765625,0.76666259765625,0.025787353515625,0.0,0.06103515625,-0.06103515625,0.0289306640625,0.044921875,-1.0162353515625,249.0,99.0,-109.0,101446.0,-1.0070000886917114,0,0
82.647026,0.00244140625,0.641510009765625,0.76666259765625,0.025787353515625,0.0,0.06103515625,-0.06103515625,0.0289306640625,0.044921875,-1.0162353515625,249.0,99.0,-109.0,101446.0,-1.0070000886917114,0,0
82.653995,0.00244140625,0.641510009765625,0.76666259765625,0.0257568359375,0.0,-0.06103515625,-0.18310546875,0.030029296875,0.0419921875,-1.014892578125,249.0,99.0,-109.0,101446.0,-1.0070000886917114,0,0
82.660994,0.002471923828125,0.641510009765625,0.76666259765625,0.0257568359375,0.1220703125,0.06103515625,0.0,0.0267333984375,0.044921875,-1.0150146484375,249.0,99.0,-109.0,101446.0,-1.0070000886917114,0,0
82.667998,0.002471923828125,0.641510009765625,0.76666259765625,0.0257568359375,-0.244140625,0.30517578125,0.3662109375,0.02587890625,0.0445556640625,-1.0157470703125,249.0,99.0,-109.0,101446.0,-1.0070000886917114,0,0
82.674998,0.00250244140625,0.641510009765625,0.76666259765625,0.0257568359375,0.48828125,0.06103515625,0.1220703125,0.028564453125,0.0479736328125,-1.015380859375,249.0,99.0,-109.0,101446.0,-1.0070000886917114,0,0
82.681997,0.00250244140625,0.641510009765625,0.76666259765625,0.0257568359375,-0.06103515625,0.0,0.18310546875,0.0283203125,0.0421142578125,-1.0164794921875,249.0,99.0,-109.0,101446.0,-1.0070000886917114,0,0
82.688996,0.00250244140625,0.641510009765625,0.76666259765625,0.0257568359375,0.30517578125,0.18310546875,-0.06103515625,0.0291748046875,0.04150390625,-1.015869140625,249.0,99.0,-109.0,101446.0,-1.0070000886917114,0,0
82.695996,0.00250244140625,0.641510009765625,0.76666259765625,0.025726318359375,-0.244140625,-0.06103515625,-0.06103515625,0.028076171875,0.0426025390625,-1.017822265625,250.0,98.0,-109.0,101445.0,-1.003000020980835,0,0
82.702995,0.00238037109375,0.6378173828125,0.76971435546875,0.025726318359375,0.06103515625,0.244140625,-0.18310546875,0.0279541015625,0.044189453125,-1.0155029296875,250.0,98.0,-109.0,101445.0,-1.003000020980835,0,0
82.709996,0.00238037109375,0.6378173828125,0.76971435546875,0.025726318359375,0.1220703125,0.0,0.0,0.0299072265625,0.0391845703125,-1.0167236328125,250.0,98.0,-109.0,101445.0,-1.003000020980835,0,0
82.716995,0.002349853515625,0.6378173828125,0.76971435546875,0.025726318359375,-0.3662109375,-0.06103515625,0.1220703125,0.0296630859375,0.041015625,-1.013916015625,250.0,98.0,-109.0,101445.0,-1.003000020980835,0,0
82.723994,0.002349853515625,0.6378173828125,0.76971435546875,0.025726318359375,0.1220703125,-0.18310546875,-0.06103515625,0.0302734375,0.042724609375,-1.0166015625,250.0,98.0,-109.0,101445.0,-1.003000020980835,0,0
82.730998,0.002349853515625,0.6378173828125,0.76971435546875,0.025726318359375,0.0,-0.06103515625,0.18310546875,0.030029296875,0.043212890625,-1.015869140625,250.0,98.0,-109.0,101445.0,-1.003000020980835,0,0
82.737998,0.002349853515625,0.6378173828125,0.76971435546875,0.025726318359375,0.0,0.30517578125,0.0,0.0296630859375,0.044189453125,-1.015380859375,250.0,98.0,-109.0,101445.0,-1.003000020980835,0,0
82.74403,0.002349853515625,0.6378173828125,0.76971435546875,0.025726318359375,0.0,0.30517578125,0.0,0.0296630859375,0.044189453125,-1.015380859375,250.0,98.0,-109.0,101445.0,-1.003000020980835,0,0
82.750994,0.002349853515625,0.6378173828125,0.76971435546875,0.025726318359375,-0.18310546875,0.18310546875,0.244140625,0.031494140625,0.044921875,-1.0155029296875,250.0,98.0,-109.0,101445.0,-1.003000020980835,0,0
82.757998,0.002349853515625,0.6378173828125,0.76971435546875,0.025726318359375,0.18310546875,-0.06103515625,-0.1220703125,0.02880859375,0.0430908203125,-1.016845703125,250.0,98.0,-109.0,101445.0,-1.003000020980835,0,0
82.764998,0.002349853515625,0.6378173828125,0.76971435546875,0.025726318359375,-0.06103515625,0.06103515625,-0.1220703125,0.0294189453125,0.0423583984375,-1.0162353515625,250.0,98.0,-109.0,101445.0,-1.003000020980835,0,0
82.771997,0.002349853515625,0.6378173828125,0.76971435546875,0.025726318359375,0.06103515625,0.244140625,-0.06103515625,0.0286865234375,0.0435791015625,-1.015625,250.0,98.0,-109.0,101445.0,-1.003000020980835,0,0
82.778996,0.002349853515625,0.6378173828125,0.76971435546875,0.02569580078125,-0.54931640625,-0.1220703125,0.18310546875,0.02587890625,0.0416259765625,-1.015869140625,250.0,98.0,-109.0,101445.0,-1.003000020980835,0,0
82.8,0.002288818359375,0.634246826171875,0.772674560546875,0.025665283203125,0.0,0.06103515625,-0.1220703125,0.0263671875,0.04248046875,-1.014892578125,250.0,98.0,-109.0,101446.0,-1.0070000886917114,0,0
82.806999,0.002288818359375,0.634246826171875,0.772674560546875,0.02569580078125,0.0,-0.06103515625,0.06103515625,0.02783203125,0.0469970703125,-1.015625,250.0,98.0,-109.0,101446.0,-1.0070000886917114,0,0
82.813999,0.002288818359375,0.634246826171875,0.772674560546875,0.025665283203125,0.06103515625,0.18310546875,0.0,0.02734375,0.0450439453125,-1.014404296875,250.0,98.0,-109.0,101446.0,-1.0070000886917114,0,0
82.820998,0.002288818359375,0.634246826171875,0.772674560546875,0.02569580078125,-0.30517578125,-0.3662109375,0.0,0.031005859375,0.044921875,-1.0179443359375,250.0,98.0,-109.0,101446.0,-1.0070000886917114,0,0
82.827998,0.002288818359375,0.634246826171875,0.772674560546875,0.02569580078125,0.06103515625,0.06103515625,0.0,0.030517578125,0.0445556640625,-1.0167236328125,250.0,98.0,-109.0,101446.0,-1.0070000886917114,0,0
82.83403,0.002288818359375,0.634246826171875,0.772674560546875,0.02569580078125,0.06103515625,0.06103515625,0.0,0.030517578125,0.0445556640625,-1.0167236328125,250.0,98.0,-109.0,101446.0,-1.0070000886917114,0,0
82.840999,0.002288818359375,0.634246826171875,0.772674560546875,0.02569580078125,0.06103515625,0.0,-0.1220703125,0.0301513671875,0.0440673828125,-1.0147705078125,250.0,98.0,-109.0,101446.0,-1.0070000886917114,0,0
82.847998,0.002288818359375,0.634246826171875,0.772674560546875,0.025665283203125,-0.06103515625,-0.06103515625,0.0,0.028564453125,0.041015625,-1.01513671875,250.0,98.0,-109.0,101446.0,-1.0070000886917114,0,0
82.854998,0.002288818359375,0.634246826171875,0.772674560546875,0.025665283203125,-0.1220703125,0.0,0.18310546875,0.03125,0.0390625,-1.014892578125,250.0,98.0,-109.0,101446.0,-1.0070000886917114,0,0
82.861997,0.002288818359375,0.634246826171875,0.772674560546875,0.025665283203125,0.244140625,0.18310546875,-0.06103515625,0.029541015625,0.043701171875,-1.018798828125,250.0,98.0,-109.0,101446.0,-1.0070000886917114,0,0
82.868996,0.002288818359375,0.634246826171875,0.772674560546875,0.025665283203125,0.30517578125,0.06103515625,0.244140625,0.029296875,0.04296875,-1.0162353515625,250.0,98.0,-109.0,101446.0,-1.0070000886917114,0,0
82.889996,0.002288818359375,0.63427734375,0.772674560546875,0.025634765625,0.1220703125,0.18310546875,0.1220703125,0.0296630859375,0.0428466796875,-1.015380859375,250.0,98.0,-109.0,101446.0,-1.0070000886917114,0,0
82.896995,0.002288818359375,0.63427734375,0.772674560546875,0.025634765625,0.06103515625,-0.1220703125,0.0,0.0277099609375,0.0445556640625,-1.015380859375,249.0,97.0,-111.0,101445.0,-1.0040000677108765,0,0
82.903994,0.002166748046875,0.63092041015625,0.775390625,0.025634765625,0.3662109375,0.06103515625,0.30517578125,0.02783203125,0.0428466796875,-1.016845703125,249.0,97.0,-111.0,101445.0,-1.0040000677108765,0,0
82.910998,0.002197265625,0.63092041015625,0.775390625,0.025634765625,-0.18310546875,-0.1220703125,0.18310546875,0.0263671875,0.046142578125,-1.016845703125,249.0,97.0,-111.0,101445.0,-1.0040000677108765,0,0
82.917998,0.002197265625,0.63092041015625,0.775390625,0.025634765625,-0.30517578125,0.06103515625,0.06103515625,0.0274658203125,0.0428466796875,-1.0166015625,249.0,97.0,-111.0,101445.0,-1.0040000677108765,0,0
82.924997,0.002227783203125,0.63092041015625,0.775390625,0.025634765625,0.06103515625,0.06103515625,0.0,0.02490234375,0.0440673828125,-1.016357421875,249.0,97.0,-111.0,101445.0,-1.0040000677108765,0,0
82.931025,0.002227783203125,0.63092041015625,0.775390625,0.025634765625,0.06103515625,0.06103515625,0.0,0.02490234375,0.0440673828125,-1.016357421875,249.0,97.0,-111.0,101445.0,-1.0040000677108765,0,0
82.937998,0.002227783203125,0.63092041015625,0.775390625,0.025634765625,0.0,0.06103515625,0.1220703125,0.0296630859375,0.043701171875,-1.015869140625,249.0,97.0,-111.0,101445.0,-1.0040000677108765,0,0
82.944998,0.002227783203125,0.63092041015625,0.775390625,0.025634765625,-0.42724609375,-0.244140625,-0.1220703125,0.02978515625,0.0438232421875,-1.0164794921875,249.0,97.0,-111.0,101445.0,-1.0040000677108765,0,0
82.951997,0.002227783203125,0.63092041015625,0.775390625,0.025634765625,-0.6103515625,-0.06103515625,-0.244140625,0.029052734375,0.04345703125,-1.01708984375,249.0,97.0,-111.0,101445.0,-1.0040000677108765,0,0
82.958996,0.002227783203125,0.63092041015625,0.775390625,0.025634765625,0.1220703125,-0.06103515625,-0.244140625,0.030029296875,0.042724609375,-1.0155029296875,249.0,97.0,-111.0,101445.0,-1.0040000677108765,0,0
82.965996,0.002227783203125,0.63092041015625,0.775390625,0.025634765625,-0.1220703125,0.06103515625,-0.1220703125,0.028564453125,0.0428466796875,-1.0157470703125,249.0,97.0,-111.0,101445.0,-1.0040000677108765,0,0
82.972995,0.002227783203125,0.63092041015625,0.775390625,0.025604248046875,0.1220703125,-0.06103515625,-0.06103515625,0.026611328125,0.0433349609375,-1.0164794921875,249.0,97.0,-111.0,101445.0,-1.0040000677108765,0,0
82.979996,0.002227783203125,0.63092041015625,0.775390625,0.025604248046875,0.06103515625,0.0,0.0,0.0289306640625,0.0428466796875,-1.0166015625,249.0,97.0,-111.0,101445.0,-1.0040000677108765,0,0
82.986995,0.002227783203125,0.63092041015625,0.775390625,0.025604248046875,0.0,0.18310546875,-0.18310546875,0.0289306640625,0.0445556640625,-1.0159912109375,249.0,97.0,-111.0,101445.0,-1.0040000677108765,0,0
82.993994,0.00225830078125,0.63092041015625,0.775390625,0.025634765625,-0.732421875,0.18310546875,0.18310546875,0.0279541015625,0.0452880859375,-1.0169677734375,248.0,96.0,-111.0,101445.0,-1.00600004196167,0,0
83.000998,0.00213623046875,0.62774658203125,0.777984619140625,0.025634765625,-0.244140625,0.1220703125,0.0,0.0302734375,0.0438232421875,-1.017333984375,248.0,96.0,-111.0,101445.0,-1.00600004196167,0,0
83.007998,0.00213623046875,0.62774658203125,0.777984619140625,0.025634765625,-0.06103515625,0.06103515625,0.1220703125,0.0296630859375,0.04248046875,-1.0162353515625,248.0,96.0,-111.0,101445.0,-1.00600004196167,0,0
83.014997,0.002166748046875,0.62774658203125,0.777984619140625,0.025634765625,0.1220703125,0.0,-0.06103515625,0.0260009765625,0.0445556640625,-1.0159912109375,248.0,96.0,-111.0,101445.0,-1.00600004196167,0,0
83.021024,0.002166748046875,0.62774658203125,0.777984619140625,0.025634765625,0.1220703125,0.0,-0.06103515625,0.0260009765625,0.0445556640625,-1.0159912109375,248.0,96.0,-111.0,101445.0,-1.00600004196167,0,0
83.027998,0.002166748046875,0.62774658203125,0.777984619140625,0.025604248046875,0.06103515625,0.1220703125,0.0,0.0284423828125,0.0428466796875,-1.0137939453125,248.0,96.0,-111.0,101445.0,-1.00600004196167,0,0
83.034998,0.002197265625,0.62774658203125,0.777984619140625,0.025604248046875,-0.3662109375,0.244140625,-0.244140625,0.0283203125,0.041259765625,-1.0162353515625,248.0,96.0,-111.0,101445.0,-1.00600004196167,0,0
83.041997,0.002197265625,0.62774658203125,0.777984619140625,0.025604248046875,0.18310546875,-0.06103515625,0.0,0.0281982421875,0.0455322265625,-1.017578125,248.0,96.0,-111.0,101445.0,-1.00600004196167,0,0
83.062996,0.002227783203125,0.62774658203125,0.777984619140625,0.025604248046875,0.06103515625,0.06103515625,-0.3662109375,0.0286865234375,0.0433349609375,-1.015380859375,248.0,96.0,-111.0,101445.0,-1.00600004196167,0,0
83.07,0.002227783203125,0.62774658203125,0.777984619140625,0.025604248046875,-0.06103515625,0.06103515625,-0.30517578125,0.028076171875,0.0457763671875,-1.017333984375,248.0,96.0,-111.0,101445.0,-1.00600004196167,0,0
83.076999,0.002227783203125,0.62774658203125,0.777984619140625,0.025634765625,0.1220703125,-0.244140625,0.0,0.028564453125,0.0443115234375,-1.0157470703125,248.0,96.0,-111.0,101445.0,-1.00600004196167,0,0
83.083999,0.002227783203125,0.62774658203125,0.777984619140625,0.025634765625,-0.06103515625,0.0,0.1220703125,0.0308837890625,0.04296875,-1.0147705078125,248.0,96.0,-111.0,101445.0,-1.00600004196167,0,0
83.090998,0.002197265625,0.62774658203125,0.777984619140625,0.025634765625,0.1220703125,0.0,0.1220703125,0.03076171875,0.0419921875,-1.0167236328125,248.0,96.0,-111.0,101445.0,-1.00600004196167,0,0
83.097998,0.002105712890625,0.62457275390625,0.780517578125,0.025634765625,-0.42724609375,0.06103515625,0.1220703125,0.030517578125,0.04248046875,-1.0162353515625,248.0,97.0,-110.0,101446.0,-1.0070000886917114,0,0
83.104997,0.002105712890625,0.62457275390625,0.780517578125,0.025634765625,-0.1220703125,0.1220703125,0.18310546875,0.029541015625,0.0428466796875,-1.017578125,248.0,97.0,-110.0,101446.0,-1.0070000886917114,0,0
83.111996,0.0020751953125,0.62457275390625,0.780517578125,0.025634765625,-0.1220703125,-0.06103515625,0.06103515625,0.0302734375,0.044189453125,-1.0159912109375,248.0,97.0,-110.0,101446.0,-1.0070000886917114,0,0
83.118029,0.0020751953125,0.62457275390625,0.780517578125,0.025634765625,-0.1220703125,-0.06103515625,0.06103515625,0.0302734375,0.044189453125,-1.0159912109375,248.0,97.0,-110.0,101446.0,-1.0070000886917114,0,0
83.124998,0.002105712890625,0.62457275390625,0.780517578125,0.025604248046875,0.06103515625,0.06103515625,0.0,0.0283203125,0.0440673828125,-1.0174560546875,248.0,97.0,-110.0,101446.0,-1.0070000886917114,0,0
83.131997,0.002105712890625,0.62457275390625,0.780517578125,0.025604248046875,0.18310546875,-0.06103515625,0.06103515625,0.0281982421875,0.0440673828125,-1.0174560546875,248.0,97.0,-110.0,101446.0,-1.0070000886917114,0,0
83.152996,0.002105712890625,0.62457275390625,0.780517578125,0.025604248046875,-0.54931640625,-0.1220703125,0.1220703125,0.028076171875,0.04296875,-1.01611328125,248.0,97.0,-110.0,101446.0,-1.0070000886917114,0,0
83.159996,0.002105712890625,0.62457275390625,0.780517578125,0.025604248046875,0.06103515625,0.0,-0.06103515625,0.0296630859375,0.043212890625,-1.01513671875,248.0,97.0,-110.0,101446.0,-1.0070000886917114,0,0
83.166995,0.002105712890625,0.62457275390625,0.780517578125,0.025604248046875,0.06103515625,0.06103515625,-0.06103515625,0.0284423828125,0.0438232421875,-1.0181884765625,248.0,97.0,-110.0,101446.0,-1.0070000886917114,0,0
83.173994,0.002105712890625,0.62457275390625,0.780517578125,0.025604248046875,-0.48828125,0.0,-0.06103515625,0.030029296875,0.04345703125,-1.0145263671875,248.0,97.0,-110.0,101446.0,-1.0070000886917114,0,0
83.180998,0.002105712890625,0.62457275390625,0.780517578125,0.025604248046875,0.0,0.244140625,0.06103515625,0.0301513671875,0.0438232421875,-1.0164794921875,248.0,97.0,-110.0,101446.0,-1.0070000886917114,0,0
83.187998,0.002105712890625,0.62457275390625,0.780517578125,0.025604248046875,0.30517578125,0.06103515625,-0.18310546875,0.0274658203125,0.0421142578125,-1.015869140625,248.0,97.0,-110.0,101446.0,-1.0070000886917114,0,0
83.194997,0.002105712890625,0.62457275390625,0.780517578125,0.02557373046875,0.1220703125,0.06103515625,0.1220703125,0.029052734375,0.042236328125,-1.017578125,248.0,97.0,-110.0,101446.0,-1.0070000886917114,0,0
83.201996,0.00201416015625,0.62164306640625,0.7828369140625,0.025604248046875,0.06103515625,0.0,-0.06103515625,0.029052734375,0.044677734375,-1.01806640625,249.0,97.0,-109.0,101446.0,-1.0070000886917114,0,0
83.208029,0.00201416015625,0.62164306640625,0.7828369140625,0.025604248046875,0.06103515625,0.0,-0.06103515625,0.029052734375,0.044677734375,-1.01806640625,249.0,97.0,-109.0,101446.0,-1.0070000886917114,0,0
83.214998,0.00201416015625,0.62164306640625,0.7828369140625,0.025604248046875,0.244140625,0.244140625,-0.06103515625,0.027587890625,0.0435791015625,-1.0157470703125,249.0,97.0,-109.0,101446.0,-1.0070000886917114,0,0
83.221997,0.002044677734375,0.62164306640625,0.7828369140625,0.025604248046875,0.1220703125,0.1220703125,0.06103515625,0.0277099609375,0.0443115234375,-1.0164794921875,249.0,97.0,-109.0,101446.0,-1.0070000886917114,0,0
83.228996,0.00201416015625,0.62164306640625,0.7828369140625,0.02557373046875,0.48828125,0.0,-0.06103515625,0.027587890625,0.04248046875,-1.017333984375,249.0,97.0,-109.0,101446.0,-1.0070000886917114,0,0
83.235996,0.002044677734375,0.62164306640625,0.7828369140625,0.025604248046875,0.06103515625,-0.18310546875,-0.06103515625,0.0302734375,0.0452880859375,-1.0174560546875,249.0,97.0,-109.0,101446.0,-1.0070000886917114,0,0
83.242995,0.002044677734375,0.62164306640625,0.7828369140625,0.025604248046875,0.06103515625,0.1220703125,-0.244140625,0.0294189453125,0.0443115234375,-1.0172119140625,249.0,97.0,-109.0,101446.0,-1.0070000886917114,0,0
83.249996,0.00201416015625,0.62164306640625,0.7828369140625,0.025604248046875,0.3662109375,-0.06103515625,-0.244140625,0.0303955078125,0.0426025390625,-1.017333984375,249.0,97.0,-109.0,101446.0,-1.0070000886917114,0,0
83.256995,0.002044677734375,0.62164306640625,0.7828369140625,0.025604248046875,0.06103515625,-0.06103515625,-0.244140625,0.027587890625,0.0458984375,-1.016845703125,249.0,97.0,-109.0,101446.0,-1.0070000886917114,0,0
83.263994,0.002044677734375,0.62164306640625,0.7828369140625,0.025604248046875,-0.18310546875,0.0,0.1220703125,0.0274658203125,0.0430908203125,-1.01806640625,249.0,97.0,-109.0,101446.0,-1.0070000886917114,0,0
83.270998,0.002044677734375,0.62164306640625,0.7828369140625,0.025604248046875,-0.244140625,0.0,0.06103515625,0.0264892578125,0.044921875,-1.017333984375,249.0,97.0,-109.0,101446.0,-1.0070000886917114,0,0
83.277998,0.002044677734375,0.62164306640625,0.7828369140625,0.025604248046875,0.30517578125,0.18310546875,-0.30517578125,0.0299072265625,0.045166015625,-1.0179443359375,249.0,97.0,-109.0,101446.0,-1.0070000886917114,0,0
83.284997,0.002044677734375,0.62164306640625,0.7828369140625,0.025604248046875,-0.06103515625,0.0,0.06103515625,0.0286865234375,0.0419921875,-1.0169677734375,249.0,97.0,-109.0,101446.0,-1.0070000886917114,0,0
83.291996,0.002044677734375,0.62164306640625,0.7828369140625,0.02557373046875,0.06103515625,-0.06103515625,-0.244140625,0.0291748046875,0.041015625,-1.0166015625,249.0,97.0,-109.0,101446.0,-1.0080000162124634,0,0
83.298029,0.002044677734375,0.62164306640625,0.7828369140625,0.02557373046875,0.06103515625,-0.06103515625,-0.244140625,0.0291748046875,0.041015625,-1.0166015625,249.0,97.0,-109.0,101446.0,-1.0080000162124634,0,0
83.304998,0.001953125,0.618927001953125,0.785003662109375,0.02557373046875,-0.06103515625,-0.06103515625,0.18310546875,0.030029296875,0.0411376953125,-1.0179443359375,248.0,96.0,-110.0,101446.0,-1.0080000162124634,0,0
83.325996,0.001922607421875,0.618927001953125,0.785003662109375,0.02557373046875,-0.3662109375,0.3662109375,-0.06103515625,0.0302734375,0.0428466796875,-1.015869140625,248.0,96.0,-110.0,101446.0,-1.0080000162124634,0,0
83.332995,0.001922607421875,0.618927001953125,0.785003662109375,0.02557373046875,0.1220703125,0.18310546875,0.0,0.030517578125,0.04248046875,-1.017333984375,248.0,96.0,-110.0,101446.0,-1.0080000162124634,0,0
83.339996,0.001922607421875,0.618927001953125,0.785003662109375,0.02557373046875,0.1220703125,0.244140625,0.1220703125,0.0296630859375,0.0439453125,-1.0169677734375,248.0,96.0,-110.0,101446.0,-1.0080000162124634,0,0
83.346995,0.001922607421875,0.618927001953125,0.785003662109375,0.02557373046875,0.18310546875,-0.1220703125,0.1220703125,0.0286865234375,0.0452880859375,-1.0177001953125,248.0,96.0,-110.0,101446.0,-1.0080000162124634,0,0
83.353994,0.001922607421875,0.618927001953125,0.785003662109375,0.02557373046875,0.30517578125,0.54931640625,-0.1220703125,0.0296630859375,0.0421142578125,-1.015625,248.0,96.0,-110.0,101446.0,-1.0080000162124634,0,0
83.360998,0.001922607421875,0.618927001953125,0.785003662109375,0.02557373046875,0.0,-0.06103515625,0.1220703125,0.02978515625,0.0428466796875,-1.0164794921875,248.0,96.0,-110.0,101446.0,-1.0080000162124634,0,0
83.367998,0.001922607421875,0.618927001953125,0.785003662109375,0.02557373046875,-0.06103515625,0.18310546875,-0.1220703125,0.02490234375,0.0438232421875,-1.0147705078125,248.0,96.0,-110.0,101446.0,-1.0080000162124634,0,0
83.374997,0.001953125,0.618927001953125,0.785003662109375,0.02557373046875,-0.244140625,0.1220703125,0.06103515625,0.0277099609375,0.04150390625,-1.0162353515625,248.0,96.0,-110.0,101446.0,-1.0080000162124634,0,0
83.381996,0.001953125,0.618927001953125,0.785003662109375,0.025543212890625,-0.06103515625,-0.06103515625,0.06103515625,0.026611328125,0.0423583984375,-1.0167236328125,248.0,96.0,-110.0,101446.0,-1.0080000162124634,0,0
83.388996,0.001953125,0.618927001953125,0.785003662109375,0.025543212890625,0.244140625,0.244140625,-0.06103515625,0.02734375,0.043701171875,-1.0172119140625,248.0,96.0,-110.0,101446.0,-1.0080000162124634,0,0
83.395028,0.001953125,0.618927001953125,0.785003662109375,0.025543212890625,0.244140625,0.244140625,-0.06103515625,0.02734375,0.043701171875,-1.0172119140625,248.0,96.0,-110.0,101446.0,-1.0080000162124634,0,0
83.415996,0.00189208984375,0.616241455078125,0.787109375,0.025543212890625,-0.06103515625,0.1220703125,-0.18310546875,0.027099609375,0.0435791015625,-1.0166015625,247.0,96.0,-109.0,101446.0,-1.0070000886917114,0,0
83.422996,0.001922607421875,0.616241455078125,0.787109375,0.025543212890625,0.30517578125,0.18310546875,-0.30517578125,0.0291748046875,0.0445556640625,-1.0164794921875,247.0,96.0,-109.0,101446.0,-1.0070000886917114,0,0
83.43,0.001922607421875,0.616241455078125,0.787109375,0.025543212890625,-0.244140625,0.18310546875,0.1220703125,0.0283203125,0.04443359375,-1.0167236328125,247.0,96.0,-109.0,101446.0,-1.0070000886917114,0,0
83.436999,0.001922607421875,0.616241455078125,0.787109375,0.025543212890625,0.67138671875,-0.06103515625,0.1220703125,0.0299072265625,0.041015625,-1.0159912109375,247.0,96.0,-109.0,101446.0,-1.0070000886917114,0,0
83.443999,0.001922607421875,0.616241455078125,0.787109375,0.025543212890625,0.3662109375,0.0,-0.1220703125,0.0286865234375,0.0428466796875,-1.015625,247.0,96.0,-109.0,101446.0,-1.0070000886917114,0,0
83.450998,0.00189208984375,0.616241455078125,0.787109375,0.025543212890625,-0.1220703125,0.06103515625,0.3662109375,0.0296630859375,0.0423583984375,-1.01611328125,247.0,96.0,-109.0,101446.0,-1.0070000886917114,0,0
83.457998,0.00189208984375,0.616241455078125,0.787109375,0.025543212890625,0.67138671875,0.0,-0.1220703125,0.030517578125,0.0435791015625,-1.016357421875,247.0,96.0,-109.0,101446.0,-1.0070000886917114,0,0
83.464997,0.001861572265625,0.616241455078125,0.787109375,0.0255126953125,0.06103515625,0.06103515625,0.06103515625,0.0299072265625,0.0421142578125,-1.0164794921875,247.0,96.0,-109.0,101446.0,-1.0070000886917114,0,0
83.471996,0.001861572265625,0.616241455078125,0.787109375,0.0255126953125,0.244140625,-0.06103515625,0.244140625,0.0277099609375,0.04052734375,-1.016845703125,247.0,96.0,-109.0,101446.0,-1.0070000886917114,0,0
83.478996,0.001861572265625,0.616241455078125,0.787109375,0.0255126953125,0.06103515625,0.18310546875,0.1220703125,0.02783203125,0.0411376953125,-1.0157470703125,247.0,96.0,-109.0,101446.0,-1.0070000886917114,0,0
83.485028,0.001861572265625,0.616241455078125,0.787109375,0.0255126953125,0.06103515625,0.18310546875,0.1220703125,0.02783203125,0.0411376953125,-1.0157470703125,247.0,96.0,-109.0,101446.0,-1.0070000886917114,0,0
83.491997,0.001861572265625,0.616241455078125,0.787109375,0.0255126953125,0.18310546875,0.244140625,0.0,0.0291748046875,0.0419921875,-1.0167236328125,247.0,96.0,-109.0,101446.0,-1.0070000886917114,0,0
83.498996,0.001861572265625,0.616241455078125,0.787109375,0.025482177734375,0.0,0.1220703125,-0.1220703125,0.0257568359375,0.04248046875,-1.0164794921875,247.0,96.0,-109.0,101446.0,-1.0090000629425049,0,0
83.505996,0.001800537109375,0.61370849609375,0.789093017578125,0.025482177734375,0.244140625,-0.06103515625,-0.1220703125,0.029052734375,0.040771484375,-1.0181884765625,247.0,96.0,-109.0,101446.0,-1.0090000629425049,0,0
83.512995,0.001800537109375,0.61370849609375,0.789093017578125,0.025482177734375,0.1220703125,0.06103515625,0.244140625,0.028564453125,0.0447998046875,-1.0157470703125,247.0,96.0,-109.0,101446.0,-1.0090000629425049,0,0
83.519996,0.001800537109375,0.61370849609375,0.789093017578125,0.0255126953125,0.06103515625,-0.06103515625,0.48828125,0.0294189453125,0.0465087890625,-1.0172119140625,247.0,96.0,-109.0,101446.0,-1.0090000629425049,0,0
83.526995,0.001800537109375,0.613800048828125,0.789031982421875,0.02545166015625,-0.244140625,-0.48828125,2.99072265625,0.0284423828125,0.0281982421875,-1.01904296875,247.0,96.0,-109.0,101446.0,-1.0090000629425049,0,0
83.533994,0.00140380859375,0.6146240234375,0.788421630859375,0.02471923828125,4.39453125,-1.3427734375,29.11376953125,-0.00732421875,-0.177490234375,-1.0081787109375,247.0,96.0,-109.0,101446.0,-1.0090000629425049,0,0
83.540998,0.00201416015625,0.617218017578125,0.786346435546875,0.025665283203125,-12.6953125,-1.5869140625,35.888671875,0.052001953125,0.067626953125,-1.016357421875,247.0,96.0,-109.0,101446.0,-1.0090000629425049,0,0
83.547998,0.0020751953125,0.617584228515625,0.786041259765625,0.025848388671875,-0.244140625,-0.54931640625,13.12255859375,0.05126953125,0.09814453125,-1.0323486328125,247.0,96.0,-109.0,101446.0,-1.0090000629425049,0,0
83.554997,0.002166748046875,0.6177978515625,0.785888671875,0.02593994140625,0.1220703125,-0.8544921875,7.62939453125,0.041259765625,0.0927734375,-1.026611328125,247.0,96.0,-109.0,101446.0,-1.0090000629425049,0,0
83.561996,0.002166748046875,0.6177978515625,0.785888671875,0.0260009765625,-0.6103515625,0.18310546875,-0.06103515625,0.029296875,0.041748046875,-1.015380859375,247.0,96.0,-109.0,101446.0,-1.0090000629425049,0,0
83.568996,0.002166748046875,0.6177978515625,0.785888671875,0.025970458984375,-0.91552734375,0.30517578125,-0.06103515625,0.026611328125,0.0404052734375,-1.017578125,247.0,96.0,-109.0,101446.0,-1.0090000629425049,0,0
83.588996,0.00213623046875,0.6177978515625,0.785888671875,0.02593994140625,-0.06103515625,0.18310546875,-0.1220703125,0.0281982421875,0.0428466796875,-1.0169677734375,247.0,96.0,-109.0,101446.0,-1.0090000629425049,0,0
83.595996,0.00213623046875,0.6177978515625,0.785888671875,0.02593994140625,-0.244140625,-0.1220703125,0.06103515625,0.0291748046875,0.0439453125,-1.0157470703125,247.0,97.0,-109.0,101445.0,-1.00600004196167,0,0
83.602995,0.00201416015625,0.61395263671875,0.788909912109375,0.02593994140625,-0.42724609375,0.244140625,0.06103515625,0.0283203125,0.0426025390625,-1.015380859375,247.0,97.0,-109.0,101445.0,-1.00600004196167,0,0
83.609996,0.00201416015625,0.61395263671875,0.788909912109375,0.02593994140625,0.3662109375,-0.06103515625,0.18310546875,0.02978515625,0.0455322265625,-1.0162353515625,247.0,97.0,-109.0,101445.0,-1.00600004196167,0,0
83.616995,0.001861572265625,0.614410400390625,0.788543701171875,0.025787353515625,-0.18310546875,-0.3662109375,0.3662109375,0.0303955078125,0.0423583984375,-1.01708984375,247.0,97.0,-109.0,101445.0,-1.00600004196167,0,0
83.623994,0.0018310546875,0.614990234375,0.7880859375,0.02569580078125,-2.62451171875,-0.42724609375,20.44677734375,0.0194091796875,-0.0172119140625,-1.0203857421875,247.0,97.0,-109.0,101445.0,-1.00600004196167,0,0
83.630998,0.001922607421875,0.616241455078125,0.787109375,0.025665283203125,-2.74658203125,-0.67138671875,23.74267578125,0.0086669921875,0.0107421875,-1.02294921875,247.0,97.0,-109.0,101445.0,-1.00600004196167,0,0
83.637998,0.001800537109375,0.617584228515625,0.786041259765625,0.0255126953125,3.0517578125,0.18310546875,25.87890625,0.0218505859375,0.025390625,-1.0091552734375,247.0,97.0,-109.0,101445.0,-1.00600004196167,0,0
83.644997,0.001739501953125,0.618438720703125,0.785400390625,0.025390625,-0.67138671875,-0.3662109375,30.45654296875,0.016845703125,0.000732421875,-1.013671875,247.0,97.0,-109.0,101445.0,-1.00600004196167,0,0
83.651996,0.00177001953125,0.62030029296875,0.783905029296875,0.025543212890625,-5.79833984375,0.48828125,36.865234375,0.007080078125,-0.0233154296875,-1.0137939453125,247.0,97.0,-109.0,101445.0,-1.00600004196167,0,0
83.658996,0.001922607421875,0.6217041015625,0.782806396484375,0.0257568359375,0.67138671875,-0.6103515625,24.71923828125,0.02490234375,0.065673828125,-1.0186767578125,247.0,97.0,-109.0,101445.0,-1.00600004196167,0,0
83.678996,0.00201416015625,0.62347412109375,0.7813720703125,0.025970458984375,-1.03759765625,0.54931640625,1.03759765625,0.0386962890625,0.069091796875,-1.0147705078125,247.0,97.0,-109.0,101445.0,-1.00600004196167,0,0
83.685996,0.00201416015625,0.62347412109375,0.7813720703125,0.0260009765625,-0.6103515625,0.54931640625,0.18310546875,0.03515625,0.0546875,-1.0189208984375,247.0,97.0,-109.0,101445.0,-1.00600004196167,0,0
83.692996,0.00201416015625,0.62347412109375,0.7813720703125,0.0260009765625,0.3662109375,0.0,-0.06103515625,0.0294189453125,0.046142578125,-1.0167236328125,247.0,97.0,-109.0,101445.0,-1.00600004196167,0,0
83.7,0.00201416015625,0.62347412109375,0.7813720703125,0.0260009765625,-0.30517578125,0.18310546875,0.1220703125,0.031005859375,0.0455322265625,-1.0155029296875,248.0,97.0,-110.0,101445.0,-1.00600004196167,0,0
83.706999,0.00189208984375,0.619964599609375,0.784149169921875,0.0260009765625,0.1220703125,0.06103515625,0.244140625,0.030517578125,0.0418701171875,-1.0194091796875,248.0,97.0,-110.0,101445.0,-1.00600004196167,0,0
83.713999,0.00189208984375,0.619964599609375,0.784149169921875,0.0260009765625,-0.18310546875,-0.06103515625,0.0,0.0274658203125,0.0421142578125,-1.01708984375,248.0,97.0,-110.0,101445.0,-1.00600004196167,0,0
83.720998,0.00189208984375,0.619964599609375,0.784149169921875,0.025970458984375,0.3662109375,0.1220703125,0.06103515625,0.0267333984375,0.0399169921875,-1.017578125,248.0,97.0,-110.0,101445.0,-1.00600004196167,0,0
83.727998,0.00189208984375,0.619964599609375,0.784149169921875,0.02593994140625,0.0,0.06103515625,0.06103515625,0.0240478515625,0.0380859375,-1.015625,248.0,97.0,-110.0,101445.0,-1.00600004196167,0,0
83.734997,0.00189208984375,0.619964599609375,0.784149169921875,0.025909423828125,-0.42724609375,-0.06103515625,-0.06103515625,0.02783203125,0.0418701171875,-1.0179443359375,248.0,97.0,-110.0,101445.0,-1.00600004196167,0,0
83.741996,0.001922607421875,0.619964599609375,0.784149169921875,0.025909423828125,-0.1220703125,-0.06103515625,0.0,0.0277099609375,0.043701171875,-1.0177001953125,248.0,97.0,-110.0,101445.0,-1.00600004196167,0,0
83.748996,0.001922607421875,0.619964599609375,0.784149169921875,0.025909423828125,-0.18310546875,0.0,0.0,0.0279541015625,0.0423583984375,-1.016845703125,248.0,97.0,-110.0,101446.0,-1.0080000162124634,0,0
83.755995,0.001922607421875,0.619964599609375,0.784149169921875,0.025909423828125,-0.18310546875,0.06103515625,0.06103515625,0.0306396484375,0.0455322265625,-1.01708984375,248.0,97.0,-110.0,101446.0,-1.0080000162124634,0,0
83.762996,0.001922607421875,0.619964599609375,0.7841796875,0.025909423828125,0.0,0.0,0.1220703125,0.02734375,0.0440673828125,-1.013916015625,248.0,97.0,-110.0,101446.0,-1.0080000162124634,0,0
83.769027,0.001922607421875,0.619964599609375,0.7841796875,0.025909423828125,0.0,0.0,0.1220703125,0.02734375,0.0440673828125,-1.013916015625,248.0,97.0,-110.0,101446.0,-1.0080000162124634,0,0
83.775996,0.001922607421875,0.6199951171875,0.784149169921875,0.02587890625,-0.1220703125,0.244140625,1.0986328125,0.0260009765625,0.036865234375,-1.017333984375,248.0,97.0,-110.0,101446.0,-1.0080000162124634,0,0
83.782995,0.001922607421875,0.620147705078125,0.784027099609375,0.02581787109375,0.06103515625,0.0,1.64794921875,0.0260009765625,0.0379638671875,-1.016845703125,248.0,97.0,-110.0,101446.0,-1.0080000162124634,0,0
83.789996,0.001861572265625,0.620452880859375,0.7838134765625,0.02569580078125,-0.9765625,-0.244140625,10.25390625,0.0152587890625,-0.0067138671875,-1.0196533203125,248.0,97.0,-110.0,101446.0,-1.0080000162124634,0,0
83.796995,0.00189208984375,0.62115478515625,0.783233642578125,0.025726318359375,2.01416015625,-0.67138671875,9.58251953125,0.037109375,0.1033935546875,-1.00927734375,248.0,97.0,-110.0,101446.0,-1.0080000162124634,0,0
83.803994,0.00189208984375,0.62139892578125,0.783050537109375,0.02569580078125,0.48828125,-0.244140625,9.09423828125,0.0274658203125,0.0467529296875,-1.0137939453125,248.0,97.0,-111.0,101446.0,-1.0080000162124634,0,0
83.810998,0.001739501953125,0.617523193359375,0.786102294921875,0.025665283203125,0.06103515625,-0.3662109375,9.6435546875,0.0283203125,0.051025390625,-1.021240234375,248.0,97.0,-111.0,101446.0,-1.0080000162124634,0,0
83.817998,0.001708984375,0.6181640625,0.785614013671875,0.025543212890625,1.28173828125,-0.48828125,11.77978515625,0.0296630859375,0.0400390625,-1.0230712890625,248.0,97.0,-111.0,101446.0,-1.0080000162124634,0,0
83.824997,0.00164794921875,0.618988037109375,0.784942626953125,0.025482177734375,-1.220703125,-0.06103515625,15.68603515625,0.02880859375,0.034912109375,-1.02587890625,248.0,97.0,-111.0,101446.0,-1.0080000162124634,0,0
83.831996,0.001800537109375,0.61932373046875,0.78466796875,0.025665283203125,-4.8828125,-0.54931640625,12.02392578125,0.04150390625,0.0694580078125,-1.0294189453125,248.0,97.0,-111.0,101446.0,-1.0080000162124634,0,0
83.852996,0.00189208984375,0.61932373046875,0.78466796875,0.02593994140625,-0.3662109375,0.244140625,-0.1220703125,0.03076171875,0.04052734375,-1.015869140625,248.0,97.0,-111.0,101445.0,-1.0040000677108765,0,0
83.859027,0.00189208984375,0.61932373046875,0.78466796875,0.02593994140625,-0.3662109375,0.244140625,-0.1220703125,0.03076171875,0.04052734375,-1.015869140625,248.0,97.0,-111.0,101445.0,-1.0040000677108765,0,0
83.865996,0.001922607421875,0.61932373046875,0.78466796875,0.02593994140625,-0.18310546875,0.0,0.0,0.02783203125,0.0421142578125,-1.01708984375,248.0,97.0,-111.0,101445.0,-1.0040000677108765,0,0
83.872995,0.001922607421875,0.61932373046875,0.78466796875,0.025909423828125,-0.244140625,-0.06103515625,-0.18310546875,0.029296875,0.0400390625,-1.015380859375,248.0,97.0,-111.0,101445.0,-1.0040000677108765,0,0
83.879996,0.001922607421875,0.61932373046875,0.78466796875,0.025909423828125,-0.18310546875,0.18310546875,-0.1220703125,0.02783203125,0.0419921875,-1.0186767578125,248.0,97.0,-111.0,101445.0,-1.0040000677108765,0,0
83.886995,0.001922607421875,0.61932373046875,0.78466796875,0.02587890625,-0.06103515625,-0.06103515625,0.0,0.0257568359375,0.0433349609375,-1.0146484375,248.0,97.0,-111.0,101445.0,-1.0040000677108765,0,0
83.893994,0.001922607421875,0.61932373046875,0.78466796875,0.02587890625,-0.1220703125,-0.06103515625,-0.06103515625,0.0272216796875,0.0443115234375,-1.0166015625,248.0,97.0,-111.0,101445.0,-1.0040000677108765,0,0
83.900998,0.001922607421875,0.61932373046875,0.78466796875,0.02587890625,0.30517578125,0.06103515625,-0.1220703125,0.0283203125,0.04345703125,-1.0169677734375,248.0,97.0,-111.0,101445.0,-1.0040000677108765,0,0
83.907998,0.0018310546875,0.616790771484375,0.786651611328125,0.02587890625,-0.244140625,0.30517578125,0.0,0.027099609375,0.04296875,-1.0181884765625,248.0,97.0,-111.0,101445.0,-1.0040000677108765,0,0
83.914997,0.0018310546875,0.616790771484375,0.786651611328125,0.025848388671875,-0.18310546875,0.1220703125,-0.18310546875,0.029052734375,0.0426025390625,-1.0162353515625,248.0,97.0,-111.0,101445.0,-1.0040000677108765,0,0
83.935995,0.0018310546875,0.616790771484375,0.786651611328125,0.02581787109375,0.18310546875,0.244140625,0.0,0.031005859375,0.0390625,-1.016845703125,248.0,97.0,-111.0,101445.0,-1.0040000677108765,0,0
83.942996,0.0018310546875,0.616790771484375,0.786651611328125,0.02581787109375,-0.06103515625,0.1220703125,-0.06103515625,0.028564453125,0.0418701171875,-1.0166015625,248.0,97.0,-111.0,101445.0,-1.0040000677108765,0,0
83.949995,0.0018310546875,0.616790771484375,0.786651611328125,0.025787353515625,-0.06103515625,-0.244140625,0.18310546875,0.0294189453125,0.0401611328125,-1.019775390625,248.0,97.0,-111.0,101446.0,-1.0080000162124634,0,0
83.956023,0.0018310546875,0.616790771484375,0.786651611328125,0.025787353515625,-0.06103515625,-0.244140625,0.18310546875,0.0294189453125,0.0401611328125,-1.019775390625,248.0,97.0,-111.0,101446.0,-1.0080000162124634,0,0
83.962996,0.00177001953125,0.616851806640625,0.78662109375,0.02581787109375,-0.244140625,0.0,1.52587890625,0.0455322265625,0.037109375,-1.01611328125,248.0,97.0,-111.0,101446.0,-1.0080000162124634,0,0
83.97,0.001312255859375,0.617340087890625,0.7862548828125,0.0257568359375,2.86865234375,0.244140625,6.9580078125,0.0997314453125,0.0177001953125,-1.0057373046875,248.0,97.0,-111.0,101446.0,-1.0080000162124634,0,0
83.976999,0.001007080078125,0.61810302734375,0.78564453125,0.02593994140625,-3.11279296875,-0.42724609375,14.404296875,0.0843505859375,0.0457763671875,-1.0133056640625,248.0,97.0,-111.0,101446.0,-1.0080000162124634,0,0
83.983999,0.001068115234375,0.61859130859375,0.785247802734375,0.02630615234375,-10.25390625,0.79345703125,18.4326171875,0.080322265625,0.038818359375,-1.016357421875,248.0,97.0,-111.0,101446.0,-1.0080000162124634,0,0
83.990998,0.00103759765625,0.620025634765625,0.784088134765625,0.0267333984375,-3.173828125,-0.54931640625,28.50341796875,0.08349609375,0.0433349609375,-1.013427734375,248.0,97.0,-111.0,101446.0,-1.0080000162124634,0,0
83.997998,0.0013427734375,0.62066650390625,0.7835693359375,0.027252197265625,-13.61083984375,2.99072265625,6.591796875,-0.004638671875,0.0482177734375,-1.0389404296875,248.0,97.0,-111.0,101446.0,-1.0080000162124634,0,0
84.004997,0.00177001953125,0.6204833984375,0.783721923828125,0.027313232421875,-9.33837890625,1.5869140625,-6.40869140625,-0.080322265625,0.038818359375,-0.9906005859375,249.0,97.0,-111.0,101446.0,-1.0080000162124634,0,0
84.011996,0.001800537109375,0.615966796875,0.787261962890625,0.027252197265625,-5.4931640625,0.8544921875,-11.5966796875,-0.024658203125,0.0225830078125,-1.017578125,249.0,97.0,-111.0,101446.0,-1.0080000162124634,0,0
84.018996,0.001617431640625,0.615142822265625,0.787933349609375,0.02691650390625,6.103515625,-0.54931640625,-17.02880859375,0.027099609375,0.0255126953125,-1.0164794921875,249.0,97.0,-111.0,101446.0,-1.0080000162124634,0,0
84.025996,0.00140380859375,0.6141357421875,0.7886962890625,0.026947021484375,2.3193359375,2.197265625,-19.6533203125,0.0294189453125,0.0260009765625,-1.00927734375,249.0,97.0,-111.0,101446.0,-1.0080000162124634,0,0
84.033,0.001739501953125,0.61383056640625,0.7889404296875,0.02728271484375,-8.056640625,4.45556640625,-11.16943359375,-0.030029296875,0.1087646484375,-1.08056640625,249.0,97.0,-111.0,101446.0,-1.0080000162124634,0,0
84.039999,0.00201416015625,0.613494873046875,0.789215087890625,0.026947021484375,7.01904296875,-0.9765625,-3.11279296875,-0.0047607421875,0.0623779296875,-1.00390625,249.0,97.0,-111.0,101446.0,-1.0080000162124634,0,0
84.046032,0.00201416015625,0.613494873046875,0.789215087890625,0.026947021484375,7.01904296875,-0.9765625,-3.11279296875,-0.0047607421875,0.0623779296875,-1.00390625,249.0,97.0,-111.0,101446.0,-1.0080000162124634,0,0
84.052995,0.002044677734375,0.613494873046875,0.789215087890625,0.0269775390625,0.54931640625,0.0,0.18310546875,0.029052734375,0.0413818359375,-1.0177001953125,249.0,97.0,-111.0,101445.0,-1.003000020980835,0,0
84.059996,0.002044677734375,0.613494873046875,0.789215087890625,0.026947021484375,-0.48828125,0.06103515625,0.06103515625,0.028076171875,0.0419921875,-1.0159912109375,249.0,97.0,-111.0,101445.0,-1.003000020980835,0,0
84.066995,0.0020751953125,0.613494873046875,0.789215087890625,0.026947021484375,0.18310546875,0.30517578125,0.18310546875,0.0274658203125,0.0445556640625,-1.017822265625,249.0,97.0,-111.0,101445.0,-1.003000020980835,0,0
84.073994,0.0020751953125,0.613494873046875,0.789215087890625,0.026947021484375,0.30517578125,0.1220703125,0.06103515625,0.0286865234375,0.04296875,-1.0159912109375,249.0,97.0,-111.0,101445.0,-1.003000020980835,0,0
84.080998,0.0020751953125,0.613494873046875,0.789215087890625,0.02691650390625,-0.48828125,0.0,0.0,0.0284423828125,0.04345703125,-1.015869140625,249.0,97.0,-111.0,101445.0,-1.003000020980835,0,0
84.087998,0.0020751953125,0.613494873046875,0.789215087890625,0.02691650390625,0.18310546875,0.1220703125,0.06103515625,0.02783203125,0.04443359375,-1.0155029296875,249.0,97.0,-111.0,101445.0,-1.003000020980835,0,0
84.094997,0.002044677734375,0.613494873046875,0.789215087890625,0.026885986328125,-0.1220703125,0.0,0.1220703125,0.030029296875,0.0430908203125,-1.0159912109375,249.0,97.0,-111.0,101445.0,-1.003000020980835,0,0
84.115995,0.001983642578125,0.61199951171875,0.790374755859375,0.026824951171875,-0.30517578125,0.1220703125,0.18310546875,0.02880859375,0.039306640625,-1.018798828125,251.0,96.0,-112.0,101445.0,-1.003000020980835,0,0
84.122996,0.001953125,0.61199951171875,0.790374755859375,0.02679443359375,0.0,0.244140625,0.18310546875,0.0316162109375,0.0404052734375,-1.0164794921875,251.0,96.0,-112.0,101445.0,-1.003000020980835,0,0
84.129995,0.001922607421875,0.61199951171875,0.790374755859375,0.02679443359375,0.18310546875,0.1220703125,-0.06103515625,0.0311279296875,0.0391845703125,-1.0184326171875,251.0,96.0,-112.0,101445.0,-1.003000020980835,0,0
84.136994,0.001922607421875,0.61199951171875,0.790374755859375,0.026763916015625,-0.1220703125,0.0,0.18310546875,0.0303955078125,0.042236328125,-1.0172119140625,251.0,96.0,-112.0,101445.0,-1.003000020980835,0,0
84.143026,0.001922607421875,0.61199951171875,0.790374755859375,0.026763916015625,-0.1220703125,0.0,0.18310546875,0.0303955078125,0.042236328125,-1.0172119140625,251.0,96.0,-112.0,101445.0,-1.003000020980835,0,0
84.149996,0.00189208984375,0.61199951171875,0.790374755859375,0.0267333984375,0.06103515625,-0.06103515625,0.06103515625,0.0306396484375,0.0406494140625,-1.0152587890625,251.0,96.0,-112.0,101445.0,-1.003000020980835,0,0
84.156995,0.00189208984375,0.61199951171875,0.790374755859375,0.0267333984375,-0.244140625,0.06103515625,0.06103515625,0.0296630859375,0.0413818359375,-1.0177001953125,251.0,96.0,-112.0,101446.0,-1.0070000886917114,0,0
84.163994,0.001861572265625,0.61199951171875,0.790374755859375,0.026702880859375,0.06103515625,-0.244140625,-0.18310546875,0.0281982421875,0.042236328125,-1.017578125,251.0,96.0,-112.0,101446.0,-1.0070000886917114,0,0
84.170998,0.001861572265625,0.61199951171875,0.790374755859375,0.026702880859375,-0.06103515625,0.1220703125,0.06103515625,0.0286865234375,0.042724609375,-1.0169677734375,251.0,96.0,-112.0,101446.0,-1.0070000886917114,0,0
84.177998,0.001861572265625,0.61199951171875,0.790374755859375,0.02667236328125,-0.30517578125,0.18310546875,0.06103515625,0.03076171875,0.043701171875,-1.018310546875,251.0,96.0,-112.0,101446.0,-1.0070000886917114,0,0
84.198996,0.001861572265625,0.61199951171875,0.790374755859375,0.026611328125,0.30517578125,0.06103515625,0.0,0.0301513671875,0.0411376953125,-1.0185546875,251.0,96.0,-112.0,101446.0,-1.0070000886917114,0,0
